{
  "name": "Akwa Ibom",
  "slug": "akwa-ibom",
  "lgas": [
    {
      "name": "Abak",
      "slug": "akwa-ibom-abak",
      "markets": [],
      "facilities": [
        {
          "type": "market",
          "name": "Etim Marice Ikot Inyang Ata Essien",
          "slug": "etim-marice-ikot-inyang-ata-essien-market",
          "coordinates": {
            "lat": 5.0406399999361,
            "lng": 7.68826999956087
          },
          "source": "grid3",
          "verified": true,
          "metadata": {
            "mrkt_days": "0"
          }
        },
        {
          "type": "market",
          "name": "Weekly Market Ikot Osom",
          "slug": "weekly-market-ikot-osom-market",
          "coordinates": {
            "lat": 5.06879000035826,
            "lng": 7.78860999975171
          },
          "source": "grid3",
          "verified": true,
          "metadata": {
            "mrkt_days": "0"
          }
        },
        {
          "type": "market",
          "name": "Nyemeiko Market Nto Otong",
          "slug": "nyemeiko-market-nto-otong-market",
          "coordinates": {
            "lat": 5.02651999989814,
            "lng": 7.73499999975024
          },
          "source": "grid3",
          "verified": true,
          "metadata": {
            "mrkt_days": "0"
          }
        },
        {
          "type": "market",
          "name": "Weekly Market Ibong Otoro",
          "slug": "weekly-market-ibong-otoro-market",
          "coordinates": {
            "lat": 5.09363999968627,
            "lng": 7.77848000025188
          },
          "source": "grid3",
          "verified": true,
          "metadata": {
            "mrkt_days": "0"
          }
        },
        {
          "type": "market",
          "name": "Weekly Market Abiakpo",
          "slug": "weekly-market-abiakpo-market",
          "coordinates": {
            "lat": 5.05400000000003,
            "lng": 7.79324000012593
          },
          "source": "grid3",
          "verified": true,
          "metadata": {
            "mrkt_days": "0"
          }
        },
        {
          "type": "market",
          "name": "Urua Nsan Edem Idim",
          "slug": "urua-nsan-edem-idim-market",
          "coordinates": {
            "lat": 5.04494000038073,
            "lng": 7.79094999974274
          },
          "source": "grid3",
          "verified": true,
          "metadata": {
            "mrkt_days": "0"
          }
        },
        {
          "type": "market",
          "name": "Offiong Market Nto Otong",
          "slug": "offiong-market-nto-otong-market",
          "coordinates": {
            "lat": 5.02817000044519,
            "lng": 7.74657000000553
          },
          "source": "grid3",
          "verified": true,
          "metadata": {
            "mrkt_days": "0"
          }
        },
        {
          "type": "market",
          "name": "Urua Manamo Market Ntukuk",
          "slug": "urua-manamo-market-ntukuk-market",
          "coordinates": {
            "lat": 5.02762999982468,
            "lng": 7.75161999996305
          },
          "source": "grid3",
          "verified": true,
          "metadata": {
            "mrkt_days": "0"
          }
        },
        {
          "type": "market",
          "name": "Ukim Market Ikot Ekwere",
          "slug": "ukim-market-ikot-ekwere-market",
          "coordinates": {
            "lat": 5.06508999970379,
            "lng": 7.81036000001404
          },
          "source": "grid3",
          "verified": true,
          "metadata": {
            "mrkt_days": "0"
          }
        },
        {
          "type": "market",
          "name": "Weekly Market Nko Otoro",
          "slug": "weekly-market-nko-otoro-market",
          "coordinates": {
            "lat": 5.08127000031033,
            "lng": 7.78772999963979
          },
          "source": "grid3",
          "verified": true,
          "metadata": {
            "mrkt_days": "0"
          }
        },
        {
          "type": "market",
          "name": "Weekly Market Ibiaakpan 2",
          "slug": "weekly-market-ibiaakpan-2-market",
          "coordinates": {
            "lat": 5.07924000022587,
            "lng": 7.80997000001554
          },
          "source": "grid3",
          "verified": true,
          "metadata": {
            "mrkt_days": "0"
          }
        },
        {
          "type": "market",
          "name": "Morning Market Ikot Akpan Ikpong",
          "slug": "morning-market-ikot-akpan-ikpong-market",
          "coordinates": {
            "lat": 5.07425000033732,
            "lng": 7.73326000044869
          },
          "source": "grid3",
          "verified": true,
          "metadata": {
            "mrkt_days": "0"
          }
        },
        {
          "type": "market",
          "name": "Obo Essien Ibiaakpan 2",
          "slug": "obo-essien-ibiaakpan-2-market",
          "coordinates": {
            "lat": 5.06892999961985,
            "lng": 7.79845999982916
          },
          "source": "grid3",
          "verified": true,
          "metadata": {
            "mrkt_days": "0"
          }
        },
        {
          "type": "market",
          "name": "Urua Anpa Eriam Afaha Obong",
          "slug": "urua-anpa-eriam-afaha-obong-market",
          "coordinates": {
            "lat": 5.06339000044824,
            "lng": 7.73628000032181
          },
          "source": "grid3",
          "verified": true,
          "metadata": {
            "mrkt_days": "0"
          }
        },
        {
          "type": "market",
          "name": "Urua Ibaya Ikot Inyang",
          "slug": "urua-ibaya-ikot-inyang-market",
          "coordinates": {
            "lat": 5.06327999987212,
            "lng": 7.76752000024788
          },
          "source": "grid3",
          "verified": true,
          "metadata": {
            "mrkt_days": "0"
          }
        },
        {
          "type": "market",
          "name": "Urua Edet Ikot Ibom",
          "slug": "urua-edet-ikot-ibom-market",
          "coordinates": {
            "lat": 5.06083999976624,
            "lng": 7.7765700003053
          },
          "source": "grid3",
          "verified": true,
          "metadata": {
            "mrkt_days": "0"
          }
        },
        {
          "type": "market",
          "name": "Urua Atim Eriam Afaha Obong",
          "slug": "urua-atim-eriam-afaha-obong-market",
          "coordinates": {
            "lat": 5.06038000013695,
            "lng": 7.74111000002654
          },
          "source": "grid3",
          "verified": true,
          "metadata": {
            "mrkt_days": "0"
          }
        },
        {
          "type": "market",
          "name": "Urua Urom Ikot Ibit Ekpe",
          "slug": "urua-urom-ikot-ibit-ekpe-market",
          "coordinates": {
            "lat": 5.05837000007551,
            "lng": 7.76161999976324
          },
          "source": "grid3",
          "verified": true,
          "metadata": {
            "mrkt_days": "0"
          }
        },
        {
          "type": "market",
          "name": "Urua Dupakpan Udo Ikot Ibit Ekpe",
          "slug": "urua-dupakpan-udo-ikot-ibit-ekpe-market",
          "coordinates": {
            "lat": 5.05541999983319,
            "lng": 7.76452999995956
          },
          "source": "grid3",
          "verified": true,
          "metadata": {
            "mrkt_days": "0"
          }
        },
        {
          "type": "market",
          "name": "Urua Atim Ikot Udo Obio Iwok",
          "slug": "urua-atim-ikot-udo-obio-iwok-market",
          "coordinates": {
            "lat": 5.04927999997204,
            "lng": 7.75299000018839
          },
          "source": "grid3",
          "verified": true,
          "metadata": {
            "mrkt_days": "0"
          }
        },
        {
          "type": "market",
          "name": "Weekely Market Ikot Ufen",
          "slug": "weekely-market-ikot-ufen-market",
          "coordinates": {
            "lat": 5.04911000022639,
            "lng": 7.77370999971674
          },
          "source": "grid3",
          "verified": true,
          "metadata": {
            "mrkt_days": "0"
          }
        },
        {
          "type": "market",
          "name": "Urua Essien Ikot Obong",
          "slug": "urua-essien-ikot-obong-market",
          "coordinates": {
            "lat": 5.0457099999166,
            "lng": 7.76155000013244
          },
          "source": "grid3",
          "verified": true,
          "metadata": {
            "mrkt_days": "0"
          }
        },
        {
          "type": "market",
          "name": "Weekly Market Ikotapan Adia",
          "slug": "weekly-market-ikotapan-adia-market",
          "coordinates": {
            "lat": 5.04476999973576,
            "lng": 7.81863999963633
          },
          "source": "grid3",
          "verified": true,
          "metadata": {
            "mrkt_days": "0"
          }
        },
        {
          "type": "market",
          "name": "Etok Obo Ikot Udo Urom",
          "slug": "etok-obo-ikot-udo-urom-market",
          "coordinates": {
            "lat": 5.04408999985367,
            "lng": 7.73661000025135
          },
          "source": "grid3",
          "verified": true,
          "metadata": {
            "mrkt_days": "0"
          }
        },
        {
          "type": "market",
          "name": "Edet Obo Market Ikot Ifang",
          "slug": "edet-obo-market-ikot-ifang-market",
          "coordinates": {
            "lat": 5.04082999970478,
            "lng": 7.72052999975972
          },
          "source": "grid3",
          "verified": true,
          "metadata": {
            "mrkt_days": "0"
          }
        },
        {
          "type": "market",
          "name": "Weekly Market Ikot Ikpe",
          "slug": "weekly-market-ikot-ikpe-market",
          "coordinates": {
            "lat": 5.04026000039875,
            "lng": 7.72068000038178
          },
          "source": "grid3",
          "verified": true,
          "metadata": {
            "mrkt_days": "0"
          }
        },
        {
          "type": "market",
          "name": "Eto Nkrok Market Ikot Udo Urom",
          "slug": "eto-nkrok-market-ikot-udo-urom-market",
          "coordinates": {
            "lat": 5.03953999957139,
            "lng": 7.73493000011945
          },
          "source": "grid3",
          "verified": true,
          "metadata": {
            "mrkt_days": "0"
          }
        },
        {
          "type": "market",
          "name": "Ekenyong Akpan Etok Uruk Obong",
          "slug": "ekenyong-akpan-etok-uruk-obong-market",
          "coordinates": {
            "lat": 5.03388999982366,
            "lng": 7.72818999956888
          },
          "source": "grid3",
          "verified": true,
          "metadata": {
            "mrkt_days": "0"
          }
        },
        {
          "type": "market",
          "name": "Weekly Market Atai Otoro",
          "slug": "weekly-market-atai-otoro-market",
          "coordinates": {
            "lat": 5.03240000035976,
            "lng": 7.7784899998137
          },
          "source": "grid3",
          "verified": true,
          "metadata": {
            "mrkt_days": "0"
          }
        },
        {
          "type": "market",
          "name": "Idoro Market Uruk Uso",
          "slug": "idoro-market-uruk-uso-market",
          "coordinates": {
            "lat": 5.03142999969475,
            "lng": 7.78987999986214
          },
          "source": "grid3",
          "verified": true,
          "metadata": {
            "mrkt_days": "0"
          }
        },
        {
          "type": "market",
          "name": "Ikot Akpa Edem Market",
          "slug": "ikot-akpa-edem-market-market",
          "coordinates": {
            "lat": 5.02813000039924,
            "lng": 7.77811000027634
          },
          "source": "grid3",
          "verified": true,
          "metadata": {
            "mrkt_days": "0"
          }
        },
        {
          "type": "market",
          "name": "Urua Uto Nto Obio Mkpe",
          "slug": "urua-uto-nto-obio-mkpe-market",
          "coordinates": {
            "lat": 5.0245200002978,
            "lng": 7.71845000006749
          },
          "source": "grid3",
          "verified": true,
          "metadata": {
            "mrkt_days": "0"
          }
        },
        {
          "type": "market",
          "name": "Weekly Market Ikot Udo Usung",
          "slug": "weekly-market-ikot-udo-usung-market",
          "coordinates": {
            "lat": 5.014960000104,
            "lng": 7.8245499996828
          },
          "source": "grid3",
          "verified": true,
          "metadata": {
            "mrkt_days": "0"
          }
        },
        {
          "type": "market",
          "name": "Urua Obo Ikot Ikot Ntuk",
          "slug": "urua-obo-ikot-ikot-ntuk-market",
          "coordinates": {
            "lat": 5.00755999969425,
            "lng": 7.71722000000307
          },
          "source": "grid3",
          "verified": true,
          "metadata": {
            "mrkt_days": "0"
          }
        },
        {
          "type": "market",
          "name": "Weekly Market Ikotobong Utu",
          "slug": "weekly-market-ikotobong-utu-market",
          "coordinates": {
            "lat": 4.99999000043823,
            "lng": 7.77844000020588
          },
          "source": "grid3",
          "verified": true,
          "metadata": {
            "mrkt_days": "0"
          }
        },
        {
          "type": "market",
          "name": "Weekly Market Abak Usung Atai",
          "slug": "weekly-market-abak-usung-atai-market",
          "coordinates": {
            "lat": 4.94480999998154,
            "lng": 7.79632000006802
          },
          "source": "grid3",
          "verified": true,
          "metadata": {
            "mrkt_days": "0"
          }
        },
        {
          "type": "market",
          "name": "Offiong Market Itung Abak",
          "slug": "offiong-market-itung-abak-market",
          "coordinates": {
            "lat": 4.93249000021336,
            "lng": 7.7912599996493
          },
          "source": "grid3",
          "verified": true,
          "metadata": {
            "mrkt_days": "0"
          }
        },
        {
          "type": "market",
          "name": "Urua Obom Itung Abak",
          "slug": "urua-obom-itung-abak-market",
          "coordinates": {
            "lat": 4.91788999962381,
            "lng": 7.78566999997059
          },
          "source": "grid3",
          "verified": true,
          "metadata": {
            "mrkt_days": "0"
          }
        },
        {
          "type": "market",
          "name": "Mami Market Ibagwa Ibagwa",
          "slug": "mami-market-ibagwa-ibagwa-market",
          "coordinates": {
            "lat": 4.89784000041573,
            "lng": 7.79613999986117
          },
          "source": "grid3",
          "verified": true,
          "metadata": {
            "mrkt_days": "0"
          }
        },
        {
          "type": "market",
          "name": "Ekpehe Oton Market Ikot Obio Mkpong",
          "slug": "ekpehe-oton-market-ikot-obio-mkpong-market",
          "coordinates": {
            "lat": 5.04507999964233,
            "lng": 7.81887000035027
          },
          "source": "grid3",
          "verified": true,
          "metadata": {
            "mrkt_days": "0"
          }
        },
        {
          "type": "market",
          "name": "Urua Ette Ukana Ikot Akpan Afia",
          "slug": "urua-ette-ukana-ikot-akpan-afia-market",
          "coordinates": {
            "lat": 5.08098999998856,
            "lng": 7.77914999967277
          },
          "source": "grid3",
          "verified": true,
          "metadata": {
            "mrkt_days": "0"
          }
        },
        {
          "type": "market",
          "name": "Urua Mbakara Adiasim Atai",
          "slug": "urua-mbakara-adiasim-atai-market",
          "coordinates": {
            "lat": 5.04936999962581,
            "lng": 7.70662999997455
          },
          "source": "grid3",
          "verified": true,
          "metadata": {
            "mrkt_days": "0"
          }
        },
        {
          "type": "market",
          "name": "Urua Afa Market Ikot Essien Etok",
          "slug": "urua-afa-market-ikot-essien-etok-market",
          "coordinates": {
            "lat": 5.07825000043721,
            "lng": 7.78390999974675
          },
          "source": "grid3",
          "verified": true,
          "metadata": {
            "mrkt_days": "0"
          }
        },
        {
          "type": "market",
          "name": "Urua Edet Ebebit",
          "slug": "urua-edet-ebebit-market",
          "coordinates": {
            "lat": 5.06327999987212,
            "lng": 7.74747999970225
          },
          "source": "grid3",
          "verified": true,
          "metadata": {
            "mrkt_days": "0"
          }
        },
        {
          "type": "market",
          "name": "Ekop Weekely Market Ikot Essien Etok",
          "slug": "ekop-weekely-market-ikot-essien-etok-market",
          "coordinates": {
            "lat": 5.06272999968979,
            "lng": 7.78919999998004
          },
          "source": "grid3",
          "verified": true,
          "metadata": {
            "mrkt_days": "0"
          }
        },
        {
          "type": "market",
          "name": "Urua Akete Afaha Esang",
          "slug": "urua-akete-afaha-esang-market",
          "coordinates": {
            "lat": 5.05326000004902,
            "lng": 7.71568000003202
          },
          "source": "grid3",
          "verified": true,
          "metadata": {
            "mrkt_days": "0"
          }
        },
        {
          "type": "market",
          "name": "Amadi Market Atan Midim",
          "slug": "amadi-market-atan-midim-market",
          "coordinates": {
            "lat": 5.04523000026433,
            "lng": 7.70416000028382
          },
          "source": "grid3",
          "verified": true,
          "metadata": {
            "mrkt_days": "0"
          }
        },
        {
          "type": "market",
          "name": "Urua Akpan Ibom Ikot Uko",
          "slug": "urua-akpan-ibom-ikot-uko-market",
          "coordinates": {
            "lat": 5.02764999984765,
            "lng": 7.70550999958687
          },
          "source": "grid3",
          "verified": true,
          "metadata": {
            "mrkt_days": "0"
          }
        },
        {
          "type": "market",
          "name": "Atim Nto Obo Nto Obo Ii",
          "slug": "atim-nto-obo-nto-obo-ii-market",
          "coordinates": {
            "lat": 5.01163999988614,
            "lng": 7.71040000025988
          },
          "source": "grid3",
          "verified": true,
          "metadata": {
            "mrkt_days": "0"
          }
        },
        {
          "type": "market",
          "name": "Abak Main Market Ikot Obiodo",
          "slug": "abak-main-market-ikot-obiodo-market",
          "coordinates": {
            "lat": 4.98208999965379,
            "lng": 7.78872000032783
          },
          "source": "grid3",
          "verified": true,
          "metadata": {
            "mrkt_days": "0"
          }
        },
        {
          "type": "market",
          "name": "Urua Aditaha Ikot Afaha",
          "slug": "urua-aditaha-ikot-afaha-market",
          "coordinates": {
            "lat": 4.91014999972276,
            "lng": 7.79901999957337
          },
          "source": "grid3",
          "verified": true,
          "metadata": {
            "mrkt_days": "0"
          }
        },
        {
          "type": "market",
          "name": "Urua Usung Market Ata Ediene",
          "slug": "urua-usung-market-ata-ediene-market",
          "coordinates": {
            "lat": 4.95242000018288,
            "lng": 7.81787000010047
          },
          "source": "grid3",
          "verified": true,
          "metadata": {
            "mrkt_days": "0"
          }
        },
        {
          "type": "market",
          "name": "Ikot Ofon Market Ikot Ofon",
          "slug": "ikot-ofon-market-ikot-ofon-market",
          "coordinates": {
            "lat": 4.9523699996758,
            "lng": 7.818240000076
          },
          "source": "grid3",
          "verified": true,
          "metadata": {
            "mrkt_days": "0"
          }
        },
        {
          "type": "health_facility",
          "name": "Itung Health Center",
          "slug": "itung-health-center-health-facility",
          "coordinates": {
            "lat": 4.92673,
            "lng": 7.78702
          },
          "source": "grid3",
          "verified": true,
          "metadata": {
            "facility_level": "Primary",
            "facility_level_option": "Primary Health Center",
            "ownership": "Public",
            "ownership_type": "Unknown"
          }
        },
        {
          "type": "health_facility",
          "name": "Abak (Operational Base) Primary Health Center",
          "slug": "abak-operational-base-primary-health-center-health-facility",
          "coordinates": {
            "lat": 4.9857666965,
            "lng": 7.79537263213
          },
          "source": "grid3",
          "verified": true,
          "metadata": {
            "facility_level": "Primary",
            "facility_level_option": "Primary Health Center",
            "ownership": "Public",
            "ownership_type": "Local Government"
          }
        },
        {
          "type": "health_facility",
          "name": "Ikot Etuk Udo Health Center",
          "slug": "ikot-etuk-udo-health-center-health-facility",
          "coordinates": {
            "lat": 5.10320933,
            "lng": 7.802253331
          },
          "source": "grid3",
          "verified": true,
          "metadata": {
            "facility_level": "Primary",
            "facility_level_option": "Primary Health Center",
            "ownership": "Public",
            "ownership_type": "Unknown"
          }
        },
        {
          "type": "health_facility",
          "name": "Ikot Akpan Ikpong Health Center",
          "slug": "ikot-akpan-ikpong-health-center-health-facility",
          "coordinates": {
            "lat": 5.065799455,
            "lng": 7.736935323
          },
          "source": "grid3",
          "verified": true,
          "metadata": {
            "facility_level": "Primary",
            "facility_level_option": "Primary Health Center",
            "ownership": "Public",
            "ownership_type": "Local Government"
          }
        },
        {
          "type": "health_facility",
          "name": "Mercy Hospital",
          "slug": "mercy-hospital-health-facility-2",
          "coordinates": {
            "lat": 4.986442113,
            "lng": 7.791789215
          },
          "source": "grid3",
          "verified": true,
          "metadata": {
            "facility_level": "Secondary",
            "facility_level_option": "Primary Health Center",
            "ownership": "Public",
            "ownership_type": "Unknown"
          }
        },
        {
          "type": "health_facility",
          "name": "Ikot Osom Health Post",
          "slug": "ikot-osom-health-post-health-facility",
          "coordinates": {
            "lat": 5.061523438,
            "lng": 7.806045986
          },
          "source": "grid3",
          "verified": true,
          "metadata": {
            "facility_level": "Primary",
            "facility_level_option": "Health Post",
            "ownership": "Public",
            "ownership_type": "Unknown"
          }
        },
        {
          "type": "health_facility",
          "name": "Ikot Ebak Health Post",
          "slug": "ikot-ebak-health-post-health-facility",
          "coordinates": {
            "lat": 4.995483399,
            "lng": 7.778076172
          },
          "source": "grid3",
          "verified": true,
          "metadata": {
            "facility_level": "Primary",
            "facility_level_option": "Health Post",
            "ownership": "Public",
            "ownership_type": "Unknown"
          }
        },
        {
          "type": "health_facility",
          "name": "Uduak Abasi Clinic",
          "slug": "uduak-abasi-clinic-health-facility",
          "coordinates": {
            "lat": 4.98622574219,
            "lng": 7.78561589844
          },
          "source": "grid3",
          "verified": true,
          "metadata": {
            "facility_level": "Secondary",
            "facility_level_option": "Primary Health Center",
            "ownership": "Private",
            "ownership_type": "Not For Profit"
          }
        },
        {
          "type": "health_facility",
          "name": "Cedar Olive Clinic",
          "slug": "cedar-olive-clinic-health-facility",
          "coordinates": {
            "lat": 4.98235,
            "lng": 7.79299
          },
          "source": "grid3",
          "verified": true,
          "metadata": {
            "facility_level": "Secondary",
            "facility_level_option": "Primary Health Center",
            "ownership": "Private",
            "ownership_type": "Not For Profit"
          }
        },
        {
          "type": "health_facility",
          "name": "Dynasty Medical Center",
          "slug": "dynasty-medical-center-health-facility",
          "coordinates": {
            "lat": 4.98672,
            "lng": 7.78302
          },
          "source": "grid3",
          "verified": true,
          "metadata": {
            "facility_level": "Secondary",
            "facility_level_option": "Primary Health Clinic",
            "ownership": "Private",
            "ownership_type": "For Profit"
          }
        },
        {
          "type": "health_facility",
          "name": "Afaha Obong Health Center",
          "slug": "afaha-obong-health-center-health-facility",
          "coordinates": {
            "lat": 5.03042210938,
            "lng": 7.74897550781
          },
          "source": "grid3",
          "verified": true,
          "metadata": {
            "facility_level": "Primary",
            "facility_level_option": "Primary Health Center",
            "ownership": "Public",
            "ownership_type": "Local Government"
          }
        },
        {
          "type": "health_facility",
          "name": "Midim Health Center",
          "slug": "midim-health-center-health-facility",
          "coordinates": {
            "lat": 5.02858179688,
            "lng": 7.71495457031
          },
          "source": "grid3",
          "verified": true,
          "metadata": {
            "facility_level": "Primary",
            "facility_level_option": "Primary Health Center",
            "ownership": "Public",
            "ownership_type": "Local Government"
          }
        },
        {
          "type": "health_facility",
          "name": "Abak Itenge Health Post",
          "slug": "abak-itenge-health-post-health-facility",
          "coordinates": {
            "lat": 4.99857,
            "lng": 7.73211
          },
          "source": "grid3",
          "verified": true,
          "metadata": {
            "facility_level": "Primary",
            "facility_level_option": "Health Post",
            "ownership": "Public",
            "ownership_type": "Local Government"
          }
        },
        {
          "type": "health_facility",
          "name": "Ibong Otoro Health Center",
          "slug": "ibong-otoro-health-center-health-facility",
          "coordinates": {
            "lat": 5.10373,
            "lng": 7.78832
          },
          "source": "grid3",
          "verified": true,
          "metadata": {
            "facility_level": "Primary",
            "facility_level_option": "Primary Health Center",
            "ownership": "Public",
            "ownership_type": "Unknown"
          }
        },
        {
          "type": "health_facility",
          "name": "Christian Faith Medical Center",
          "slug": "christian-faith-medical-center-health-facility",
          "coordinates": {
            "lat": 5.04848,
            "lng": 7.71923
          },
          "source": "grid3",
          "verified": true,
          "metadata": {
            "facility_level": "Primary",
            "facility_level_option": "Unknown",
            "ownership": "Unknown",
            "ownership_type": "Unknown"
          }
        },
        {
          "type": "health_facility",
          "name": "Mattens Specialist Clinic",
          "slug": "mattens-specialist-clinic-health-facility",
          "coordinates": {
            "lat": 5.02625,
            "lng": 7.753
          },
          "source": "grid3",
          "verified": true,
          "metadata": {
            "facility_level": "Tertiary",
            "facility_level_option": "General Hospital",
            "ownership": "Unknown",
            "ownership_type": "Unknown"
          }
        },
        {
          "type": "health_facility",
          "name": "Ukpom 2 Health Center",
          "slug": "ukpom-2-health-center-health-facility",
          "coordinates": {
            "lat": 5.025578333,
            "lng": 7.818835
          },
          "source": "grid3",
          "verified": true,
          "metadata": {
            "facility_level": "Primary",
            "facility_level_option": "Primary Health Center",
            "ownership": "Public",
            "ownership_type": "Unknown"
          }
        },
        {
          "type": "health_facility",
          "name": "Nto Obo 1 Health Center",
          "slug": "nto-obo-1-health-center-health-facility",
          "coordinates": {
            "lat": 5.01398,
            "lng": 7.70195
          },
          "source": "grid3",
          "verified": true,
          "metadata": {
            "facility_level": "Primary",
            "facility_level_option": "Primary Health Center",
            "ownership": "Unknown",
            "ownership_type": "Unknown"
          }
        },
        {
          "type": "health_facility",
          "name": "Enhope Clinic",
          "slug": "enhope-clinic-health-facility",
          "coordinates": {
            "lat": 4.94432,
            "lng": 7.79614
          },
          "source": "grid3",
          "verified": true,
          "metadata": {
            "facility_level": "Primary",
            "facility_level_option": "Unknown",
            "ownership": "Unknown",
            "ownership_type": "Unknown"
          }
        },
        {
          "type": "health_facility",
          "name": "Chief Dr Bokime Herbal Clinic",
          "slug": "chief-dr-bokime-herbal-clinic-health-facility",
          "coordinates": {
            "lat": 5.02984,
            "lng": 7.70935
          },
          "source": "grid3",
          "verified": true,
          "metadata": {
            "facility_level": "Primary",
            "facility_level_option": "Unknown",
            "ownership": "Unknown",
            "ownership_type": "Unknown"
          }
        },
        {
          "type": "health_facility",
          "name": "Anwa Ima Clinic",
          "slug": "anwa-ima-clinic-health-facility",
          "coordinates": {
            "lat": 5.03833,
            "lng": 7.76627
          },
          "source": "grid3",
          "verified": true,
          "metadata": {
            "facility_level": "Primary",
            "facility_level_option": "Unknown",
            "ownership": "Unknown",
            "ownership_type": "Unknown"
          }
        },
        {
          "type": "health_facility",
          "name": "Ukpom 1 Health Center",
          "slug": "ukpom-1-health-center-health-facility",
          "coordinates": {
            "lat": 5.034897464,
            "lng": 7.821344045
          },
          "source": "grid3",
          "verified": true,
          "metadata": {
            "facility_level": "Primary",
            "facility_level_option": "Primary Health Center",
            "ownership": "Unknown",
            "ownership_type": "Unknown"
          }
        },
        {
          "type": "health_facility",
          "name": "Abak Medical Center",
          "slug": "abak-medical-center-health-facility",
          "coordinates": {
            "lat": 4.963,
            "lng": 7.79736
          },
          "source": "grid3",
          "verified": true,
          "metadata": {
            "facility_level": "Primary",
            "facility_level_option": "Primary Health Clinic",
            "ownership": "Public",
            "ownership_type": "Unknown"
          }
        },
        {
          "type": "health_facility",
          "name": "Ika Ebak Health Post",
          "slug": "ika-ebak-health-post-health-facility",
          "coordinates": {
            "lat": 4.99152,
            "lng": 7.77818
          },
          "source": "grid3",
          "verified": true,
          "metadata": {
            "facility_level": "Primary",
            "facility_level_option": "Health Post",
            "ownership": "Public",
            "ownership_type": "Unknown"
          }
        },
        {
          "type": "health_facility",
          "name": "Military Hospital",
          "slug": "military-hospital-health-facility-2",
          "coordinates": {
            "lat": 4.90191,
            "lng": 7.79332
          },
          "source": "grid3",
          "verified": true,
          "metadata": {
            "facility_level": "Secondary",
            "facility_level_option": "Unknown",
            "ownership": "Public",
            "ownership_type": "Unknown"
          }
        },
        {
          "type": "health_facility",
          "name": "Abiaokpo Health Center",
          "slug": "abiaokpo-health-center-health-facility",
          "coordinates": {
            "lat": 5.02195,
            "lng": 7.81159
          },
          "source": "grid3",
          "verified": true,
          "metadata": {
            "facility_level": "Primary",
            "facility_level_option": "Primary Health Center",
            "ownership": "Public",
            "ownership_type": "Local Government"
          }
        },
        {
          "type": "health_facility",
          "name": "Divine Medical Center",
          "slug": "divine-medical-center-health-facility-4",
          "coordinates": {
            "lat": 4.98078,
            "lng": 7.80674
          },
          "source": "grid3",
          "verified": true,
          "metadata": {
            "facility_level": "Secondary",
            "facility_level_option": "Unknown",
            "ownership": "Private",
            "ownership_type": "Not For Profit"
          }
        },
        {
          "type": "health_facility",
          "name": "Ibagwa Medical Reception Station (6 Battallion)",
          "slug": "ibagwa-medical-reception-station-6-battallion-health-facility",
          "coordinates": {
            "lat": 4.90031,
            "lng": 7.79544
          },
          "source": "grid3",
          "verified": true,
          "metadata": {
            "facility_level": "Secondary",
            "facility_level_option": "Unknown",
            "ownership": "Private",
            "ownership_type": "Not For Profit"
          }
        },
        {
          "type": "health_facility",
          "name": "El Ropheka Care Clinic",
          "slug": "el-ropheka-care-clinic-health-facility",
          "coordinates": {
            "lat": 4.97981,
            "lng": 7.78653
          },
          "source": "grid3",
          "verified": true,
          "metadata": {
            "facility_level": "Secondary",
            "facility_level_option": "Unknown",
            "ownership": "Private",
            "ownership_type": "Not For Profit"
          }
        },
        {
          "type": "health_facility",
          "name": "Ibanang Ediene Health Center",
          "slug": "ibanang-ediene-health-center-health-facility-2",
          "coordinates": {
            "lat": 4.97832,
            "lng": 7.80094
          },
          "source": "grid3",
          "verified": true,
          "metadata": {
            "facility_level": "Primary",
            "facility_level_option": "Primary Health Center",
            "ownership": "Public",
            "ownership_type": "Local Government"
          }
        },
        {
          "type": "health_facility",
          "name": "Ukpom Abak General Hospital",
          "slug": "ukpom-abak-general-hospital-health-facility",
          "coordinates": {
            "lat": 5.01255,
            "lng": 7.81082
          },
          "source": "grid3",
          "verified": true,
          "metadata": {
            "facility_level": "Secondary",
            "facility_level_option": "Unknown",
            "ownership": "Public",
            "ownership_type": "State Government"
          }
        },
        {
          "type": "health_facility",
          "name": "Ukpom Abak Primary Health Center",
          "slug": "ukpom-abak-primary-health-center-health-facility",
          "coordinates": {
            "lat": 5.01436,
            "lng": 7.81349
          },
          "source": "grid3",
          "verified": true,
          "metadata": {
            "facility_level": "Primary",
            "facility_level_option": "Primary Health Center",
            "ownership": "Public",
            "ownership_type": "Local Government"
          }
        },
        {
          "type": "school",
          "name": "St Micheals Primary School Midim Ikot Ekon",
          "slug": "st-micheals-primary-school-midim-ikot-ekon-school",
          "coordinates": {
            "lat": 5.04841999988315,
            "lng": 7.69665000019739
          },
          "source": "grid3",
          "verified": true,
          "metadata": {
            "category": "Primary",
            "management": "Public",
            "education": "Formal",
            "subtype": "Standard"
          }
        },
        {
          "type": "school",
          "name": "Nursery And Primary School Ikotobong Utu",
          "slug": "nursery-and-primary-school-ikotobong-utu-school",
          "coordinates": {
            "lat": 4.99960000043973,
            "lng": 7.77637000007547
          },
          "source": "grid3",
          "verified": true,
          "metadata": {
            "category": "Primary",
            "management": "Public",
            "education": "Formal",
            "subtype": "Standard"
          }
        },
        {
          "type": "school",
          "name": "Top Ansuez Nursery Primary School Ikotobong Utu",
          "slug": "top-ansuez-nursery-primary-school-ikotobong-utu-school",
          "coordinates": {
            "lat": 4.99947469340242,
            "lng": 7.77834880805108
          },
          "source": "grid3",
          "verified": true,
          "metadata": {
            "category": "Primary",
            "management": "Public",
            "education": "Formal",
            "subtype": "Standard"
          }
        },
        {
          "type": "school",
          "name": "Nsentip Nursery And Primary School Ekpat Iduot",
          "slug": "nsentip-nursery-and-primary-school-ekpat-iduot-school",
          "coordinates": {
            "lat": 5.01838119203842,
            "lng": 7.71544511510001
          },
          "source": "grid3",
          "verified": true,
          "metadata": {
            "category": "Primary",
            "management": "Public",
            "education": "Formal",
            "subtype": "Standard"
          }
        },
        {
          "type": "school",
          "name": "Holy Innocent Nursery Primary School Ikot Ekiduk",
          "slug": "holy-innocent-nursery-primary-school-ikot-ekiduk-school",
          "coordinates": {
            "lat": 5.02633999969129,
            "lng": 7.70525000018739
          },
          "source": "grid3",
          "verified": true,
          "metadata": {
            "category": "Primary",
            "management": "Public",
            "education": "Formal",
            "subtype": "Standard"
          }
        },
        {
          "type": "school",
          "name": "Christ Temple Nursery And Primary School Ikot Uko",
          "slug": "christ-temple-nursery-and-primary-school-ikot-uko-school",
          "coordinates": {
            "lat": 5.03230999980667,
            "lng": 7.70564000018589
          },
          "source": "grid3",
          "verified": true,
          "metadata": {
            "category": "Primary",
            "management": "Public",
            "education": "Formal",
            "subtype": "Standard"
          }
        },
        {
          "type": "school",
          "name": "Government Primary School Ediene I",
          "slug": "government-primary-school-ediene-i-school",
          "coordinates": {
            "lat": 4.96911900044154,
            "lng": 7.80917100004166
          },
          "source": "grid3",
          "verified": true,
          "metadata": {
            "category": "Primary",
            "management": "Private",
            "education": "Formal",
            "subtype": "Primary"
          }
        },
        {
          "type": "school",
          "name": "Naowa Primary School",
          "slug": "naowa-primary-school-school",
          "coordinates": {
            "lat": 4.90256699986719,
            "lng": 7.7945890002822
          },
          "source": "grid3",
          "verified": true,
          "metadata": {
            "category": "Primary",
            "management": "Faith Based",
            "education": "Formal",
            "subtype": "Primary"
          }
        },
        {
          "type": "school",
          "name": "Christian Primary School",
          "slug": "christian-primary-school-school-2",
          "coordinates": {
            "lat": 5.03104499992685,
            "lng": 7.82125599976462
          },
          "source": "grid3",
          "verified": true,
          "metadata": {
            "category": "Primary",
            "management": "Public",
            "education": "Formal",
            "subtype": "Primary"
          }
        },
        {
          "type": "school",
          "name": "Abak International Nursery and Primary School",
          "slug": "abak-international-nursery-and-primary-school-school",
          "coordinates": {
            "lat": 4.971424999764,
            "lng": 7.7900290004381
          },
          "source": "grid3",
          "verified": true,
          "metadata": {
            "category": "Primary",
            "management": "Public",
            "education": "Formal",
            "subtype": "Standard"
          }
        },
        {
          "type": "school",
          "name": "Sifon Nursery and Primary School",
          "slug": "sifon-nursery-and-primary-school-school",
          "coordinates": {
            "lat": 4.99232500039852,
            "lng": 7.79362599993999
          },
          "source": "grid3",
          "verified": true,
          "metadata": {
            "category": "Primary",
            "management": "Public",
            "education": "Formal",
            "subtype": "Standard"
          }
        },
        {
          "type": "school",
          "name": "St Paul Nursery and Primary School",
          "slug": "st-paul-nursery-and-primary-school-school-4",
          "coordinates": {
            "lat": 4.9589999996503,
            "lng": 7.81483000020438
          },
          "source": "grid3",
          "verified": true,
          "metadata": {
            "category": "Primary",
            "management": "Public",
            "education": "Formal",
            "subtype": "Standard"
          }
        },
        {
          "type": "school",
          "name": "Lifegate Nursery and Primary School",
          "slug": "lifegate-nursery-and-primary-school-school",
          "coordinates": {
            "lat": 5.06167699969382,
            "lng": 7.79003599986157
          },
          "source": "grid3",
          "verified": true,
          "metadata": {
            "category": "Primary",
            "management": "Public",
            "education": "Formal",
            "subtype": "Standard"
          }
        },
        {
          "type": "school",
          "name": "Luthers Nursery and Primary School Urukuso",
          "slug": "luthers-nursery-and-primary-school-urukuso-school",
          "coordinates": {
            "lat": 5.02501099955805,
            "lng": 7.79408100023801
          },
          "source": "grid3",
          "verified": true,
          "metadata": {
            "category": "Primary",
            "management": "Public",
            "education": "Formal",
            "subtype": "Standard"
          }
        },
        {
          "type": "school",
          "name": "Methodist Primary School",
          "slug": "methodist-primary-school-school-24",
          "coordinates": {
            "lat": 5.08239800016764,
            "lng": 7.78877200002785
          },
          "source": "grid3",
          "verified": true,
          "metadata": {
            "category": "Primary",
            "management": "Public",
            "education": "Formal",
            "subtype": "Standard"
          }
        },
        {
          "type": "school",
          "name": "Progress International Nursery and Primary Schools",
          "slug": "progress-international-nursery-and-primary-schools-school",
          "coordinates": {
            "lat": 5.05967399995518,
            "lng": 7.78546799964852
          },
          "source": "grid3",
          "verified": true,
          "metadata": {
            "category": "Primary",
            "management": "Private",
            "education": "Formal",
            "subtype": "Standard"
          }
        },
        {
          "type": "school",
          "name": "Primary School Willingotn Bassey Barrack",
          "slug": "primary-school-willingotn-bassey-barrack-school",
          "coordinates": {
            "lat": 4.9027502097544,
            "lng": 7.79398345077567
          },
          "source": "grid3",
          "verified": true,
          "metadata": {
            "category": "Primary",
            "management": "Public",
            "education": "Formal",
            "subtype": "Primary"
          }
        },
        {
          "type": "school",
          "name": "St Douglans Nursery Primary School Manta",
          "slug": "st-douglans-nursery-primary-school-manta-school",
          "coordinates": {
            "lat": 4.99780999973177,
            "lng": 7.80169000039325
          },
          "source": "grid3",
          "verified": true,
          "metadata": {
            "category": "Primary",
            "management": "Public",
            "education": "Formal",
            "subtype": "Standard"
          }
        },
        {
          "type": "school",
          "name": "Government Primary School",
          "slug": "government-primary-school-school-22",
          "coordinates": {
            "lat": 5.04676399995867,
            "lng": 7.79039900041357
          },
          "source": "grid3",
          "verified": true,
          "metadata": {
            "category": "Primary",
            "management": "Private",
            "education": "Formal",
            "subtype": "Primary"
          }
        },
        {
          "type": "school",
          "name": "Goodnews Community Nursery and Primary School",
          "slug": "goodnews-community-nursery-and-primary-school-school",
          "coordinates": {
            "lat": 4.99362099990924,
            "lng": 7.80312800015713
          },
          "source": "grid3",
          "verified": true,
          "metadata": {
            "category": "Primary",
            "management": "Public",
            "education": "Formal",
            "subtype": "Standard"
          }
        },
        {
          "type": "school",
          "name": "Nsentip Secondary School Ekpat Iduot",
          "slug": "nsentip-secondary-school-ekpat-iduot-school",
          "coordinates": {
            "lat": 5.0191000003648,
            "lng": 7.71385000017739
          },
          "source": "grid3",
          "verified": true,
          "metadata": {
            "category": "Secondary",
            "management": "Public",
            "education": "Formal",
            "subtype": "Standard"
          }
        },
        {
          "type": "school",
          "name": "St James Nursery Primary Ikot Akwa Ibom",
          "slug": "st-james-nursery-primary-ikot-akwa-ibom-school",
          "coordinates": {
            "lat": 4.98981000043125,
            "lng": 7.82382000019288
          },
          "source": "grid3",
          "verified": true,
          "metadata": {
            "category": "Primary",
            "management": "Public",
            "education": "Formal",
            "subtype": "Standard"
          }
        },
        {
          "type": "school",
          "name": "Central Nursery School Nko Otoro",
          "slug": "central-nursery-school-nko-otoro-school",
          "coordinates": {
            "lat": 5.08509999976525,
            "lng": 7.78653999962131
          },
          "source": "grid3",
          "verified": true,
          "metadata": {
            "category": "Primary",
            "management": "Public",
            "education": "Formal",
            "subtype": "Pre Primary"
          }
        },
        {
          "type": "school",
          "name": "Eno Model Nursery Oku Abak",
          "slug": "eno-model-nursery-oku-abak-school",
          "coordinates": {
            "lat": 4.97278000019691,
            "lng": 7.78973999970128
          },
          "source": "grid3",
          "verified": true,
          "metadata": {
            "category": "Primary",
            "management": "Public",
            "education": "Formal",
            "subtype": "Pre Primary"
          }
        },
        {
          "type": "school",
          "name": "Community Nursery School Ebebit",
          "slug": "community-nursery-school-ebebit-school",
          "coordinates": {
            "lat": 5.06481000028134,
            "lng": 7.75633000042922
          },
          "source": "grid3",
          "verified": true,
          "metadata": {
            "category": "Primary",
            "management": "Public",
            "education": "Formal",
            "subtype": "Pre Primary"
          }
        },
        {
          "type": "school",
          "name": "Wisdom Academy Nursery School Ibannang Ediene",
          "slug": "wisdom-academy-nursery-school-ibannang-ediene-school",
          "coordinates": {
            "lat": 4.97089999983518,
            "lng": 7.80838999999855
          },
          "source": "grid3",
          "verified": true,
          "metadata": {
            "category": "Primary",
            "management": "Public",
            "education": "Formal",
            "subtype": "Pre Primary"
          }
        },
        {
          "type": "school",
          "name": "Trumpet Nursery School Ikotobong Utu",
          "slug": "trumpet-nursery-school-ikotobong-utu-school",
          "coordinates": {
            "lat": 4.99474334572886,
            "lng": 7.78031038501632
          },
          "source": "grid3",
          "verified": true,
          "metadata": {
            "category": "Primary",
            "management": "Public",
            "education": "Formal",
            "subtype": "Pre Primary"
          }
        },
        {
          "type": "school",
          "name": "Ntatoin Nursery School Ikot Ekang",
          "slug": "ntatoin-nursery-school-ikot-ekang-school",
          "coordinates": {
            "lat": 5.01473826775691,
            "lng": 7.76345234594908
          },
          "source": "grid3",
          "verified": true,
          "metadata": {
            "category": "Primary",
            "management": "Public",
            "education": "Formal",
            "subtype": "Pre Primary"
          }
        },
        {
          "type": "school",
          "name": "Kingly International Nursery School Ikot Ibit Ekpe",
          "slug": "kingly-international-nursery-school-ikot-ibit-ekpe-school",
          "coordinates": {
            "lat": 5.05445999962933,
            "lng": 7.76896999966579
          },
          "source": "grid3",
          "verified": true,
          "metadata": {
            "category": "Primary",
            "management": "Public",
            "education": "Formal",
            "subtype": "Pre Primary"
          }
        },
        {
          "type": "school",
          "name": "Christian Youth Nursery School Ikot Osom",
          "slug": "christian-youth-nursery-school-ikot-osom-school",
          "coordinates": {
            "lat": 5.06040765428986,
            "lng": 7.8072735384431
          },
          "source": "grid3",
          "verified": true,
          "metadata": {
            "category": "Primary",
            "management": "Public",
            "education": "Formal",
            "subtype": "Pre Primary"
          }
        },
        {
          "type": "school",
          "name": "Bishop Urom Academy Nto Obo 2",
          "slug": "bishop-urom-academy-nto-obo-2-school",
          "coordinates": {
            "lat": 5.00798999973875,
            "lng": 7.69993999993108
          },
          "source": "grid3",
          "verified": true,
          "metadata": {
            "category": "Secondary",
            "management": "Public",
            "education": "Formal",
            "subtype": "Standard"
          }
        },
        {
          "type": "school",
          "name": "Mesaih Academy Atai Otoro",
          "slug": "mesaih-academy-atai-otoro-school",
          "coordinates": {
            "lat": 5.0243699996758,
            "lng": 7.78433000022937
          },
          "source": "grid3",
          "verified": true,
          "metadata": {
            "category": "Secondary",
            "management": "Public",
            "education": "Formal",
            "subtype": "Standard"
          }
        },
        {
          "type": "school",
          "name": "Tower Of Ivory School Ikot Okubara",
          "slug": "tower-of-ivory-school-ikot-okubara-school",
          "coordinates": {
            "lat": 4.98197000041523,
            "lng": 7.80578000014691
          },
          "source": "grid3",
          "verified": true,
          "metadata": {
            "category": "Secondary",
            "management": "Public",
            "education": "Formal",
            "subtype": "Standard"
          }
        },
        {
          "type": "school",
          "name": "Light House School Abak Itenghe",
          "slug": "light-house-school-abak-itenghe-school",
          "coordinates": {
            "lat": 5.00067000032033,
            "lng": 7.73205000040724
          },
          "source": "grid3",
          "verified": true,
          "metadata": {
            "category": "Secondary",
            "management": "Public",
            "education": "Formal",
            "subtype": "Standard"
          }
        },
        {
          "type": "school",
          "name": "St Andrew Catholic School Afaha Esang",
          "slug": "st-andrew-catholic-school-afaha-esang-school",
          "coordinates": {
            "lat": 5.05552846076989,
            "lng": 7.71721719411823
          },
          "source": "grid3",
          "verified": true,
          "metadata": {
            "category": "Secondary",
            "management": "Public",
            "education": "Formal",
            "subtype": "Standard"
          }
        },
        {
          "type": "school",
          "name": "Alpha Modern Nursey School Ikot Inyang",
          "slug": "alpha-modern-nursey-school-ikot-inyang-school",
          "coordinates": {
            "lat": 5.06988000026183,
            "lng": 7.77126999961087
          },
          "source": "grid3",
          "verified": true,
          "metadata": {
            "category": "Secondary",
            "management": "Public",
            "education": "Formal",
            "subtype": "Standard"
          }
        },
        {
          "type": "school",
          "name": "Thonpson Esthiet Institution Ikotobong Utu",
          "slug": "thonpson-esthiet-institution-ikotobong-utu-school",
          "coordinates": {
            "lat": 5.0011099999266,
            "lng": 7.77926000024888
          },
          "source": "grid3",
          "verified": true,
          "metadata": {
            "category": "Others",
            "management": "Public",
            "education": "Formal",
            "subtype": "Others"
          }
        },
        {
          "type": "school",
          "name": "Kings International Nto Obo 2",
          "slug": "kings-international-nto-obo-2-school",
          "coordinates": {
            "lat": 5.0142229607211,
            "lng": 7.68879550041208
          },
          "source": "grid3",
          "verified": true,
          "metadata": {
            "category": "Others",
            "management": "Public",
            "education": "Formal",
            "subtype": "Others"
          }
        },
        {
          "type": "school",
          "name": "Seeds Of Azadeu Ikot Odiong",
          "slug": "seeds-of-azadeu-ikot-odiong-school",
          "coordinates": {
            "lat": 5.04751588534987,
            "lng": 7.74178511479124
          },
          "source": "grid3",
          "verified": true,
          "metadata": {
            "category": "Others",
            "management": "Public",
            "education": "Formal",
            "subtype": "Others"
          }
        },
        {
          "type": "school",
          "name": "Anietie Christian Academy",
          "slug": "anietie-christian-academy-school",
          "coordinates": {
            "lat": 5.04150999958688,
            "lng": 7.76957299959429
          },
          "source": "grid3",
          "verified": true,
          "metadata": {
            "category": "Secondary",
            "management": "Private",
            "education": "Formal",
            "subtype": "Standard"
          }
        },
        {
          "type": "school",
          "name": "Army Day Secondary Ibagwa",
          "slug": "army-day-secondary-ibagwa-school",
          "coordinates": {
            "lat": 4.90325099993373,
            "lng": 7.79568300037022
          },
          "source": "grid3",
          "verified": true,
          "metadata": {
            "category": "Secondary",
            "management": "Public",
            "education": "Formal",
            "subtype": "Standard"
          }
        },
        {
          "type": "school",
          "name": "Central Comprehensive Secondary School",
          "slug": "central-comprehensive-secondary-school-school",
          "coordinates": {
            "lat": 5.03108099978834,
            "lng": 7.75032499959912
          },
          "source": "grid3",
          "verified": true,
          "metadata": {
            "category": "Secondary",
            "management": "Public",
            "education": "Formal",
            "subtype": "Standard"
          }
        },
        {
          "type": "school",
          "name": "Community High School Ikot Udo",
          "slug": "community-high-school-ikot-udo-school",
          "coordinates": {
            "lat": 5.04035300019086,
            "lng": 7.74366700013201
          },
          "source": "grid3",
          "verified": true,
          "metadata": {
            "category": "Secondary",
            "management": "Public",
            "education": "Formal",
            "subtype": "Standard"
          }
        },
        {
          "type": "school",
          "name": "Comprehensive Secondary School Midim",
          "slug": "comprehensive-secondary-school-midim-school",
          "coordinates": {
            "lat": 5.03017400022998,
            "lng": 7.71577199977804
          },
          "source": "grid3",
          "verified": true,
          "metadata": {
            "category": "Secondary",
            "management": "Public",
            "education": "Formal",
            "subtype": "Standard"
          }
        },
        {
          "type": "school",
          "name": "Government School Ikot Obioko",
          "slug": "government-school-ikot-obioko-school",
          "coordinates": {
            "lat": 5.0463240003524,
            "lng": 7.81314799998029
          },
          "source": "grid3",
          "verified": true,
          "metadata": {
            "category": "Secondary",
            "management": "Public",
            "education": "Formal",
            "subtype": "Standard"
          }
        },
        {
          "type": "school",
          "name": "Holy Family College",
          "slug": "holy-family-college-school",
          "coordinates": {
            "lat": 4.97314599998793,
            "lng": 7.79680199981249
          },
          "source": "grid3",
          "verified": true,
          "metadata": {
            "category": "Secondary",
            "management": "Public",
            "education": "Formal",
            "subtype": "Standard"
          }
        },
        {
          "type": "school",
          "name": "Kin International Schools",
          "slug": "kin-international-schools-school",
          "coordinates": {
            "lat": 5.07141299991008,
            "lng": 7.73502700009601
          },
          "source": "grid3",
          "verified": true,
          "metadata": {
            "category": "Secondary",
            "management": "Faith Based",
            "education": "Formal",
            "subtype": "Aggregate"
          }
        },
        {
          "type": "school",
          "name": "Learners Field International School",
          "slug": "learners-field-international-school-school",
          "coordinates": {
            "lat": 5.00968999989362,
            "lng": 7.76662999967482
          },
          "source": "grid3",
          "verified": true,
          "metadata": {
            "category": "Secondary",
            "management": "Public",
            "education": "Formal",
            "subtype": "Aggregate"
          }
        },
        {
          "type": "school",
          "name": "Loreto Girls Juniorate",
          "slug": "loreto-girls-juniorate-school",
          "coordinates": {
            "lat": 5.05064499996683,
            "lng": 7.73955400021697
          },
          "source": "grid3",
          "verified": true,
          "metadata": {
            "category": "Secondary",
            "management": "Private",
            "education": "Formal",
            "subtype": "Standard"
          }
        },
        {
          "type": "school",
          "name": "Palm Groove Christian Seminary",
          "slug": "palm-groove-christian-seminary-school",
          "coordinates": {
            "lat": 4.99890199972754,
            "lng": 7.7657220000703
          },
          "source": "grid3",
          "verified": true,
          "metadata": {
            "category": "Secondary",
            "management": "Private",
            "education": "Integrated",
            "subtype": "Standard"
          }
        },
        {
          "type": "school",
          "name": "Queen of Apostles Seminary",
          "slug": "queen-of-apostles-seminary-school",
          "coordinates": {
            "lat": 5.03361399968639,
            "lng": 7.74914299994953
          },
          "source": "grid3",
          "verified": true,
          "metadata": {
            "category": "Secondary",
            "management": "Public",
            "education": "Integrated",
            "subtype": "Standard"
          }
        },
        {
          "type": "school",
          "name": "St MichaelCs Catholic School Midim",
          "slug": "st-michaelcs-catholic-school-midim-school",
          "coordinates": {
            "lat": 5.02987900011578,
            "lng": 7.72078599987407
          },
          "source": "grid3",
          "verified": true,
          "metadata": {
            "category": "Secondary",
            "management": "Public",
            "education": "Formal",
            "subtype": "Standard"
          }
        },
        {
          "type": "school",
          "name": "Universal Secondary School",
          "slug": "universal-secondary-school-school",
          "coordinates": {
            "lat": 5.00450199986744,
            "lng": 7.80280699974327
          },
          "source": "grid3",
          "verified": true,
          "metadata": {
            "category": "Secondary",
            "management": "Public",
            "education": "Formal",
            "subtype": "Standard"
          }
        },
        {
          "type": "school",
          "name": "Nigeria Christian Secondary School Ukpom",
          "slug": "nigeria-christian-secondary-school-ukpom-school",
          "coordinates": {
            "lat": 5.01689100011959,
            "lng": 7.80963299976315
          },
          "source": "grid3",
          "verified": true,
          "metadata": {
            "category": "Secondary",
            "management": "Public",
            "education": "Formal",
            "subtype": "Standard"
          }
        },
        {
          "type": "school",
          "name": "Cardinal Ekanem School",
          "slug": "cardinal-ekanem-school-school",
          "coordinates": {
            "lat": 4.98813699972283,
            "lng": 7.78930400027946
          },
          "source": "grid3",
          "verified": true,
          "metadata": {
            "category": "Primary",
            "management": "Public",
            "education": "Formal",
            "subtype": "Primary"
          }
        },
        {
          "type": "school",
          "name": "Army Childrens School Ibagwa",
          "slug": "army-childrens-school-ibagwa-school",
          "coordinates": {
            "lat": 4.89692999981969,
            "lng": 7.79496100034993
          },
          "source": "grid3",
          "verified": true,
          "metadata": {
            "category": "Primary",
            "management": "Public",
            "education": "Formal",
            "subtype": "Primary"
          }
        },
        {
          "type": "school",
          "name": "Grace Nursery Academy",
          "slug": "grace-nursery-academy-school",
          "coordinates": {
            "lat": 5.00798300031528,
            "lng": 7.79628600029872
          },
          "source": "grid3",
          "verified": true,
          "metadata": {
            "category": "Primary",
            "management": "Public",
            "education": "Formal",
            "subtype": "Primary"
          }
        },
        {
          "type": "school",
          "name": "Immaculate Conception Nursery School",
          "slug": "immaculate-conception-nursery-school-school",
          "coordinates": {
            "lat": 5.05291400028096,
            "lng": 7.73981499966254
          },
          "source": "grid3",
          "verified": true,
          "metadata": {
            "category": "Primary",
            "management": "Public",
            "education": "Formal",
            "subtype": "Primary"
          }
        },
        {
          "type": "school",
          "name": "QIC Nursery School",
          "slug": "qic-nursery-school-school",
          "coordinates": {
            "lat": 4.98634399977584,
            "lng": 7.77552299968676
          },
          "source": "grid3",
          "verified": true,
          "metadata": {
            "category": "Primary",
            "management": "Public",
            "education": "Formal",
            "subtype": "Primary"
          }
        },
        {
          "type": "school",
          "name": "The Church of Jesus Christ Nursery School",
          "slug": "the-church-of-jesus-christ-nursery-school-school",
          "coordinates": {
            "lat": 5.08788699968534,
            "lng": 7.7862440003604
          },
          "source": "grid3",
          "verified": true,
          "metadata": {
            "category": "Primary",
            "management": "Public",
            "education": "Formal",
            "subtype": "Primary"
          }
        },
        {
          "type": "school",
          "name": "Government School Abak Usung Atai",
          "slug": "government-school-abak-usung-atai-school",
          "coordinates": {
            "lat": 4.93364999974773,
            "lng": 7.80060900000541
          },
          "source": "grid3",
          "verified": true,
          "metadata": {
            "category": "Primary",
            "management": "Private",
            "education": "Formal",
            "subtype": "Primary"
          }
        },
        {
          "type": "school",
          "name": "Government School Itung Abak",
          "slug": "government-school-itung-abak-school",
          "coordinates": {
            "lat": 4.92845400025197,
            "lng": 7.78917000039525
          },
          "source": "grid3",
          "verified": true,
          "metadata": {
            "category": "Primary",
            "management": "Public",
            "education": "Formal",
            "subtype": "Primary"
          }
        },
        {
          "type": "school",
          "name": "Lutheran School Ikot Osom",
          "slug": "lutheran-school-ikot-osom-school",
          "coordinates": {
            "lat": 5.06146599985607,
            "lng": 7.80505199984998
          },
          "source": "grid3",
          "verified": true,
          "metadata": {
            "category": "Primary",
            "management": "Private",
            "education": "Formal",
            "subtype": "Primary"
          }
        },
        {
          "type": "school",
          "name": "Government School",
          "slug": "government-school-school-5",
          "coordinates": {
            "lat": 4.97649999997509,
            "lng": 7.78850000007498
          },
          "source": "grid3",
          "verified": true,
          "metadata": {
            "category": "Primary",
            "management": "Public",
            "education": "Formal",
            "subtype": "Primary"
          }
        },
        {
          "type": "school",
          "name": "Government School Midim Waterside abak",
          "slug": "government-school-midim-waterside-abak-school",
          "coordinates": {
            "lat": 4.98776699974729,
            "lng": 7.79445699959092
          },
          "source": "grid3",
          "verified": true,
          "metadata": {
            "category": "Primary",
            "management": "Public",
            "education": "Formal",
            "subtype": "Standard"
          }
        },
        {
          "type": "school",
          "name": "Government School Ikot Antuk",
          "slug": "government-school-ikot-antuk-school",
          "coordinates": {
            "lat": 5.0030009998963,
            "lng": 7.71990799985434
          },
          "source": "grid3",
          "verified": true,
          "metadata": {
            "category": "Primary",
            "management": "Public",
            "education": "Formal",
            "subtype": "Standard"
          }
        },
        {
          "type": "school",
          "name": "Government School Ikot Obong",
          "slug": "government-school-ikot-obong-school",
          "coordinates": {
            "lat": 5.0743589999679,
            "lng": 7.77772499960912
          },
          "source": "grid3",
          "verified": true,
          "metadata": {
            "category": "Primary",
            "management": "Public",
            "education": "Formal",
            "subtype": "Standard"
          }
        },
        {
          "type": "school",
          "name": "Holy Child Convent School",
          "slug": "holy-child-convent-school-school-2",
          "coordinates": {
            "lat": 4.98509999996509,
            "lng": 7.78990199997736
          },
          "source": "grid3",
          "verified": true,
          "metadata": {
            "category": "Primary",
            "management": "Public",
            "education": "Formal",
            "subtype": "Standard"
          }
        },
        {
          "type": "school",
          "name": "Lutheran School Manta Ii",
          "slug": "lutheran-school-manta-ii-school",
          "coordinates": {
            "lat": 5.000465999906,
            "lng": 7.82356500012469
          },
          "source": "grid3",
          "verified": true,
          "metadata": {
            "category": "Primary",
            "management": "Public",
            "education": "Formal",
            "subtype": "Standard"
          }
        },
        {
          "type": "school",
          "name": "QIC School Abak Itenge",
          "slug": "qic-school-abak-itenge-school",
          "coordinates": {
            "lat": 4.99881100002767,
            "lng": 7.73231299994507
          },
          "source": "grid3",
          "verified": true,
          "metadata": {
            "category": "Primary",
            "management": "Public",
            "education": "Formal",
            "subtype": "Standard"
          }
        },
        {
          "type": "school",
          "name": "St MichaelSs Catholic School Eka Nto Obo",
          "slug": "st-michaelss-catholic-school-eka-nto-obo-school",
          "coordinates": {
            "lat": 5.02382599977011,
            "lng": 7.70065799976692
          },
          "source": "grid3",
          "verified": true,
          "metadata": {
            "category": "Primary",
            "management": "Public",
            "education": "Formal",
            "subtype": "Standard"
          }
        },
        {
          "type": "school",
          "name": "Government School Atai Otoro",
          "slug": "government-school-atai-otoro-school",
          "coordinates": {
            "lat": 5.01497199975802,
            "lng": 7.78168599970917
          },
          "source": "grid3",
          "verified": true,
          "metadata": {
            "category": "Primary",
            "management": "Public",
            "education": "Formal",
            "subtype": "Standard"
          }
        },
        {
          "type": "school",
          "name": "Government School Ediene Ii",
          "slug": "government-school-ediene-ii-school",
          "coordinates": {
            "lat": 4.984521000244,
            "lng": 7.81358600039363
          },
          "source": "grid3",
          "verified": true,
          "metadata": {
            "category": "Primary",
            "management": "Public",
            "education": "Formal",
            "subtype": "Standard"
          }
        },
        {
          "type": "school",
          "name": "Annang Peoples School Afaha Obong",
          "slug": "annang-peoples-school-afaha-obong-school",
          "coordinates": {
            "lat": 5.04517100024151,
            "lng": 7.77076699979727
          },
          "source": "grid3",
          "verified": true,
          "metadata": {
            "category": "Primary",
            "management": "Public",
            "education": "Formal",
            "subtype": "Standard"
          }
        },
        {
          "type": "school",
          "name": "Government Technical College",
          "slug": "government-technical-college-school-4",
          "coordinates": {
            "lat": 4.97604000034579,
            "lng": 7.79231299964528
          },
          "source": "grid3",
          "verified": true,
          "metadata": {
            "category": "Secondary",
            "management": "Public",
            "education": "Formal",
            "subtype": "Standard"
          }
        },
        {
          "type": "school",
          "name": "Government School Ibiakpan 2",
          "slug": "government-school-ibiakpan-2-school",
          "coordinates": {
            "lat": 5.07721500037201,
            "lng": 7.80386499996985
          },
          "source": "grid3",
          "verified": true,
          "metadata": {
            "category": "Primary",
            "management": "Private",
            "education": "Formal",
            "subtype": "Standard"
          }
        },
        {
          "type": "school",
          "name": "Government School Ikot Ekang",
          "slug": "government-school-ikot-ekang-school",
          "coordinates": {
            "lat": 5.01442000038276,
            "lng": 7.76542900004836
          },
          "source": "grid3",
          "verified": true,
          "metadata": {
            "category": "Primary",
            "management": "Private",
            "education": "Formal",
            "subtype": "Standard"
          }
        },
        {
          "type": "school",
          "name": "Lutheran School Abiaokpo uruk Uso Otoro 1",
          "slug": "lutheran-school-abiaokpo-uruk-uso-otoro-1-school",
          "coordinates": {
            "lat": 5.03885200021966,
            "lng": 7.7918699999006
          },
          "source": "grid3",
          "verified": true,
          "metadata": {
            "category": "Primary",
            "management": "Public",
            "education": "Formal",
            "subtype": "Standard"
          }
        },
        {
          "type": "school",
          "name": "St Patrick School Manta Ikot oku Mfang",
          "slug": "st-patrick-school-manta-ikot-oku-mfang-school",
          "coordinates": {
            "lat": 5.00913799961904,
            "lng": 7.79481099972793
          },
          "source": "grid3",
          "verified": true,
          "metadata": {
            "category": "Primary",
            "management": "Public",
            "education": "Formal",
            "subtype": "Standard"
          }
        },
        {
          "type": "school",
          "name": "Secondary School Proposed Site Donated By The Community",
          "slug": "secondary-school-proposed-site-donated-by-the-community-school",
          "coordinates": {
            "lat": 5.05538463579234,
            "lng": 7.8092837327581
          },
          "source": "grid3",
          "verified": true,
          "metadata": {
            "category": "Secondary",
            "management": "Public",
            "education": "Formal",
            "subtype": "Standard"
          }
        },
        {
          "type": "school",
          "name": "Science College Ikot Okubara",
          "slug": "science-college-ikot-okubara-school",
          "coordinates": {
            "lat": 4.98223099896148,
            "lng": 7.79863542518478
          },
          "source": "grid3",
          "verified": true,
          "metadata": {
            "category": "Secondary",
            "management": "Public",
            "education": "Formal",
            "subtype": "Standard"
          }
        },
        {
          "type": "school",
          "name": "Nursery School Edem Idim Edem Idim",
          "slug": "nursery-school-edem-idim-edem-idim-school",
          "coordinates": {
            "lat": 5.04934999960284,
            "lng": 7.79153000040924
          },
          "source": "grid3",
          "verified": true,
          "metadata": {
            "category": "Primary",
            "management": "Public",
            "education": "Formal",
            "subtype": "Pre Primary"
          }
        },
        {
          "type": "school",
          "name": "Nursery School Ikot Essien Etok Ikot Essien Etok",
          "slug": "nursery-school-ikot-essien-etok-ikot-essien-etok-school",
          "coordinates": {
            "lat": 5.06918096173206,
            "lng": 7.7889512879716
          },
          "source": "grid3",
          "verified": true,
          "metadata": {
            "category": "Primary",
            "management": "Public",
            "education": "Formal",
            "subtype": "Pre Primary"
          }
        },
        {
          "type": "school",
          "name": "Danco Nursery School Ibong Ikot Abasi",
          "slug": "danco-nursery-school-ibong-ikot-abasi-school",
          "coordinates": {
            "lat": 5.09073415255915,
            "lng": 7.78636803755495
          },
          "source": "grid3",
          "verified": true,
          "metadata": {
            "category": "Primary",
            "management": "Public",
            "education": "Formal",
            "subtype": "Pre Primary"
          }
        },
        {
          "type": "school",
          "name": "Esteem International School Midim Abak",
          "slug": "esteem-international-school-midim-abak-school",
          "coordinates": {
            "lat": 4.99893000011946,
            "lng": 7.7933000001949
          },
          "source": "grid3",
          "verified": true,
          "metadata": {
            "category": "Secondary",
            "management": "Public",
            "education": "Formal",
            "subtype": "Standard"
          }
        },
        {
          "type": "school",
          "name": "Comprehensive Secondary School",
          "slug": "comprehensive-secondary-school-school-9",
          "coordinates": {
            "lat": 4.97628199981449,
            "lng": 7.80139999961034
          },
          "source": "grid3",
          "verified": true,
          "metadata": {
            "category": "Secondary",
            "management": "Public",
            "education": "Formal",
            "subtype": "Standard"
          }
        },
        {
          "type": "school",
          "name": "Holy Child Convent School Nto Otong",
          "slug": "holy-child-convent-school-nto-otong-school",
          "coordinates": {
            "lat": 5.02488099985828,
            "lng": 7.74975300020083
          },
          "source": "grid3",
          "verified": true,
          "metadata": {
            "category": "Secondary",
            "management": "Public",
            "education": "Formal",
            "subtype": "Standard"
          }
        },
        {
          "type": "school",
          "name": "Methodist Secondary School",
          "slug": "methodist-secondary-school-school-4",
          "coordinates": {
            "lat": 5.07365499987839,
            "lng": 7.78758700023991
          },
          "source": "grid3",
          "verified": true,
          "metadata": {
            "category": "Secondary",
            "management": "Public",
            "education": "Formal",
            "subtype": "Standard"
          }
        },
        {
          "type": "school",
          "name": "Saint Comprehensive Secondary School Ikot Oku Mfang Abak",
          "slug": "saint-comprehensive-secondary-school-ikot-oku-mfang-abak-school",
          "coordinates": {
            "lat": 5.0174560000944,
            "lng": 7.79548800037099
          },
          "source": "grid3",
          "verified": true,
          "metadata": {
            "category": "Secondary",
            "management": "Public",
            "education": "Formal",
            "subtype": "Standard"
          }
        },
        {
          "type": "school",
          "name": "St Marys Senior Science School",
          "slug": "st-marys-senior-science-school-school",
          "coordinates": {
            "lat": 4.98439599987552,
            "lng": 7.79909300024184
          },
          "source": "grid3",
          "verified": true,
          "metadata": {
            "category": "Secondary",
            "management": "Private",
            "education": "Formal",
            "subtype": "Standard"
          }
        },
        {
          "type": "school",
          "name": "Christ Child Nursery School",
          "slug": "christ-child-nursery-school-school",
          "coordinates": {
            "lat": 5.03536000016391,
            "lng": 7.79182300043118
          },
          "source": "grid3",
          "verified": true,
          "metadata": {
            "category": "Primary",
            "management": "Public",
            "education": "Formal",
            "subtype": "Standard"
          }
        },
        {
          "type": "school",
          "name": "Government School Ikot Imo",
          "slug": "government-school-ikot-imo-school",
          "coordinates": {
            "lat": 5.01545699964089,
            "lng": 7.73056100009012
          },
          "source": "grid3",
          "verified": true,
          "metadata": {
            "category": "Primary",
            "management": "Public",
            "education": "Formal",
            "subtype": "Standard"
          }
        },
        {
          "type": "school",
          "name": "Annang Peoples School Ibagwa",
          "slug": "annang-peoples-school-ibagwa-school",
          "coordinates": {
            "lat": 4.90061599982857,
            "lng": 7.79764299992456
          },
          "source": "grid3",
          "verified": true,
          "metadata": {
            "category": "Secondary",
            "management": "Public",
            "education": "Formal",
            "subtype": "Standard"
          }
        },
        {
          "type": "school",
          "name": "Bishop Clarks Central Abak Town",
          "slug": "bishop-clarks-central-abak-town-school",
          "coordinates": {
            "lat": 4.98563600040114,
            "lng": 7.7862440003604
          },
          "source": "grid3",
          "verified": true,
          "metadata": {
            "category": "Secondary",
            "management": "Faith Based",
            "education": "Formal",
            "subtype": "Standard"
          }
        },
        {
          "type": "school",
          "name": "St Johns Catholic School Oku Abak",
          "slug": "st-johns-catholic-school-oku-abak-school",
          "coordinates": {
            "lat": 4.95806899988446,
            "lng": 7.79464400012057
          },
          "source": "grid3",
          "verified": true,
          "metadata": {
            "category": "Primary",
            "management": "Public",
            "education": "Formal",
            "subtype": "Primary"
          }
        },
        {
          "type": "school",
          "name": "Saint andrews Catholic School Ikwek",
          "slug": "saint-andrews-catholic-school-ikwek-school",
          "coordinates": {
            "lat": 5.03162299960178,
            "lng": 7.74889300011193
          },
          "source": "grid3",
          "verified": true,
          "metadata": {
            "category": "Primary",
            "management": "Public",
            "education": "Formal",
            "subtype": "Standard"
          }
        },
        {
          "type": "school",
          "name": "Annang Peoples School Ukpom",
          "slug": "annang-peoples-school-ukpom-school",
          "coordinates": {
            "lat": 5.01788400004659,
            "lng": 7.81235300019085
          },
          "source": "grid3",
          "verified": true,
          "metadata": {
            "category": "Primary",
            "management": "Public",
            "education": "Formal",
            "subtype": "Standard"
          }
        },
        {
          "type": "school",
          "name": "Annang Peoples School Utu Abak Otoro",
          "slug": "annang-peoples-school-utu-abak-otoro-school",
          "coordinates": {
            "lat": 5.00567299990905,
            "lng": 7.76717300043367
          },
          "source": "grid3",
          "verified": true,
          "metadata": {
            "category": "Primary",
            "management": "Private",
            "education": "Formal",
            "subtype": "Standard"
          }
        },
        {
          "type": "school",
          "name": "St andrews Catholic School Urua Urom",
          "slug": "st-andrews-catholic-school-urua-urom-school",
          "coordinates": {
            "lat": 5.05927899972613,
            "lng": 7.76220000042974
          },
          "source": "grid3",
          "verified": true,
          "metadata": {
            "category": "Primary",
            "management": "Private",
            "education": "Formal",
            "subtype": "Standard"
          }
        },
        {
          "type": "school",
          "name": "Annang Peoples School",
          "slug": "annang-peoples-school-school-2",
          "coordinates": {
            "lat": 5.01939799971797,
            "lng": 7.68585100042338
          },
          "source": "grid3",
          "verified": true,
          "metadata": {
            "category": "Primary",
            "management": "Private",
            "education": "Formal",
            "subtype": "Standard"
          }
        },
        {
          "type": "school",
          "name": "St Marys Practising School Ediene",
          "slug": "st-marys-practising-school-ediene-school",
          "coordinates": {
            "lat": 4.98264299997453,
            "lng": 7.80063100012063
          },
          "source": "grid3",
          "verified": true,
          "metadata": {
            "category": "Primary",
            "management": "Public",
            "education": "Formal",
            "subtype": "Standard"
          }
        },
        {
          "type": "school",
          "name": "St Philip School",
          "slug": "st-philip-school-school",
          "coordinates": {
            "lat": 4.94727799958008,
            "lng": 7.81456000034382
          },
          "source": "grid3",
          "verified": true,
          "metadata": {
            "category": "Primary",
            "management": "Public",
            "education": "Formal",
            "subtype": "Standard"
          }
        },
        {
          "type": "school",
          "name": "Independent Comprehensive College",
          "slug": "independent-comprehensive-college-school",
          "coordinates": {
            "lat": 4.92777000018543,
            "lng": 7.78751300042467
          },
          "source": "grid3",
          "verified": true,
          "metadata": {
            "category": "Secondary",
            "management": "Public",
            "education": "Formal",
            "subtype": "Junior"
          }
        },
        {
          "type": "school",
          "name": "The CJC Comprehensive Science School",
          "slug": "the-cjc-comprehensive-science-school-school",
          "coordinates": {
            "lat": 5.0075340002939,
            "lng": 7.77072399961293
          },
          "source": "grid3",
          "verified": true,
          "metadata": {
            "category": "Secondary",
            "management": "Public",
            "education": "Formal",
            "subtype": "Junior"
          }
        },
        {
          "type": "school",
          "name": "Mcintire Secondary Commercial School Utu Abak",
          "slug": "mcintire-secondary-commercial-school-utu-abak-school",
          "coordinates": {
            "lat": 4.98990500031556,
            "lng": 7.78024599985304
          },
          "source": "grid3",
          "verified": true,
          "metadata": {
            "category": "Secondary",
            "management": "Public",
            "education": "Formal",
            "subtype": "Junior"
          }
        },
        {
          "type": "church",
          "name": "Church Of Christ Manta",
          "slug": "church-of-christ-manta-church",
          "coordinates": {
            "lat": 4.99597000031531,
            "lng": 7.80225000013746
          },
          "source": "grid3",
          "verified": true
        },
        {
          "type": "church",
          "name": "The Believer Assen Ikot Ebak",
          "slug": "the-believer-assen-ikot-ebak-church",
          "coordinates": {
            "lat": 4.99000000019987,
            "lng": 7.78213000039926
          },
          "source": "grid3",
          "verified": true
        },
        {
          "type": "church",
          "name": "St Patrick Catholic Church Ikot Imoh",
          "slug": "st-patrick-catholic-church-ikot-imoh-church",
          "coordinates": {
            "lat": 5.01403000038425,
            "lng": 7.73045999992911
          },
          "source": "grid3",
          "verified": true
        },
        {
          "type": "church",
          "name": "Lot Cary Baptist Church Nto Obio Mkpe",
          "slug": "lot-cary-baptist-church-nto-obio-mkpe-church",
          "coordinates": {
            "lat": 5.01596999991563,
            "lng": 7.73583000025434
          },
          "source": "grid3",
          "verified": true
        },
        {
          "type": "church",
          "name": "Community Of Christ Ikot Okum Mfang",
          "slug": "community-of-christ-ikot-okum-mfang-church",
          "coordinates": {
            "lat": 5.01839999956036,
            "lng": 7.79433999959133
          },
          "source": "grid3",
          "verified": true
        },
        {
          "type": "church",
          "name": "World Miracle Centre Ikot Ekang",
          "slug": "world-miracle-centre-ikot-ekang-church",
          "coordinates": {
            "lat": 5.01886000008898,
            "lng": 7.77298000022688
          },
          "source": "grid3",
          "verified": true
        },
        {
          "type": "church",
          "name": "Church Of Jesus Christ Nna Enin",
          "slug": "church-of-jesus-christ-nna-enin-church",
          "coordinates": {
            "lat": 5.01902000027286,
            "lng": 7.75049999957537
          },
          "source": "grid3",
          "verified": true
        },
        {
          "type": "church",
          "name": "St Joseph Catholic Nto Otong",
          "slug": "st-joseph-catholic-nto-otong-church",
          "coordinates": {
            "lat": 5.0270799996423,
            "lng": 7.73977000028532
          },
          "source": "grid3",
          "verified": true
        },
        {
          "type": "church",
          "name": "Christ Faith Church Midim Ikot Ekon",
          "slug": "christ-faith-church-midim-ikot-ekon-church",
          "coordinates": {
            "lat": 5.04480000021988,
            "lng": 7.69406000036878
          },
          "source": "grid3",
          "verified": true
        },
        {
          "type": "church",
          "name": "Church Of Christ Ikot Obioko",
          "slug": "church-of-christ-ikot-obioko-church",
          "coordinates": {
            "lat": 5.04644999986766,
            "lng": 7.81547999960236
          },
          "source": "grid3",
          "verified": true
        },
        {
          "type": "church",
          "name": "African Church Edem Idim",
          "slug": "african-church-edem-idim-church",
          "coordinates": {
            "lat": 5.05135000010245,
            "lng": 7.79262000031281
          },
          "source": "grid3",
          "verified": true
        },
        {
          "type": "church",
          "name": "Methodist Church Ikot Essien Etok",
          "slug": "methodist-church-ikot-essien-etok-church",
          "coordinates": {
            "lat": 5.07183999981618,
            "lng": 7.78860000018989
          },
          "source": "grid3",
          "verified": true
        },
        {
          "type": "church",
          "name": "The Apostolic Church Edem Idim Ibesit",
          "slug": "the-apostolic-church-edem-idim-ibesit-church",
          "coordinates": {
            "lat": 4.91318000005703,
            "lng": 7.78090999989661
          },
          "source": "grid3",
          "verified": true
        },
        {
          "type": "church",
          "name": "Eka Anwa Ikot Eoe Ikot Adede",
          "slug": "eka-anwa-ikot-eoe-ikot-adede-church",
          "coordinates": {
            "lat": 5.04100999991164,
            "lng": 7.69729999959537
          },
          "source": "grid3",
          "verified": true
        },
        {
          "type": "church",
          "name": "The Apostolic Church Ibagwa",
          "slug": "the-apostolic-church-ibagwa-church",
          "coordinates": {
            "lat": 4.89470999996655,
            "lng": 7.79545000041725
          },
          "source": "grid3",
          "verified": true
        },
        {
          "type": "church",
          "name": "New Testement Church Ikot Afaha",
          "slug": "new-testement-church-ikot-afaha-church",
          "coordinates": {
            "lat": 4.91053999972127,
            "lng": 7.79913000014943
          },
          "source": "grid3",
          "verified": true
        },
        {
          "type": "church",
          "name": "Mount Zion L H Church Mbarakom",
          "slug": "mount-zion-l-h-church-mbarakom-church",
          "coordinates": {
            "lat": 4.92110000016493,
            "lng": 7.80061999961333
          },
          "source": "grid3",
          "verified": true
        },
        {
          "type": "church",
          "name": "Qua Iboe Church Itung Abak",
          "slug": "qua-iboe-church-itung-abak-church",
          "coordinates": {
            "lat": 4.92568999959383,
            "lng": 7.787740000101
          },
          "source": "grid3",
          "verified": true
        },
        {
          "type": "church",
          "name": "The Apostolic Church Abak Usung Atai",
          "slug": "the-apostolic-church-abak-usung-atai-church",
          "coordinates": {
            "lat": 4.93417999990714,
            "lng": 7.79983999961632
          },
          "source": "grid3",
          "verified": true
        },
        {
          "type": "church",
          "name": "Church Of The Nazareen Abak Usung Idim",
          "slug": "church-of-the-nazareen-abak-usung-idim-church",
          "coordinates": {
            "lat": 4.95137000032531,
            "lng": 7.79500000034977
          },
          "source": "grid3",
          "verified": true
        },
        {
          "type": "church",
          "name": "Church Of The Nazareen Ata Ediene",
          "slug": "church-of-the-nazareen-ata-ediene-church",
          "coordinates": {
            "lat": 4.95790999974673,
            "lng": 7.81495000034226
          },
          "source": "grid3",
          "verified": true
        },
        {
          "type": "church",
          "name": "St Joseph Catholic Church Oku Abak",
          "slug": "st-joseph-catholic-church-oku-abak-church",
          "coordinates": {
            "lat": 4.96166000000903,
            "lng": 7.79515000007251
          },
          "source": "grid3",
          "verified": true
        },
        {
          "type": "church",
          "name": "St Pauls African Church Ikot Inyang Ediene",
          "slug": "st-pauls-african-church-ikot-inyang-ediene-church",
          "coordinates": {
            "lat": 4.96728999973374,
            "lng": 7.81087999971226
          },
          "source": "grid3",
          "verified": true
        },
        {
          "type": "church",
          "name": "St Mary Catholic Church Ibannang Ediene",
          "slug": "st-mary-catholic-church-ibannang-ediene-church",
          "coordinates": {
            "lat": 4.97362000026283,
            "lng": 7.80849999967529
          },
          "source": "grid3",
          "verified": true
        },
        {
          "type": "church",
          "name": "First Baptist Church Ikot Okubara",
          "slug": "first-baptist-church-ikot-okubara-church",
          "coordinates": {
            "lat": 4.98286000008898,
            "lng": 7.80547000024035
          },
          "source": "grid3",
          "verified": true
        },