{
  "name": "Bauchi",
  "slug": "bauchi",
  "lgas": [
    {
      "name": "Alkaleri",
      "slug": "bauchi-alkaleri",
      "markets": [],
      "facilities": [
        {
          "type": "market",
          "name": "Kasuwan Tashan Dutse",
          "slug": "kasuwan-tashan-dutse-market",
          "coordinates": {
            "lat": 9.6854700004402,
            "lng": 10.8610099996118
          },
          "source": "grid3",
          "verified": true,
          "metadata": {
            "mrkt_days": "0"
          }
        },
        {
          "type": "market",
          "name": "Kasuwan Yalon Guroza",
          "slug": "kasuwan-yalon-guroza-market",
          "coordinates": {
            "lat": 9.72695000044223,
            "lng": 10.8177799998472
          },
          "source": "grid3",
          "verified": true,
          "metadata": {
            "mrkt_days": "0"
          }
        },
        {
          "type": "market",
          "name": "Kasuwan Lafiya",
          "slug": "kasuwan-lafiya-market",
          "coordinates": {
            "lat": 10.1641900001684,
            "lng": 10.4969999999501
          },
          "source": "grid3",
          "verified": true,
          "metadata": {
            "mrkt_days": "0"
          }
        },
        {
          "type": "market",
          "name": "Kasuwan Yalwan Bajama",
          "slug": "kasuwan-yalwan-bajama-market",
          "coordinates": {
            "lat": 9.95523000016442,
            "lng": 10.0654599995794
          },
          "source": "grid3",
          "verified": true,
          "metadata": {
            "mrkt_days": "0"
          }
        },
        {
          "type": "market",
          "name": "Kasuwan Kumbala",
          "slug": "kasuwan-kumbala-market",
          "coordinates": {
            "lat": 9.89355000033231,
            "lng": 10.0470399999961
          },
          "source": "grid3",
          "verified": true,
          "metadata": {
            "mrkt_days": "0"
          }
        },
        {
          "type": "market",
          "name": "Kasuwan Kundak",
          "slug": "kasuwan-kundak-market",
          "coordinates": {
            "lat": 9.79138999984866,
            "lng": 9.89928999973375
          },
          "source": "grid3",
          "verified": true,
          "metadata": {
            "mrkt_days": "0"
          }
        },
        {
          "type": "market",
          "name": "Kasuwan Bogwas",
          "slug": "kasuwan-bogwas-market",
          "coordinates": {
            "lat": 9.56247000029032,
            "lng": 10.4841900000685
          },
          "source": "grid3",
          "verified": true,
          "metadata": {
            "mrkt_days": "0"
          }
        },
        {
          "type": "market",
          "name": "Kasuwan Maimadiri",
          "slug": "kasuwan-maimadiri-market",
          "coordinates": {
            "lat": 10.2687899998587,
            "lng": 10.3323900000985
          },
          "source": "grid3",
          "verified": true,
          "metadata": {
            "mrkt_days": "0"
          }
        },
        {
          "type": "market",
          "name": "Kasuwan Mainamaji",
          "slug": "kasuwan-mainamaji-market",
          "coordinates": {
            "lat": 10.0542099996918,
            "lng": 10.2871700002953
          },
          "source": "grid3",
          "verified": true,
          "metadata": {
            "mrkt_days": "0"
          }
        },
        {
          "type": "market",
          "name": "Kasuwan Gobirawa",
          "slug": "kasuwan-gobirawa-market",
          "coordinates": {
            "lat": 9.69167999993209,
            "lng": 10.9528699999506
          },
          "source": "grid3",
          "verified": true,
          "metadata": {
            "mrkt_days": "0"
          }
        },
        {
          "type": "market",
          "name": "Kasuwan Futuk",
          "slug": "kasuwan-futuk-market",
          "coordinates": {
            "lat": 9.83362000026284,
            "lng": 10.8991700002953
          },
          "source": "grid3",
          "verified": true,
          "metadata": {
            "mrkt_days": "0"
          }
        },
        {
          "type": "market",
          "name": "Kasuwan Faruqu",
          "slug": "kasuwan-faruqu-market",
          "coordinates": {
            "lat": 9.74783999971629,
            "lng": 10.8712299996648
          },
          "source": "grid3",
          "verified": true,
          "metadata": {
            "mrkt_days": "0"
          }
        },
        {
          "type": "market",
          "name": "Kasuwan Yalo",
          "slug": "kasuwan-yalo-market",
          "coordinates": {
            "lat": 9.73937999988715,
            "lng": 10.8136700000705
          },
          "source": "grid3",
          "verified": true,
          "metadata": {
            "mrkt_days": "0"
          }
        },
        {
          "type": "market",
          "name": "Kasuwan Yalwan Alkaleri",
          "slug": "kasuwan-yalwan-alkaleri-market",
          "coordinates": {
            "lat": 9.69910000036475,
            "lng": 10.7907400002509
          },
          "source": "grid3",
          "verified": true,
          "metadata": {
            "mrkt_days": "0"
          }
        },
        {
          "type": "market",
          "name": "Kasuwan Maimadi",
          "slug": "kasuwan-maimadi-market",
          "coordinates": {
            "lat": 10.1674300002943,
            "lng": 10.7875600001939
          },
          "source": "grid3",
          "verified": true,
          "metadata": {
            "mrkt_days": "0"
          }
        },
        {
          "type": "market",
          "name": "Kasuwan Ruga",
          "slug": "kasuwan-ruga-market",
          "coordinates": {
            "lat": 9.51024000007601,
            "lng": 10.7301300002993
          },
          "source": "grid3",
          "verified": true,
          "metadata": {
            "mrkt_days": "0"
          }
        },
        {
          "type": "market",
          "name": "Kasuwan Kaimawa",
          "slug": "kasuwan-kaimawa-market",
          "coordinates": {
            "lat": 10.1804900000135,
            "lng": 10.7193699996258
          },
          "source": "grid3",
          "verified": true,
          "metadata": {
            "mrkt_days": "0"
          }
        },
        {
          "type": "market",
          "name": "Kasuwan Machiyar Maje",
          "slug": "kasuwan-machiyar-maje-market",
          "coordinates": {
            "lat": 10.0574899998637,
            "lng": 10.6254499996178
          },
          "source": "grid3",
          "verified": true,
          "metadata": {
            "mrkt_days": "0"
          }
        },
        {
          "type": "market",
          "name": "Kasuwan Garin Na Allah",
          "slug": "kasuwan-garin-na-allah-market",
          "coordinates": {
            "lat": 10.2216899996938,
            "lng": 10.6235999997402
          },
          "source": "grid3",
          "verified": true,
          "metadata": {
            "mrkt_days": "0"
          }
        },
        {
          "type": "market",
          "name": "Kasuwan Garin Ladan",
          "slug": "kasuwan-garin-ladan-market",
          "coordinates": {
            "lat": 10.1581899995689,
            "lng": 10.6229399998811
          },
          "source": "grid3",
          "verified": true,
          "metadata": {
            "mrkt_days": "0"
          }
        },
        {
          "type": "market",
          "name": "Kasuwan Kwala",
          "slug": "kasuwan-kwala-market",
          "coordinates": {
            "lat": 10.0346400001359,
            "lng": 10.6062300000145
          },
          "source": "grid3",
          "verified": true,
          "metadata": {
            "mrkt_days": "0"
          }
        },
        {
          "type": "market",
          "name": "Kasuwan Yuli",
          "slug": "kasuwan-yuli-market",
          "coordinates": {
            "lat": 9.69662000021287,
            "lng": 10.2738399998162
          },
          "source": "grid3",
          "verified": true,
          "metadata": {
            "mrkt_days": "0"
          }
        },
        {
          "type": "market",
          "name": "Kasuwan Gajin Duguri",
          "slug": "kasuwan-gajin-duguri-market",
          "coordinates": {
            "lat": 9.7024500001674,
            "lng": 10.195780000047
          },
          "source": "grid3",
          "verified": true,
          "metadata": {
            "mrkt_days": "0"
          }
        },
        {
          "type": "market",
          "name": "Kasuwan Gokaru",
          "slug": "kasuwan-gokaru-market",
          "coordinates": {
            "lat": 10.1764899999136,
            "lng": 10.1839300003693
          },
          "source": "grid3",
          "verified": true,
          "metadata": {
            "mrkt_days": "0"
          }
        },
        {
          "type": "market",
          "name": "Kasuwan Yalwan Duguri",
          "slug": "kasuwan-yalwan-duguri-market",
          "coordinates": {
            "lat": 9.96360999990162,
            "lng": 10.183240000026
          },
          "source": "grid3",
          "verified": true,
          "metadata": {
            "mrkt_days": "0"
          }
        },
        {
          "type": "market",
          "name": "Kasuwan Bartak",
          "slug": "kasuwan-bartak-market",
          "coordinates": {
            "lat": 10.0535800003168,
            "lng": 10.0989200002579
          },
          "source": "grid3",
          "verified": true,
          "metadata": {
            "mrkt_days": "0"
          }
        },
        {
          "type": "market",
          "name": "Kasuwan Gwar Tam Bali",
          "slug": "kasuwan-gwar-tam-bali-market",
          "coordinates": {
            "lat": 9.95039999956037,
            "lng": 9.99269999960535
          },
          "source": "grid3",
          "verified": true,
          "metadata": {
            "mrkt_days": "0"
          }
        },
        {
          "type": "market",
          "name": "Kasuwan Gigyara",
          "slug": "kasuwan-gigyara-market",
          "coordinates": {
            "lat": 9.88306999998059,
            "lng": 9.91597999957736
          },
          "source": "grid3",
          "verified": true,
          "metadata": {
            "mrkt_days": "0"
          }
        },
        {
          "type": "market",
          "name": "Kasuwan Gwaljarandi Fulani",
          "slug": "kasuwan-gwaljarandi-fulani-market",
          "coordinates": {
            "lat": 9.85351000018642,
            "lng": 9.89224999973777
          },
          "source": "grid3",
          "verified": true,
          "metadata": {
            "mrkt_days": "0"
          }
        },
        {
          "type": "health_facility",
          "name": "Kunkar Primary Health Clinic",
          "slug": "kunkar-primary-health-clinic-health-facility",
          "coordinates": {
            "lat": 9.9241465823,
            "lng": 10.1010991142
          },
          "source": "grid3",
          "verified": true,
          "metadata": {
            "facility_level": "Primary",
            "facility_level_option": "Primary Health Clinic",
            "ownership": "Public",
            "ownership_type": "Local Government"
          }
        },
        {
          "type": "health_facility",
          "name": "Shira Primary Health Care Center",
          "slug": "shira-primary-health-care-center-health-facility",
          "coordinates": {
            "lat": 10.05012109,
            "lng": 10.2788768
          },
          "source": "grid3",
          "verified": true,
          "metadata": {
            "facility_level": "Primary",
            "facility_level_option": "Primary Health Center",
            "ownership": "Public",
            "ownership_type": "Local Government"
          }
        },
        {
          "type": "health_facility",
          "name": "Alkaleri General Hospital",
          "slug": "alkaleri-general-hospital-health-facility",
          "coordinates": {
            "lat": 10.26460761,
            "lng": 10.31482145
          },
          "source": "grid3",
          "verified": true,
          "metadata": {
            "facility_level": "Secondary",
            "facility_level_option": "General Hospital",
            "ownership": "Public",
            "ownership_type": "State Government"
          }
        },
        {
          "type": "health_facility",
          "name": "Gorondo Primary Health Care Center",
          "slug": "gorondo-primary-health-care-center-health-facility",
          "coordinates": {
            "lat": 10.24511719,
            "lng": 10.46472168
          },
          "source": "grid3",
          "verified": true,
          "metadata": {
            "facility_level": "Primary",
            "facility_level_option": "Primary Health Center",
            "ownership": "Public",
            "ownership_type": "Local Government"
          }
        },
        {
          "type": "health_facility",
          "name": "Futuk Primary Health Care Center",
          "slug": "futuk-primary-health-care-center-health-facility",
          "coordinates": {
            "lat": 9.82977243,
            "lng": 10.90186816
          },
          "source": "grid3",
          "verified": true,
          "metadata": {
            "facility_level": "Primary",
            "facility_level_option": "Primary Health Center",
            "ownership": "Public",
            "ownership_type": "Local Government"
          }
        },
        {
          "type": "health_facility",
          "name": "Yalo Primary Health Care Center",
          "slug": "yalo-primary-health-care-center-health-facility",
          "coordinates": {
            "lat": 9.73766561,
            "lng": 10.81504249
          },
          "source": "grid3",
          "verified": true,
          "metadata": {
            "facility_level": "Primary",
            "facility_level_option": "Primary Health Center",
            "ownership": "Public",
            "ownership_type": "Local Government"
          }
        },
        {
          "type": "health_facility",
          "name": "Pali Primary Health Care Center",
          "slug": "pali-primary-health-care-center-health-facility",
          "coordinates": {
            "lat": 10.08634351,
            "lng": 10.51395952
          },
          "source": "grid3",
          "verified": true,
          "metadata": {
            "facility_level": "Primary",
            "facility_level_option": "Primary Health Center",
            "ownership": "Public",
            "ownership_type": "Local Government"
          }
        },
        {
          "type": "health_facility",
          "name": "Gwaram Primary Health Care Center",
          "slug": "gwaram-primary-health-care-center-health-facility",
          "coordinates": {
            "lat": 10.23817036,
            "lng": 10.28650542
          },
          "source": "grid3",
          "verified": true,
          "metadata": {
            "facility_level": "Primary",
            "facility_level_option": "Primary Health Center",
            "ownership": "Public",
            "ownership_type": "Local Government"
          }
        },
        {
          "type": "health_facility",
          "name": "Bajama Primary Health Care Center",
          "slug": "bajama-primary-health-care-center-health-facility",
          "coordinates": {
            "lat": 9.95702297,
            "lng": 10.06832507
          },
          "source": "grid3",
          "verified": true,
          "metadata": {
            "facility_level": "Primary",
            "facility_level_option": "Primary Health Center",
            "ownership": "Public",
            "ownership_type": "Local Government"
          }
        },
        {
          "type": "health_facility",
          "name": "Galen Mansur Primary Health Clinic",
          "slug": "galen-mansur-primary-health-clinic-health-facility",
          "coordinates": {
            "lat": 9.624067,
            "lng": 10.659648
          },
          "source": "grid3",
          "verified": true,
          "metadata": {
            "facility_level": "Primary",
            "facility_level_option": "Primary Health Clinic",
            "ownership": "Public",
            "ownership_type": "Local Government"
          }
        },
        {
          "type": "health_facility",
          "name": "Bakin Kogi Model Primary Health Care Center",
          "slug": "bakin-kogi-model-primary-health-care-center-health-facility",
          "coordinates": {
            "lat": 10.07456631,
            "lng": 10.35101631
          },
          "source": "grid3",
          "verified": true,
          "metadata": {
            "facility_level": "Primary",
            "facility_level_option": "Primary Health Center",
            "ownership": "Public",
            "ownership_type": "Local Government"
          }
        },
        {
          "type": "health_facility",
          "name": "Galen Duguri Primary Health Clinic",
          "slug": "galen-duguri-primary-health-clinic-health-facility",
          "coordinates": {
            "lat": 10.05601273,
            "lng": 10.33878717
          },
          "source": "grid3",
          "verified": true,
          "metadata": {
            "facility_level": "Primary",
            "facility_level_option": "Primary Health Clinic",
            "ownership": "Public",
            "ownership_type": "Local Government"
          }
        },
        {
          "type": "health_facility",
          "name": "Rimi Primary Health Clinic",
          "slug": "rimi-primary-health-clinic-health-facility",
          "coordinates": {
            "lat": 9.559875488,
            "lng": 10.51269531
          },
          "source": "grid3",
          "verified": true,
          "metadata": {
            "facility_level": "Primary",
            "facility_level_option": "Primary Health Clinic",
            "ownership": "Public",
            "ownership_type": "Local Government"
          }
        },
        {
          "type": "health_facility",
          "name": "Gwana Primary Health Care Center",
          "slug": "gwana-primary-health-care-center-health-facility",
          "coordinates": {
            "lat": 9.65312,
            "lng": 10.751705
          },
          "source": "grid3",
          "verified": true,
          "metadata": {
            "facility_level": "Primary",
            "facility_level_option": "Primary Health Center",
            "ownership": "Public",
            "ownership_type": "Local Government"
          }
        },
        {
          "type": "health_facility",
          "name": "Alkalerin Digare Primary Health Clinic",
          "slug": "alkalerin-digare-primary-health-clinic-health-facility",
          "coordinates": {
            "lat": 9.700500488,
            "lng": 10.79248047
          },
          "source": "grid3",
          "verified": true,
          "metadata": {
            "facility_level": "Primary",
            "facility_level_option": "Primary Health Clinic",
            "ownership": "Public",
            "ownership_type": "Local Government"
          }
        },
        {
          "type": "health_facility",
          "name": "Kundak Primary Health Care Center",
          "slug": "kundak-primary-health-care-center-health-facility",
          "coordinates": {
            "lat": 9.79520523,
            "lng": 9.90027316
          },
          "source": "grid3",
          "verified": true,
          "metadata": {
            "facility_level": "Primary",
            "facility_level_option": "Primary Health Center",
            "ownership": "Public",
            "ownership_type": "Local Government"
          }
        },
        {
          "type": "health_facility",
          "name": "Garin Na Allah Primary Health Clinic",
          "slug": "garin-na-allah-primary-health-clinic-health-facility",
          "coordinates": {
            "lat": 10.22239,
            "lng": 10.61512
          },
          "source": "grid3",
          "verified": true,
          "metadata": {
            "facility_level": "Primary",
            "facility_level_option": "Primary Health Clinic",
            "ownership": "Public",
            "ownership_type": "Local Government"
          }
        },
        {
          "type": "health_facility",
          "name": "Katarko Primary Health Clinic",
          "slug": "katarko-primary-health-clinic-health-facility",
          "coordinates": {
            "lat": 10.13031006,
            "lng": 10.62750244
          },
          "source": "grid3",
          "verified": true,
          "metadata": {
            "facility_level": "Primary",
            "facility_level_option": "Primary Health Clinic",
            "ownership": "Public",
            "ownership_type": "Local Government"
          }
        },
        {
          "type": "health_facility",
          "name": "Bartak Health Post",
          "slug": "bartak-health-post-health-facility",
          "coordinates": {
            "lat": 10.08253486,
            "lng": 10.10702871
          },
          "source": "grid3",
          "verified": true,
          "metadata": {
            "facility_level": "Primary",
            "facility_level_option": "Health Post",
            "ownership": "Public",
            "ownership_type": "Local Government"
          }
        },
        {
          "type": "health_facility",
          "name": "Tumuru Health Post",
          "slug": "tumuru-health-post-health-facility",
          "coordinates": {
            "lat": 10.14112553,
            "lng": 10.46632864
          },
          "source": "grid3",
          "verified": true,
          "metadata": {
            "facility_level": "Primary",
            "facility_level_option": "Health Post",
            "ownership": "Public",
            "ownership_type": "Local Government"
          }
        },
        {
          "type": "health_facility",
          "name": "Gangar Primary Health Clinic",
          "slug": "gangar-primary-health-clinic-health-facility",
          "coordinates": {
            "lat": 10.05438941,
            "lng": 10.14701562
          },
          "source": "grid3",
          "verified": true,
          "metadata": {
            "facility_level": "Primary",
            "facility_level_option": "Primary Health Clinic",
            "ownership": "Public",
            "ownership_type": "Local Government"
          }
        },
        {
          "type": "health_facility",
          "name": "Jada Health Post",
          "slug": "jada-health-post-health-facility",
          "coordinates": {
            "lat": 9.99325869,
            "lng": 10.73171149
          },
          "source": "grid3",
          "verified": true,
          "metadata": {
            "facility_level": "Primary",
            "facility_level_option": "Primary Health Clinic",
            "ownership": "Public",
            "ownership_type": "Local Government"
          }
        },
        {
          "type": "health_facility",
          "name": "Kwaimawa Primary Health Clinic",
          "slug": "kwaimawa-primary-health-clinic-health-facility",
          "coordinates": {
            "lat": 10.176323,
            "lng": 10.718059
          },
          "source": "grid3",
          "verified": true,
          "metadata": {
            "facility_level": "Primary",
            "facility_level_option": "Primary Health Clinic",
            "ownership": "Public",
            "ownership_type": "Local Government"
          }
        },
        {
          "type": "health_facility",
          "name": "Badaran Dutse Health Post",
          "slug": "badaran-dutse-health-post-health-facility",
          "coordinates": {
            "lat": 10.014497,
            "lng": 10.13160627
          },
          "source": "grid3",
          "verified": true,
          "metadata": {
            "facility_level": "Primary",
            "facility_level_option": "Health Post",
            "ownership": "Public",
            "ownership_type": "Local Government"
          }
        },
        {
          "type": "health_facility",
          "name": "Birim Primary Health Clinic",
          "slug": "birim-primary-health-clinic-health-facility",
          "coordinates": {
            "lat": 10.00185039,
            "lng": 10.08470889
          },
          "source": "grid3",
          "verified": true,
          "metadata": {
            "facility_level": "Primary",
            "facility_level_option": "Primary Health Clinic",
            "ownership": "Public",
            "ownership_type": "Local Government"
          }
        },
        {
          "type": "health_facility",
          "name": "Jamda Health Post",
          "slug": "jamda-health-post-health-facility",
          "coordinates": {
            "lat": 9.88621,
            "lng": 9.87474
          },
          "source": "grid3",
          "verified": true,
          "metadata": {
            "facility_level": "Primary",
            "facility_level_option": "Health Post",
            "ownership": "Public",
            "ownership_type": "Local Government"
          }
        },
        {
          "type": "health_facility",
          "name": "Kumbala Primary Health Clinic",
          "slug": "kumbala-primary-health-clinic-health-facility",
          "coordinates": {
            "lat": 9.892700195,
            "lng": 10.04089356
          },
          "source": "grid3",
          "verified": true,
          "metadata": {
            "facility_level": "Primary",
            "facility_level_option": "Primary Health Clinic",
            "ownership": "Public",
            "ownership_type": "Local Government"
          }
        },
        {
          "type": "health_facility",
          "name": "Baladde Health Post",
          "slug": "baladde-health-post-health-facility",
          "coordinates": {
            "lat": 9.74727993,
            "lng": 10.87190892
          },
          "source": "grid3",
          "verified": true,
          "metadata": {
            "facility_level": "Primary",
            "facility_level_option": "Health Post",
            "ownership": "Public",
            "ownership_type": "Local Government"
          }
        },
        {
          "type": "health_facility",
          "name": "Gigyara Primary Health Clinic",
          "slug": "gigyara-primary-health-clinic-health-facility",
          "coordinates": {
            "lat": 9.88299,
            "lng": 9.91979
          },
          "source": "grid3",
          "verified": true,
          "metadata": {
            "facility_level": "Primary",
            "facility_level_option": "Primary Health Clinic",
            "ownership": "Public",
            "ownership_type": "Local Government"
          }
        },
        {
          "type": "health_facility",
          "name": "Kaciciya Primary Health Clinic",
          "slug": "kaciciya-primary-health-clinic-health-facility",
          "coordinates": {
            "lat": 10.12154281,
            "lng": 10.26810859
          },
          "source": "grid3",
          "verified": true,
          "metadata": {
            "facility_level": "Primary",
            "facility_level_option": "Primary Health Clinic",
            "ownership": "Public",
            "ownership_type": "Local Government"
          }
        },
        {
          "type": "health_facility",
          "name": "Digare Primary Health Care Center",
          "slug": "digare-primary-health-care-center-health-facility",
          "coordinates": {
            "lat": 9.65664606,
            "lng": 10.74546962
          },
          "source": "grid3",
          "verified": true,
          "metadata": {
            "facility_level": "Primary",
            "facility_level_option": "Primary Health Center",
            "ownership": "Public",
            "ownership_type": "Local Government"
          }
        },
        {
          "type": "health_facility",
          "name": "Moscow Gajin Duguri Health Clinic",
          "slug": "moscow-gajin-duguri-health-clinic-health-facility",
          "coordinates": {
            "lat": 9.70229,
            "lng": 10.19132
          },
          "source": "grid3",
          "verified": true,
          "metadata": {
            "facility_level": "Primary",
            "facility_level_option": "Primary Health Clinic",
            "ownership": "Private",
            "ownership_type": "For Profit"
          }
        },
        {
          "type": "health_facility",
          "name": "Garin Hamza Primary Health Care Center",
          "slug": "garin-hamza-primary-health-care-center-health-facility",
          "coordinates": {
            "lat": 9.875621065,
            "lng": 10.93482029
          },
          "source": "grid3",
          "verified": true,
          "metadata": {
            "facility_level": "Primary",
            "facility_level_option": "Primary Health Center",
            "ownership": "Public",
            "ownership_type": "Local Government"
          }
        },
        {
          "type": "health_facility",
          "name": "Duguri Health Post",
          "slug": "duguri-health-post-health-facility",
          "coordinates": {
            "lat": 9.69371,
            "lng": 10.27386
          },
          "source": "grid3",
          "verified": true,
          "metadata": {
            "facility_level": "Primary",
            "facility_level_option": "Health Post",
            "ownership": "Public",
            "ownership_type": "Local Government"
          }
        },
        {
          "type": "health_facility",
          "name": "Gar Primary Health Care Center",
          "slug": "gar-primary-health-care-center-health-facility",
          "coordinates": {
            "lat": 10.07287598,
            "lng": 10.26727295
          },
          "source": "grid3",
          "verified": true,
          "metadata": {
            "facility_level": "Primary",
            "facility_level_option": "Primary Health Center",
            "ownership": "Public",
            "ownership_type": "Local Government"
          }
        },
        {
          "type": "health_facility",
          "name": "Guma Primary Health Clinic",
          "slug": "guma-primary-health-clinic-health-facility",
          "coordinates": {
            "lat": 10.14097,
            "lng": 10.18313
          },
          "source": "grid3",
          "verified": true,
          "metadata": {
            "facility_level": "Primary",
            "facility_level_option": "Primary Health Clinic",
            "ownership": "Public",
            "ownership_type": "Local Government"
          }
        },
        {
          "type": "health_facility",
          "name": "Mai Ari Primary Health Clinic",
          "slug": "mai-ari-primary-health-clinic-health-facility",
          "coordinates": {
            "lat": 10.0167440001,
            "lng": 10.6826689996
          },
          "source": "grid3",
          "verified": true,
          "metadata": {
            "facility_level": "Primary",
            "facility_level_option": "Primary Health Clinic",
            "ownership": "Public",
            "ownership_type": "Local Government"
          }
        },
        {
          "type": "health_facility",
          "name": "Mansur Primary Health Care Center",
          "slug": "mansur-primary-health-care-center-health-facility",
          "coordinates": {
            "lat": 9.55946000041,
            "lng": 10.6313069997
          },
          "source": "grid3",
          "verified": true,
          "metadata": {
            "facility_level": "Primary",
            "facility_level_option": "Primary Health Center",
            "ownership": "Public",
            "ownership_type": "Local Government"
          }
        },
        {
          "type": "health_facility",
          "name": "Gobirawa Primary Health Clinic",
          "slug": "gobirawa-primary-health-clinic-health-facility",
          "coordinates": {
            "lat": 9.70028900009,
            "lng": 10.9543100001
          },
          "source": "grid3",
          "verified": true,
          "metadata": {
            "facility_level": "Primary",
            "facility_level_option": "Primary Health Clinic",
            "ownership": "Public",
            "ownership_type": "Local Government"
          }
        },
        {
          "type": "health_facility",
          "name": "Gokaru Primary Health Care Center",
          "slug": "gokaru-primary-health-care-center-health-facility",
          "coordinates": {
            "lat": 10.1794872907,
            "lng": 10.1836197744
          },
          "source": "grid3",
          "verified": true,
          "metadata": {
            "facility_level": "Primary",
            "facility_level_option": "Primary Health Center",
            "ownership": "Public",
            "ownership_type": "Local Government"
          }
        },
        {
          "type": "health_facility",
          "name": "Maimadi Primary Health Care Center",
          "slug": "maimadi-primary-health-care-center-health-facility",
          "coordinates": {
            "lat": 10.1696831044,
            "lng": 10.7866955452
          },
          "source": "grid3",
          "verified": true,
          "metadata": {
            "facility_level": "Primary",
            "facility_level_option": "Primary Health Center",
            "ownership": "Public",
            "ownership_type": "Local Government"
          }
        },
        {
          "type": "health_facility",
          "name": "Dan Primary Health Clinic",
          "slug": "dan-primary-health-clinic-health-facility",
          "coordinates": {
            "lat": 9.87577217789,
            "lng": 10.174373875
          },
          "source": "grid3",
          "verified": true,
          "metadata": {
            "facility_level": "Primary",
            "facility_level_option": "Primary Health Clinic",
            "ownership": "Public",
            "ownership_type": "Local Government"
          }
        },
        {
          "type": "health_facility",
          "name": "Duguri Health Clinic",
          "slug": "duguri-health-clinic-health-facility",
          "coordinates": {
            "lat": 9.96470805659,
            "lng": 10.1824419349
          },
          "source": "grid3",
          "verified": true,
          "metadata": {
            "facility_level": "Primary",
            "facility_level_option": "Primary Health Clinic",
            "ownership": "Private",
            "ownership_type": "For Profit"
          }
        },
        {
          "type": "health_facility",
          "name": "Fanti Primary Health Clinic",
          "slug": "fanti-primary-health-clinic-health-facility",
          "coordinates": {
            "lat": 10.07020551,
            "lng": 10.27782123
          },
          "source": "grid3",
          "verified": true,
          "metadata": {
            "facility_level": "Primary",
            "facility_level_option": "Primary Health Clinic",
            "ownership": "Public",
            "ownership_type": "Local Government"
          }
        },
        {
          "type": "health_facility",
          "name": "Kufa Primary Health Clinic",
          "slug": "kufa-primary-health-clinic-health-facility",
          "coordinates": {
            "lat": 10.1987932886,
            "lng": 10.3497089708
          },
          "source": "grid3",
          "verified": true,
          "metadata": {
            "facility_level": "Primary",
            "facility_level_option": "Primary Health Clinic",
            "ownership": "Public",
            "ownership_type": "Local Government"
          }
        },
        {
          "type": "health_facility",
          "name": "Yelwan Duguri Model Primary Health Care Center",
          "slug": "yelwan-duguri-model-primary-health-care-center-health-facility",
          "coordinates": {
            "lat": 9.96000804911,
            "lng": 10.1839481347
          },
          "source": "grid3",
          "verified": true,
          "metadata": {
            "facility_level": "Primary",
            "facility_level_option": "Primary Health Center",
            "ownership": "Public",
            "ownership_type": "Local Government"
          }
        },
        {
          "type": "health_facility",
          "name": "Mundamiyo Primary Health Clinic",
          "slug": "mundamiyo-primary-health-clinic-health-facility",
          "coordinates": {
            "lat": 9.846358333,
            "lng": 9.990886667
          },
          "source": "grid3",
          "verified": true,
          "metadata": {
            "facility_level": "Primary",
            "facility_level_option": "Primary Health Clinic",
            "ownership": "Public",
            "ownership_type": "Local Government"
          }
        },
        {
          "type": "health_facility",
          "name": "Doka Health Post",
          "slug": "doka-health-post-health-facility-4",
          "coordinates": {
            "lat": 10.08167667,
            "lng": 10.28763
          },
          "source": "grid3",
          "verified": true,
          "metadata": {
            "facility_level": "Primary",
            "facility_level_option": "Health Post",
            "ownership": "Public",
            "ownership_type": "Local Government"
          }
        },
        {
          "type": "health_facility",
          "name": "Mainamaji Primary Health Clinic",
          "slug": "mainamaji-primary-health-clinic-health-facility",
          "coordinates": {
            "lat": 10.0544984847,
            "lng": 10.285459638
          },
          "source": "grid3",
          "verified": true,
          "metadata": {
            "facility_level": "Primary",
            "facility_level_option": "Health Post",
            "ownership": "Public",
            "ownership_type": "Local Government"
          }
        },
        {
          "type": "health_facility",
          "name": "Kunzung Health Post",
          "slug": "kunzung-health-post-health-facility",
          "coordinates": {
            "lat": 9.7064453572,
            "lng": 10.1611674566
          },
          "source": "grid3",
          "verified": true,
          "metadata": {
            "facility_level": "Primary",
            "facility_level_option": "Health Post",
            "ownership": "Public",
            "ownership_type": "Local Government"
          }
        },
        {
          "type": "health_facility",
          "name": "Gamu Primary Health Clinic",
          "slug": "gamu-primary-health-clinic-health-facility",
          "coordinates": {
            "lat": 9.74909853,
            "lng": 9.96358185
          },
          "source": "grid3",
          "verified": true,
          "metadata": {
            "facility_level": "Primary",
            "facility_level_option": "Primary Health Clinic",
            "ownership": "Public",
            "ownership_type": "Local Government"
          }
        },
        {
          "type": "health_facility",
          "name": "Gigera Health Clinic",
          "slug": "gigera-health-clinic-health-facility",
          "coordinates": {
            "lat": 9.883065,
            "lng": 9.919851
          },
          "source": "grid3",
          "verified": true,
          "metadata": {
            "facility_level": "Primary",
            "facility_level_option": "Primary Health Center",
            "ownership": "Public",
            "ownership_type": "Unknown"
          }
        },
        {
          "type": "health_facility",
          "name": "Munkal Primary Health Clinic",
          "slug": "munkal-primary-health-clinic-health-facility",
          "coordinates": {
            "lat": 9.720092773,
            "lng": 9.938903809
          },
          "source": "grid3",
          "verified": true,
          "metadata": {
            "facility_level": "Primary",
            "facility_level_option": "Primary Health Center",
            "ownership": "Public",
            "ownership_type": "Unknown"
          }
        },
        {
          "type": "health_facility",
          "name": "Futuk Health Clinic",
          "slug": "futuk-health-clinic-health-facility",
          "coordinates": {
            "lat": 9.82995,
            "lng": 10.91087
          },
          "source": "grid3",
          "verified": true,
          "metadata": {
            "facility_level": "Primary",
            "facility_level_option": "Primary Health Center",
            "ownership": "Public",
            "ownership_type": "Unknown"
          }
        },
        {
          "type": "health_facility",
          "name": "Tau Maternity",
          "slug": "tau-maternity-health-facility",
          "coordinates": {
            "lat": 10.26835,
            "lng": 10.32987
          },
          "source": "grid3",
          "verified": true,
          "metadata": {
            "facility_level": "Primary",
            "facility_level_option": "Primary Health Center",
            "ownership": "Public",
            "ownership_type": "Unknown"
          }
        },
        {
          "type": "health_facility",
          "name": "Gar Maternal and Child Health",
          "slug": "gar-maternal-and-child-health-health-facility",
          "coordinates": {
            "lat": 10.01034,
            "lng": 10.16094
          },
          "source": "grid3",
          "verified": true,
          "metadata": {
            "facility_level": "Primary",
            "facility_level_option": "Primary Health Clinic",
            "ownership": "Public",
            "ownership_type": "Unknown"
          }
        },
        {
          "type": "health_facility",
          "name": "Ruga Maternity",
          "slug": "ruga-maternity-health-facility",
          "coordinates": {
            "lat": 9.508117676,
            "lng": 10.73352051
          },
          "source": "grid3",
          "verified": true,
          "metadata": {
            "facility_level": "Primary",
            "facility_level_option": "Primary Health Clinic",
            "ownership": "Public",
            "ownership_type": "Unknown"
          }
        },
        {
          "type": "health_facility",
          "name": "Unguwar Sarkin Shanu Health Post",
          "slug": "unguwar-sarkin-shanu-health-post-health-facility",
          "coordinates": {
            "lat": 10.26877,
            "lng": 10.335484
          },
          "source": "grid3",
          "verified": true,
          "metadata": {
            "facility_level": "Primary",
            "facility_level_option": "Health Post",
            "ownership": "Public",
            "ownership_type": "Unknown"
          }
        },
        {
          "type": "health_facility",
          "name": "Kunzun Health Post",
          "slug": "kunzun-health-post-health-facility",
          "coordinates": {
            "lat": 9.79917,
            "lng": 10.15352
          },
          "source": "grid3",
          "verified": true,
          "metadata": {
            "facility_level": "Primary",
            "facility_level_option": "Health Post",
            "ownership": "Public",
            "ownership_type": "Unknown"
          }
        },
        {
          "type": "health_facility",
          "name": "Yuli Health Post",
          "slug": "yuli-health-post-health-facility",
          "coordinates": {
            "lat": 9.698784,
            "lng": 10.273927
          },
          "source": "grid3",
          "verified": true,
          "metadata": {
            "facility_level": "Primary",
            "facility_level_option": "Health Post",
            "ownership": "Public",
            "ownership_type": "Unknown"
          }
        },
        {
          "type": "health_facility",
          "name": "Maimadiri Health Post",
          "slug": "maimadiri-health-post-health-facility",
          "coordinates": {
            "lat": 10.26772,
            "lng": 10.33033
          },
          "source": "grid3",
          "verified": true,
          "metadata": {
            "facility_level": "Primary",
            "facility_level_option": "Health Post",
            "ownership": "Unknown",
            "ownership_type": "Unknown"
          }
        },
        {
          "type": "health_facility",
          "name": "Yuli Health Center",
          "slug": "yuli-health-center-health-facility",
          "coordinates": {
            "lat": 9.69475800033,
            "lng": 10.2553360002
          },
          "source": "grid3",
          "verified": true,
          "metadata": {
            "facility_level": "Primary",
            "facility_level_option": "Primary Health Center",
            "ownership": "Public",
            "ownership_type": "Unknown"
          }
        },
        {
          "type": "health_facility",
          "name": "Gobirawa Health Clinic",
          "slug": "gobirawa-health-clinic-health-facility-4",
          "coordinates": {
            "lat": 9.69874156303,
            "lng": 10.9530025497
          },
          "source": "grid3",
          "verified": true,
          "metadata": {
            "facility_level": "Primary",
            "facility_level_option": "Primary Health Center",
            "ownership": "Public",
            "ownership_type": "Unknown"
          }
        },
        {
          "type": "health_facility",
          "name": "Kundak Health Post",
          "slug": "kundak-health-post-health-facility",
          "coordinates": {
            "lat": 9.79366582922,
            "lng": 9.89696969817
          },
          "source": "grid3",
          "verified": true,
          "metadata": {
            "facility_level": "Primary",
            "facility_level_option": "Health Post",
            "ownership": "Public",
            "ownership_type": "Unknown"
          }
        },
        {
          "type": "health_facility",
          "name": "Birim Health Post",
          "slug": "birim-health-post-health-facility",
          "coordinates": {
            "lat": 10.0042871038,
            "lng": 10.0863748609
          },
          "source": "grid3",
          "verified": true,
          "metadata": {
            "facility_level": "Primary",
            "facility_level_option": "Health Post",
            "ownership": "Public",
            "ownership_type": "Unknown"
          }
        },
        {
          "type": "health_facility",
          "name": "Rimi Health Post",
          "slug": "rimi-health-post-health-facility-2",
          "coordinates": {
            "lat": 9.56180673873,
            "lng": 10.4827814717
          },
          "source": "grid3",
          "verified": true,
          "metadata": {
            "facility_level": "Primary",
            "facility_level_option": "Health Post",
            "ownership": "Public",
            "ownership_type": "Unknown"
          }
        },
        {
          "type": "health_facility",
          "name": "Mosco Clinic",
          "slug": "mosco-clinic-health-facility",
          "coordinates": {
            "lat": 9.70254020306,
            "lng": 10.190729762
          },
          "source": "grid3",
          "verified": true,
          "metadata": {
            "facility_level": "Primary",
            "facility_level_option": "Primary Health Center",
            "ownership": "Public",
            "ownership_type": "Unknown"
          }
        },
        {
          "type": "health_facility",
          "name": "Shafa Primary Health Center",
          "slug": "shafa-primary-health-center-health-facility",
          "coordinates": {
            "lat": 10.0075355353,
            "lng": 10.2268136085
          },
          "source": "grid3",
          "verified": true,
          "metadata": {
            "facility_level": "Primary",
            "facility_level_option": "Primary Health Center",
            "ownership": "Public",
            "ownership_type": "Unknown"
          }
        },
        {
          "type": "health_facility",
          "name": "Gwana Primary Health Center",
          "slug": "gwana-primary-health-center-health-facility",
          "coordinates": {
            "lat": 9.64906511999,
            "lng": 10.7507380572
          },
          "source": "grid3",
          "verified": true,
          "metadata": {
            "facility_level": "Primary",
            "facility_level_option": "Primary Health Center",
            "ownership": "Public",
            "ownership_type": "Unknown"
          }
        },
        {
          "type": "health_facility",
          "name": "Jamda Health Post",
          "slug": "jamda-health-post-health-facility-2",
          "coordinates": {
            "lat": 9.87431040737,
            "lng": 9.94700133213
          },
          "source": "grid3",
          "verified": true,
          "metadata": {
            "facility_level": "Primary",
            "facility_level_option": "Health Post",
            "ownership": "Public",
            "ownership_type": "Unknown"
          }
        },
        {
          "type": "health_facility",
          "name": "Baladde Health Post",
          "slug": "baladde-health-post-health-facility-2",
          "coordinates": {
            "lat": 9.66997572467,
            "lng": 10.7684191068
          },
          "source": "grid3",
          "verified": true,
          "metadata": {
            "facility_level": "Primary",
            "facility_level_option": "Health Post",
            "ownership": "Public",
            "ownership_type": "Unknown"
          }
        },
        {
          "type": "health_facility",
          "name": "Guruntun Health Post",
          "slug": "guruntun-health-post-health-facility",
          "coordinates": {
            "lat": 10.01035,
            "lng": 10.16093
          },
          "source": "grid3",
          "verified": true,
          "metadata": {
            "facility_level": "Primary",
            "facility_level_option": "Health Post",
            "ownership": "Public",
            "ownership_type": "Local Government"
          }
        },
        {
          "type": "health_facility",
          "name": "Badakoshi Primary Health Clinic",
          "slug": "badakoshi-primary-health-clinic-health-facility",
          "coordinates": {
            "lat": 10.12119,
            "lng": 10.17219
          },
          "source": "grid3",
          "verified": true,
          "metadata": {
            "facility_level": "Primary",
            "facility_level_option": "Primary Health Clinic",
            "ownership": "Public",
            "ownership_type": "Local Government"
          }
        },
        {
          "type": "health_facility",
          "name": "Alkaleri Health Post",
          "slug": "alkaleri-health-post-health-facility",
          "coordinates": {
            "lat": 10.26774,
            "lng": 10.33044
          },
          "source": "grid3",
          "verified": true,
          "metadata": {
            "facility_level": "Primary",
            "facility_level_option": "Health Post",
            "ownership": "Public",
            "ownership_type": "Local Government"
          }
        },
        {
          "type": "health_facility",
          "name": "Yankari Primary Health Center",
          "slug": "yankari-primary-health-center-health-facility",
          "coordinates": {
            "lat": 9.90521,
            "lng": 10.35995
          },
          "source": "grid3",
          "verified": true,
          "metadata": {
            "facility_level": "Primary",
            "facility_level_option": "Primary Health Clinic",
            "ownership": "Public",
            "ownership_type": "State Government"
          }
        },
        {
          "type": "health_facility",
          "name": "Badaran Lungu Health Post",
          "slug": "badaran-lungu-health-post-health-facility",
          "coordinates": {
            "lat": 10.06062,
            "lng": 10.30521
          },
          "source": "grid3",
          "verified": true,
          "metadata": {
            "facility_level": "Primary",
            "facility_level_option": "Health Post",
            "ownership": "Public",
            "ownership_type": "Local Government"
          }
        },
        {
          "type": "health_facility",
          "name": "1St Sarauniyan Bauchi Primary Health Clinic",
          "slug": "1st-sarauniyan-bauchi-primary-health-clinic-health-facility",
          "coordinates": {
            "lat": 10.31443,
            "lng": 10.26529
          },
          "source": "grid3",
          "verified": true,
          "metadata": {
            "facility_level": "Primary",
            "facility_level_option": "Unknown",
            "ownership": "Public",
            "ownership_type": "Local Government"
          }
        },
        {
          "type": "health_facility",
          "name": "Gaji Prmary Health Clinic",
          "slug": "gaji-prmary-health-clinic-health-facility",
          "coordinates": {
            "lat": 9.70236,
            "lng": 10.19112
          },
          "source": "grid3",
          "verified": true,
          "metadata": {
            "facility_level": "Primary",
            "facility_level_option": "Primary Health Clinic",
            "ownership": "Public",
            "ownership_type": "Local Government"
          }
        },
        {
          "type": "health_facility",
          "name": "Duguri Primary Health Care Center",
          "slug": "duguri-primary-health-care-center-health-facility",
          "coordinates": {
            "lat": 9.69483,
            "lng": 10.25536
          },
          "source": "grid3",
          "verified": true,
          "metadata": {
            "facility_level": "Primary",
            "facility_level_option": "Primary Health Center",
            "ownership": "Public",
            "ownership_type": "Local Government"
          }
        },
        {
          "type": "health_facility",
          "name": "Gacci Primary Health Clinic",
          "slug": "gacci-primary-health-clinic-health-facility",
          "coordinates": {
            "lat": 9.92337,
            "lng": 9.86844
          },
          "source": "grid3",
          "verified": true,
          "metadata": {
            "facility_level": "Primary",
            "facility_level_option": "Primary Health Clinic",
            "ownership": "Public",
            "ownership_type": "Local Government"
          }
        },
        {
          "type": "health_facility",
          "name": "Gayar Health Post",
          "slug": "gayar-health-post-health-facility",
          "coordinates": {
            "lat": 9.96473,
            "lng": 10.13712
          },
          "source": "grid3",
          "verified": true,
          "metadata": {
            "facility_level": "Primary",
            "facility_level_option": "Health Post",
            "ownership": "Public",
            "ownership_type": "Local Government"
          }
        },
        {
          "type": "school",
          "name": "Guma Pre Primary and Primary School",
          "slug": "guma-pre-primary-and-primary-school-school",
          "coordinates": {
            "lat": 10.1408154852465,
            "lng": 10.1829354931785
          },
          "source": "grid3",
          "verified": true,
          "metadata": {
            "category": "Primary",
            "management": "Public",
            "education": "Formal",
            "subtype": "Standard"
          }
        },
        {
          "type": "school",
          "name": "Yelwan Duguri Primary School",
          "slug": "yelwan-duguri-primary-school-school",
          "coordinates": {
            "lat": 9.96235000025234,
            "lng": 10.1829049998659
          },
          "source": "grid3",
          "verified": true,
          "metadata": {
            "category": "Primary",
            "management": "Public",
            "education": "Formal",
            "subtype": "Aggregate"
          }
        },
        {
          "type": "school",
          "name": "Yalwa Primary School",
          "slug": "yalwa-primary-school-school",
          "coordinates": {
            "lat": 9.87422999971477,
            "lng": 9.94708999980372
          },
          "source": "grid3",
          "verified": true,
          "metadata": {
            "category": "Primary",
            "management": "Public",
            "education": "Formal",
            "subtype": "Standard"
          }
        },
        {
          "type": "school",
          "name": "Gwal Baji Primary School",
          "slug": "gwal-baji-primary-school-school",
          "coordinates": {
            "lat": 9.91833999959135,
            "lng": 9.98838999959884
          },
          "source": "grid3",
          "verified": true,
          "metadata": {
            "category": "Primary",
            "management": "Public",
            "education": "Formal",
            "subtype": "Standard"
          }
        },
        {
          "type": "school",
          "name": "Balakun Primary School",
          "slug": "balakun-primary-school-school",
          "coordinates": {
            "lat": 10.0007778972822,
            "lng": 10.0180638436715
          },
          "source": "grid3",
          "verified": true,
          "metadata": {
            "category": "Primary",
            "management": "Public",
            "education": "Formal",
            "subtype": "Standard"
          }
        },
        {
          "type": "school",
          "name": "M Tohuwa Primary School",
          "slug": "m-tohuwa-primary-school-school",
          "coordinates": {
            "lat": 9.69939000024834,
            "lng": 10.2398200002928
          },
          "source": "grid3",
          "verified": true,
          "metadata": {
            "category": "Primary",
            "management": "Public",
            "education": "Formal",
            "subtype": "Standard"
          }
        },
        {
          "type": "school",
          "name": "Karshi Primary School",
          "slug": "karshi-primary-school-school",
          "coordinates": {
            "lat": 10.1472100004412,
            "lng": 10.2658300000545
          },
          "source": "grid3",
          "verified": true,
          "metadata": {
            "category": "Primary",
            "management": "Public",
            "education": "Formal",
            "subtype": "Standard"
          }
        },
        {
          "type": "school",
          "name": "Nassarawa Primary School",
          "slug": "nassarawa-primary-school-school",
          "coordinates": {
            "lat": 10.1762099995918,
            "lng": 10.2694299996948
          },
          "source": "grid3",
          "verified": true,
          "metadata": {
            "category": "Primary",
            "management": "Public",
            "education": "Formal",
            "subtype": "Standard"
          }
        },
        {
          "type": "school",
          "name": "Masori Primary School",
          "slug": "masori-primary-school-school",
          "coordinates": {
            "lat": 10.0731200002878,
            "lng": 10.3300300000845
          },
          "source": "grid3",
          "verified": true,
          "metadata": {
            "category": "Primary",
            "management": "Public",
            "education": "Formal",
            "subtype": "Standard"
          }
        },
        {
          "type": "school",
          "name": "Londo Primary School",
          "slug": "londo-primary-school-school",
          "coordinates": {
            "lat": 10.2713300000795,
            "lng": 10.3488999997352
          },
          "source": "grid3",
          "verified": true,
          "metadata": {
            "category": "Primary",
            "management": "Public",
            "education": "Formal",
            "subtype": "Standard"
          }
        },
        {
          "type": "school",
          "name": "Gale Primary School",
          "slug": "gale-primary-school-school",
          "coordinates": {
            "lat": 10.1574499996178,
            "lng": 10.4913599997642
          },
          "source": "grid3",
          "verified": true,
          "metadata": {
            "category": "Primary",
            "management": "Public",
            "education": "Formal",
            "subtype": "Standard"
          }
        },
        {
          "type": "school",
          "name": "Sabon Dale Islamiya Primary School",
          "slug": "sabon-dale-islamiya-primary-school-school",
          "coordinates": {
            "lat": 9.62303011394863,
            "lng": 10.7101822827861
          },
          "source": "grid3",
          "verified": true,
          "metadata": {
            "category": "Primary",
            "management": "Public",
            "education": "Formal",
            "subtype": "Standard"
          }
        },
        {
          "type": "school",
          "name": "Maimadi Primary School",
          "slug": "maimadi-primary-school-school",
          "coordinates": {
            "lat": 10.1673700002254,
            "lng": 10.7860400002459
          },
          "source": "grid3",
          "verified": true,
          "metadata": {
            "category": "Primary",
            "management": "Public",
            "education": "Formal",
            "subtype": "Standard"
          }
        },
        {
          "type": "school",
          "name": "Faruqu Primary School",
          "slug": "faruqu-primary-school-school",
          "coordinates": {
            "lat": 9.74701000011146,
            "lng": 10.8717399998012
          },
          "source": "grid3",
          "verified": true,
          "metadata": {
            "category": "Primary",
            "management": "Public",
            "education": "Formal",
            "subtype": "Standard"
          }
        },
        {
          "type": "school",
          "name": "Gora Primary School",
          "slug": "gora-primary-school-school",
          "coordinates": {
            "lat": 9.82174000010099,
            "lng": 10.914260000099
          },
          "source": "grid3",
          "verified": true,
          "metadata": {
            "category": "Primary",
            "management": "Public",
            "education": "Formal",
            "subtype": "Standard"
          }
        },
        {
          "type": "school",
          "name": "Gwanan Dutse Primary School",
          "slug": "gwanan-dutse-primary-school-school",
          "coordinates": {
            "lat": 9.54729080212888,
            "lng": 10.882108209926
          },
          "source": "grid3",
          "verified": true,
          "metadata": {
            "category": "Primary",
            "management": "Public",
            "education": "Formal",
            "subtype": "Primary"
          }
        },
        {
          "type": "school",
          "name": "Gamu Primary School",
          "slug": "gamu-primary-school-school-2",
          "coordinates": {
            "lat": 9.74340132111411,
            "lng": 9.96209172035668
          },
          "source": "grid3",
          "verified": true,
          "metadata": {
            "category": "Primary",
            "management": "Public",
            "education": "Formal",
            "subtype": "Primary"
          }
        },
        {
          "type": "school",
          "name": "Quranic Integration Gwaram Primary School",
          "slug": "quranic-integration-gwaram-primary-school-school",
          "coordinates": {
            "lat": 10.2313633297539,
            "lng": 10.2818516696189
          },
          "source": "grid3",
          "verified": true,
          "metadata": {
            "category": "Primary",
            "management": "Public",
            "education": "Integrated",
            "subtype": "Primary"
          }
        },
        {
          "type": "school",
          "name": "Ruga Primary School",
          "slug": "ruga-primary-school-school",
          "coordinates": {
            "lat": 9.507413260014,
            "lng": 10.7257565198476
          },
          "source": "grid3",
          "verified": true,
          "metadata": {
            "category": "Primary",
            "management": "Public",
            "education": "Formal",
            "subtype": "Primary"
          }
        },
        {
          "type": "school",
          "name": "Rimi Primary School",
          "slug": "rimi-primary-school-school",
          "coordinates": {
            "lat": 9.56043899116656,
            "lng": 10.5118614397537
          },
          "source": "grid3",
          "verified": true,
          "metadata": {
            "category": "Primary",
            "management": "Public",
            "education": "Formal",
            "subtype": "Primary"
          }
        },
        {
          "type": "school",
          "name": "Boggos Primary School",
          "slug": "boggos-primary-school-school",
          "coordinates": {
            "lat": 9.56088960277299,
            "lng": 10.4833120099414
          },
          "source": "grid3",
          "verified": true,
          "metadata": {
            "category": "Primary",
            "management": "Public",
            "education": "Formal",
            "subtype": "Primary"
          }
        },
        {
          "type": "school",
          "name": "Monsur Primary School",
          "slug": "monsur-primary-school-school",
          "coordinates": {
            "lat": 9.56130492138504,
            "lng": 10.6326559398198
          },
          "source": "grid3",
          "verified": true,
          "metadata": {
            "category": "Primary",
            "management": "Public",
            "education": "Formal",
            "subtype": "Primary"
          }
        },
        {
          "type": "school",
          "name": "Mansur Central Primary School",
          "slug": "mansur-central-primary-school-school",
          "coordinates": {
            "lat": 9.5615011453616,
            "lng": 10.6320297697581
          },
          "source": "grid3",
          "verified": true,
          "metadata": {
            "category": "Primary",
            "management": "Public",
            "education": "Formal",
            "subtype": "Primary"
          }
        },
        {
          "type": "school",
          "name": "Kare Kare Primary School",
          "slug": "kare-kare-primary-school-school",
          "coordinates": {
            "lat": 9.5940000009993,
            "lng": 10.7417366704111
          },
          "source": "grid3",
          "verified": true,
          "metadata": {
            "category": "Primary",
            "management": "Public",
            "education": "Formal",
            "subtype": "Primary"
          }
        },
        {
          "type": "school",
          "name": "Kargo Primary School",
          "slug": "kargo-primary-school-school",
          "coordinates": {
            "lat": 9.61817241962154,
            "lng": 10.663908489785
          },
          "source": "grid3",
          "verified": true,
          "metadata": {
            "category": "Primary",
            "management": "Public",
            "education": "Formal",
            "subtype": "Primary"
          }
        },
        {
          "type": "school",
          "name": "Gale Mansur Primary School",
          "slug": "gale-mansur-primary-school-school",
          "coordinates": {
            "lat": 9.62393971974234,
            "lng": 10.6594485898806
          },
          "source": "grid3",
          "verified": true,
          "metadata": {
            "category": "Primary",
            "management": "Public",
            "education": "Formal",
            "subtype": "Primary"
          }
        },
        {
          "type": "school",
          "name": "Kwantagora Primary School",
          "slug": "kwantagora-primary-school-school",
          "coordinates": {
            "lat": 9.62977333317286,
            "lng": 10.7023150000373
          },
          "source": "grid3",
          "verified": true,
          "metadata": {
            "category": "Primary",
            "management": "Public",
            "education": "Formal",
            "subtype": "Primary"
          }
        },
        {
          "type": "school",
          "name": "Katagum Primary School",
          "slug": "katagum-primary-school-school",
          "coordinates": {
            "lat": 9.63082000104225,
            "lng": 10.9852199998032
          },
          "source": "grid3",
          "verified": true,
          "metadata": {
            "category": "Primary",
            "management": "Public",
            "education": "Formal",
            "subtype": "Primary"
          }
        },
        {
          "type": "school",
          "name": "Jadar Mansur Primary School",
          "slug": "jadar-mansur-primary-school-school",
          "coordinates": {
            "lat": 9.64390240107502,
            "lng": 10.6852970696041
          },
          "source": "grid3",
          "verified": true,
          "metadata": {
            "category": "Primary",
            "management": "Public",
            "education": "Formal",
            "subtype": "Primary"
          }
        },
        {
          "type": "school",
          "name": "Gwana Primary School",
          "slug": "gwana-primary-school-school",
          "coordinates": {
            "lat": 9.65224355099912,
            "lng": 10.7550995402117
          },
          "source": "grid3",
          "verified": true,
          "metadata": {
            "category": "Primary",
            "management": "Public",
            "education": "Formal",
            "subtype": "Primary"
          }
        },
        {
          "type": "school",
          "name": "Wurovayi Primary School",
          "slug": "wurovayi-primary-school-school",
          "coordinates": {
            "lat": 9.67197362987918,
            "lng": 10.7748240199126
          },
          "source": "grid3",
          "verified": true,
          "metadata": {
            "category": "Primary",
            "management": "Public",
            "education": "Formal",
            "subtype": "Primary"
          }
        },
        {
          "type": "school",
          "name": "Kafi Primary School",
          "slug": "kafi-primary-school-school-2",
          "coordinates": {
            "lat": 9.68169166793615,
            "lng": 10.3053266702897
          },
          "source": "grid3",
          "verified": true,
          "metadata": {
            "category": "Primary",
            "management": "Public",
            "education": "Formal",
            "subtype": "Primary"
          }
        },
        {
          "type": "school",
          "name": "Tashan Dutse Primary School",
          "slug": "tashan-dutse-primary-school-school",
          "coordinates": {
            "lat": 9.68537490972437,
            "lng": 10.8607303500257
          },
          "source": "grid3",
          "verified": true,
          "metadata": {
            "category": "Primary",
            "management": "Public",
            "education": "Formal",
            "subtype": "Primary"
          }
        },
        {
          "type": "school",
          "name": "Bun Primary School",
          "slug": "bun-primary-school-school",
          "coordinates": {
            "lat": 9.69381464063321,
            "lng": 10.1588635800902
          },
          "source": "grid3",
          "verified": true,
          "metadata": {
            "category": "Primary",
            "management": "Public",
            "education": "Formal",
            "subtype": "Primary"
          }
        },
        {
          "type": "school",
          "name": "Gobirawa Primary School",
          "slug": "gobirawa-primary-school-school",
          "coordinates": {
            "lat": 9.69781548069994,
            "lng": 10.9548594100338
          },
          "source": "grid3",
          "verified": true,
          "metadata": {
            "category": "Primary",
            "management": "Public",
            "education": "Formal",
            "subtype": "Primary"
          }
        },
        {
          "type": "school",
          "name": "Alkalerin Gwanu Primary School",
          "slug": "alkalerin-gwanu-primary-school-school",
          "coordinates": {
            "lat": 9.70018166804959,
            "lng": 10.7925133302261
          },
          "source": "grid3",
          "verified": true,
          "metadata": {
            "category": "Primary",
            "management": "Public",
            "education": "Formal",
            "subtype": "Primary"
          }
        },
        {
          "type": "school",
          "name": "Kunzung Primary School",
          "slug": "kunzung-primary-school-school",
          "coordinates": {
            "lat": 9.70667333340765,
            "lng": 10.1611833300467
          },
          "source": "grid3",
          "verified": true,
          "metadata": {
            "category": "Primary",
            "management": "Public",
            "education": "Formal",
            "subtype": "Primary"
          }
        },
        {
          "type": "school",
          "name": "Tanglong Primary School",
          "slug": "tanglong-primary-school-school",
          "coordinates": {
            "lat": 9.71600333288757,
            "lng": 10.190381670178
          },
          "source": "grid3",
          "verified": true,
          "metadata": {
            "category": "Primary",
            "management": "Public",
            "education": "Formal",
            "subtype": "Primary"
          }
        },
        {
          "type": "school",
          "name": "Magasa Primary School",
          "slug": "magasa-primary-school-school",
          "coordinates": {
            "lat": 9.7210833333292,
            "lng": 10.8200766696027
          },
          "source": "grid3",
          "verified": true,
          "metadata": {
            "category": "Primary",
            "management": "Public",
            "education": "Formal",
            "subtype": "Primary"
          }
        },
        {
          "type": "school",
          "name": "Yalon Guruza Primary School",
          "slug": "yalon-guruza-primary-school-school",
          "coordinates": {
            "lat": 9.73106333310636,
            "lng": 10.8167933302481
          },
          "source": "grid3",
          "verified": true,
          "metadata": {
            "category": "Primary",
            "management": "Public",
            "education": "Formal",
            "subtype": "Primary"
          }
        },
        {
          "type": "school",
          "name": "Sabon Layi Primary School",
          "slug": "sabon-layi-primary-school-school-3",
          "coordinates": {
            "lat": 9.73355333371944,
            "lng": 10.1411050003955
          },
          "source": "grid3",
          "verified": true,
          "metadata": {
            "category": "Primary",
            "management": "Public",
            "education": "Formal",
            "subtype": "Primary"
          }
        },
        {
          "type": "school",
          "name": "Yalo Primary School",
          "slug": "yalo-primary-school-school",
          "coordinates": {
            "lat": 9.74121666731537,
            "lng": 10.8118450004465
          },
          "source": "grid3",
          "verified": true,
          "metadata": {
            "category": "Primary",
            "management": "Public",
            "education": "Formal",
            "subtype": "Primary"
          }
        },
        {
          "type": "school",
          "name": "Biciki Primary School",
          "slug": "biciki-primary-school-school",
          "coordinates": {
            "lat": 9.74800499113746,
            "lng": 9.99542561000396
          },
          "source": "grid3",
          "verified": true,
          "metadata": {
            "category": "Primary",
            "management": "Public",
            "education": "Formal",
            "subtype": "Primary"
          }
        },
        {
          "type": "school",
          "name": "Malam Jamo Primary School",
          "slug": "malam-jamo-primary-school-school",
          "coordinates": {
            "lat": 9.7569166682697,
            "lng": 10.8612783303307
          },
          "source": "grid3",
          "verified": true,
          "metadata": {
            "category": "Primary",
            "management": "Public",
            "education": "Formal",
            "subtype": "Primary"
          }
        },
        {
          "type": "school",
          "name": "Kol Kol Primary School",
          "slug": "kol-kol-primary-school-school",
          "coordinates": {
            "lat": 9.76250833439218,
            "lng": 10.922263329589
          },
          "source": "grid3",
          "verified": true,
          "metadata": {
            "category": "Primary",
            "management": "Public",
            "education": "Formal",
            "subtype": "Primary"
          }
        },
        {
          "type": "school",
          "name": "Sabon Jiri Primary School",
          "slug": "sabon-jiri-primary-school-school",
          "coordinates": {
            "lat": 9.76413333288707,
            "lng": 10.1698816700031
          },
          "source": "grid3",
          "verified": true,
          "metadata": {
            "category": "Primary",
            "management": "Public",
            "education": "Formal",
            "subtype": "Primary"
          }
        },
        {
          "type": "school",
          "name": "Baka Manu Primary School",
          "slug": "baka-manu-primary-school-school",
          "coordinates": {
            "lat": 9.77451101017505,
            "lng": 10.9545697599865
          },
          "source": "grid3",
          "verified": true,
          "metadata": {
            "category": "Primary",
            "management": "Public",
            "education": "Formal",
            "subtype": "Primary"
          }
        },
        {
          "type": "school",
          "name": "Wundo Primary School",
          "slug": "wundo-primary-school-school",
          "coordinates": {
            "lat": 9.78240646958295,
            "lng": 10.8307008096946
          },
          "source": "grid3",
          "verified": true,
          "metadata": {
            "category": "Primary",
            "management": "Public",
            "education": "Formal",
            "subtype": "Primary"
          }
        },
        {
          "type": "school",
          "name": "Kashereyel Primary School",
          "slug": "kashereyel-primary-school-school",
          "coordinates": {
            "lat": 9.80981000123063,
            "lng": 10.9280533303969
          },
          "source": "grid3",
          "verified": true,
          "metadata": {
            "category": "Primary",
            "management": "Public",
            "education": "Formal",
            "subtype": "Primary"
          }
        },
        {
          "type": "school",
          "name": "Wala Karol Primary School",
          "slug": "wala-karol-primary-school-school",
          "coordinates": {
            "lat": 9.8214100001714,
            "lng": 10.8561500003223
          },
          "source": "grid3",
          "verified": true,
          "metadata": {
            "category": "Primary",
            "management": "Public",
            "education": "Formal",
            "subtype": "Primary"
          }
        },
        {
          "type": "school",
          "name": "Siratiyo Primary School",
          "slug": "siratiyo-primary-school-school",
          "coordinates": {
            "lat": 9.82922666817626,
            "lng": 10.9145816696084
          },
          "source": "grid3",
          "verified": true,
          "metadata": {
            "category": "Primary",
            "management": "Public",
            "education": "Formal",
            "subtype": "Primary"
          }
        },
        {
          "type": "school",
          "name": "Unguwan Galadima Primary School",
          "slug": "unguwan-galadima-primary-school-school",
          "coordinates": {
            "lat": 9.83076736062526,
            "lng": 10.902092590101
          },
          "source": "grid3",
          "verified": true,
          "metadata": {
            "category": "Primary",
            "management": "Public",
            "education": "Formal",
            "subtype": "Primary"
          }
        },
        {
          "type": "school",
          "name": "Takwur Primary School",
          "slug": "takwur-primary-school-school",
          "coordinates": {
            "lat": 9.83530653037212,
            "lng": 10.0248961299525
          },
          "source": "grid3",
          "verified": true,
          "metadata": {
            "category": "Primary",
            "management": "Public",
            "education": "Formal",
            "subtype": "Primary"
          }
        },
        {
          "type": "school",
          "name": "Jauro Gani Primary School",
          "slug": "jauro-gani-primary-school-school",
          "coordinates": {
            "lat": 9.83831500003726,
            "lng": 10.8779583297132
          },
          "source": "grid3",
          "verified": true,
          "metadata": {
            "category": "Primary",
            "management": "Public",
            "education": "Formal",
            "subtype": "Primary"
          }
        },
        {
          "type": "school",
          "name": "Futuk Primary School",
          "slug": "futuk-primary-school-school",
          "coordinates": {
            "lat": 9.85990666655948,
            "lng": 10.9112866696441
          },
          "source": "grid3",
          "verified": true,
          "metadata": {
            "category": "Primary",
            "management": "Private",
            "education": "Formal",
            "subtype": "Primary"
          }
        },
        {
          "type": "school",
          "name": "Ungwan Alhaji Adamu Nomadic Primary School",
          "slug": "ungwan-alhaji-adamu-nomadic-primary-school-school",
          "coordinates": {
            "lat": 9.86767261999546,
            "lng": 10.1726042397939
          },
          "source": "grid3",
          "verified": true,
          "metadata": {
            "category": "Primary",
            "management": "Public",
            "education": "Formal",
            "subtype": "Primary"
          }
        },
        {
          "type": "school",
          "name": "Kumbim Primary School",
          "slug": "kumbim-primary-school-school",
          "coordinates": {
            "lat": 9.86842809008436,
            "lng": 10.0749309803805
          },
          "source": "grid3",
          "verified": true,
          "metadata": {
            "category": "Primary",
            "management": "Public",
            "education": "Formal",
            "subtype": "Primary"
          }
        },
        {
          "type": "school",
          "name": "Jauro Wabi Primary School",
          "slug": "jauro-wabi-primary-school-school",
          "coordinates": {
            "lat": 9.8693166670306,
            "lng": 10.9440366699564
          },
          "source": "grid3",
          "verified": true,
          "metadata": {
            "category": "Primary",
            "management": "Public",
            "education": "Formal",
            "subtype": "Primary"
          }
        },
        {
          "type": "school",
          "name": "Jauro Hamza Primary School",
          "slug": "jauro-hamza-primary-school-school",
          "coordinates": {
            "lat": 9.87559193122269,
            "lng": 10.9346644401119
          },
          "source": "grid3",
          "verified": true,
          "metadata": {
            "category": "Primary",
            "management": "Public",
            "education": "Formal",
            "subtype": "Primary"
          }
        },
        {
          "type": "school",
          "name": "Gigyara Primary School",
          "slug": "gigyara-primary-school-school",
          "coordinates": {
            "lat": 9.87959942087662,
            "lng": 9.91514722016814
          },
          "source": "grid3",
          "verified": true,
          "metadata": {
            "category": "Primary",
            "management": "Public",
            "education": "Formal",
            "subtype": "Primary"
          }
        },
        {
          "type": "school",
          "name": "Jamda Primary School",
          "slug": "jamda-primary-school-school",
          "coordinates": {
            "lat": 9.88655612026878,
            "lng": 9.8753472400831
          },
          "source": "grid3",
          "verified": true,
          "metadata": {
            "category": "Primary",
            "management": "Public",
            "education": "Formal",
            "subtype": "Primary"
          }
        },
        {
          "type": "school",
          "name": "Kumuyel Primary School",
          "slug": "kumuyel-primary-school-school",
          "coordinates": {
            "lat": 9.88719166666215,
            "lng": 10.9183950001292
          },
          "source": "grid3",
          "verified": true,
          "metadata": {
            "category": "Primary",
            "management": "Public",
            "education": "Formal",
            "subtype": "Primary"
          }
        },
        {
          "type": "school",
          "name": "Dimis Primary School",
          "slug": "dimis-primary-school-school",
          "coordinates": {
            "lat": 9.89314023143658,
            "lng": 10.1720766597101
          },
          "source": "grid3",
          "verified": true,
          "metadata": {
            "category": "Primary",
            "management": "Public",
            "education": "Formal",
            "subtype": "Primary"
          }
        },
        {
          "type": "school",
          "name": "Kumbala Primary School",
          "slug": "kumbala-primary-school-school",
          "coordinates": {
            "lat": 9.89460495095778,
            "lng": 10.0396264198235
          },
          "source": "grid3",
          "verified": true,
          "metadata": {
            "category": "Primary",
            "management": "Public",
            "education": "Formal",
            "subtype": "Primary"
          }
        },
        {
          "type": "school",
          "name": "Gum Primary School",
          "slug": "gum-primary-school-school",
          "coordinates": {
            "lat": 9.91208333427852,
            "lng": 10.1708549999584
          },
          "source": "grid3",
          "verified": true,
          "metadata": {
            "category": "Primary",
            "management": "Public",
            "education": "Formal",
            "subtype": "Primary"
          }
        },
        {
          "type": "school",
          "name": "Gacci Primary School",
          "slug": "gacci-primary-school-school",
          "coordinates": {
            "lat": 9.914479839573,
            "lng": 9.88303203959703
          },
          "source": "grid3",
          "verified": true,
          "metadata": {
            "category": "Primary",
            "management": "Public",
            "education": "Formal",
            "subtype": "Primary"
          }
        },
        {
          "type": "school",
          "name": "Kunkar Primary School",
          "slug": "kunkar-primary-school-school",
          "coordinates": {
            "lat": 9.92399141127464,
            "lng": 10.1012082001984
          },
          "source": "grid3",
          "verified": true,
          "metadata": {
            "category": "Primary",
            "management": "Public",
            "education": "Formal",
            "subtype": "Primary"
          }
        },
        {
          "type": "school",
          "name": "Beddare Primary School",
          "slug": "beddare-primary-school-school",
          "coordinates": {
            "lat": 9.92499225958517,
            "lng": 9.85190446032266
          },
          "source": "grid3",
          "verified": true,
          "metadata": {
            "category": "Primary",
            "management": "Public",
            "education": "Formal",
            "subtype": "Primary"
          }
        },
        {
          "type": "school",
          "name": "Natsira Primary School",
          "slug": "natsira-primary-school-school",
          "coordinates": {
            "lat": 9.93188549022324,
            "lng": 10.1697494103071
          },
          "source": "grid3",
          "verified": true,
          "metadata": {
            "category": "Primary",
            "management": "Public",
            "education": "Formal",
            "subtype": "Primary"
          }
        },
        {
          "type": "school",
          "name": "Gayar Primary School",
          "slug": "gayar-primary-school-school",
          "coordinates": {
            "lat": 9.9640317603575,
            "lng": 10.1393851899746
          },
          "source": "grid3",
          "verified": true,
          "metadata": {
            "category": "Primary",
            "management": "Public",
            "education": "Formal",
            "subtype": "Primary"
          }
        },
        {
          "type": "school",
          "name": "Dan Primary School",
          "slug": "dan-primary-school-school",
          "coordinates": {
            "lat": 9.97892677095376,
            "lng": 10.2048294802963
          },
          "source": "grid3",
          "verified": true,
          "metadata": {
            "category": "Primary",
            "management": "Public",
            "education": "Formal",
            "subtype": "Primary"
          }
        },
        {
          "type": "school",
          "name": "Kunva Primary School",
          "slug": "kunva-primary-school-school",
          "coordinates": {
            "lat": 9.98690762998319,
            "lng": 10.0645439096737
          },
          "source": "grid3",
          "verified": true,
          "metadata": {
            "category": "Primary",
            "management": "Public",
            "education": "Formal",
            "subtype": "Primary"
          }
        },
        {
          "type": "school",
          "name": "Jada Community Primary School Jada",
          "slug": "jada-community-primary-school-jada-school",
          "coordinates": {
            "lat": 9.9940756008084,
            "lng": 10.7317329501156
          },
          "source": "grid3",
          "verified": true,
          "metadata": {
            "category": "Primary",
            "management": "Public",
            "education": "Formal",
            "subtype": "Primary"
          }
        },
        {
          "type": "school",
          "name": "Unguwan Tudu Primary School",
          "slug": "unguwan-tudu-primary-school-school",
          "coordinates": {
            "lat": 9.994974960626,
            "lng": 10.0675802897986
          },
          "source": "grid3",
          "verified": true,
          "metadata": {
            "category": "Primary",
            "management": "Public",
            "education": "Formal",
            "subtype": "Primary"
          }
        },
        {
          "type": "school",
          "name": "Tudun Wada Primary School",
          "slug": "tudun-wada-primary-school-school-2",
          "coordinates": {
            "lat": 9.99777333427198,
            "lng": 10.2211016704058
          },
          "source": "grid3",
          "verified": true,
          "metadata": {
            "category": "Primary",
            "management": "Public",
            "education": "Formal",
            "subtype": "Primary"
          }
        },
        {
          "type": "school",
          "name": "Twara Primary School",
          "slug": "twara-primary-school-school",
          "coordinates": {
            "lat": 10.0042320097995,
            "lng": 10.1513099296096
          },
          "source": "grid3",
          "verified": true,
          "metadata": {
            "category": "Primary",
            "management": "Public",
            "education": "Formal",
            "subtype": "Primary"
          }
        },
        {
          "type": "school",
          "name": "Birim Primary School",
          "slug": "birim-primary-school-school",
          "coordinates": {
            "lat": 10.0070779306021,
            "lng": 10.0867649001801
          },
          "source": "grid3",
          "verified": true,
          "metadata": {
            "category": "Primary",
            "management": "Public",
            "education": "Formal",
            "subtype": "Primary"
          }
        },
        {
          "type": "school",
          "name": "Rafawa Primary School",
          "slug": "rafawa-primary-school-school",
          "coordinates": {
            "lat": 10.0086940608822,
            "lng": 10.2249841803757
          },
          "source": "grid3",
          "verified": true,
          "metadata": {
            "category": "Primary",
            "management": "Public",
            "education": "Formal",
            "subtype": "Primary"
          }
        },
        {
          "type": "school",
          "name": "Badaran Dutse Primary School",
          "slug": "badaran-dutse-primary-school-school",
          "coordinates": {
            "lat": 10.0135289609928,
            "lng": 10.1328387100385
          },
          "source": "grid3",
          "verified": true,
          "metadata": {
            "category": "Primary",
            "management": "Public",
            "education": "Formal",
            "subtype": "Primary"
          }
        },
        {
          "type": "school",
          "name": "Maiari Primary School",
          "slug": "maiari-primary-school-school",
          "coordinates": {
            "lat": 10.019760391329,
            "lng": 10.689690139988
          },
          "source": "grid3",
          "verified": true,
          "metadata": {
            "category": "Primary",
            "management": "Public",
            "education": "Formal",
            "subtype": "Primary"
          }
        },
        {
          "type": "school",
          "name": "Salihawa Primary School",
          "slug": "salihawa-primary-school-school",
          "coordinates": {
            "lat": 10.0289434613717,
            "lng": 10.6347847700012
          },
          "source": "grid3",
          "verified": true,
          "metadata": {
            "category": "Primary",
            "management": "Public",
            "education": "Formal",
            "subtype": "Primary"
          }
        },
        {
          "type": "school",
          "name": "Yirma Primary School",
          "slug": "yirma-primary-school-school",
          "coordinates": {
            "lat": 10.0295293310139,
            "lng": 10.0777410398172
          },
          "source": "grid3",
          "verified": true,
          "metadata": {
            "category": "Primary",
            "management": "Public",
            "education": "Formal",
            "subtype": "Primary"
          }
        },
        {
          "type": "school",
          "name": "Kashara Primary School Kashara",
          "slug": "kashara-primary-school-kashara-school",
          "coordinates": {
            "lat": 10.0313797014122,
            "lng": 10.5774869497629
          },
          "source": "grid3",
          "verified": true,
          "metadata": {
            "category": "Primary",
            "management": "Public",
            "education": "Formal",
            "subtype": "Primary"
          }
        },
        {
          "type": "school",
          "name": "Kwala Primary School",
          "slug": "kwala-primary-school-school",
          "coordinates": {
            "lat": 10.0342929598523,
            "lng": 10.6060475698395
          },
          "source": "grid3",
          "verified": true,
          "metadata": {
            "category": "Primary",
            "management": "Public",
            "education": "Formal",
            "subtype": "Primary"
          }
        },
        {
          "type": "school",
          "name": "Gyangyan Primary School",
          "slug": "gyangyan-primary-school-school",
          "coordinates": {
            "lat": 10.0440648196358,
            "lng": 10.1431786796524
          },
          "source": "grid3",
          "verified": true,
          "metadata": {
            "category": "Primary",
            "management": "Public",
            "education": "Formal",
            "subtype": "Primary"
          }
        },
        {
          "type": "school",
          "name": "Babani Primary School",
          "slug": "babani-primary-school-school",
          "coordinates": {
            "lat": 10.0464255705837,
            "lng": 10.5804805896076
          },
          "source": "grid3",
          "verified": true,
          "metadata": {
            "category": "Primary",
            "management": "Public",
            "education": "Integrated",
            "subtype": "Primary"
          }
        },
        {
          "type": "school",
          "name": "Bubu Primary School",
          "slug": "bubu-primary-school-school",
          "coordinates": {
            "lat": 10.0478979514294,
            "lng": 10.7015201396428
          },
          "source": "grid3",
          "verified": true,
          "metadata": {
            "category": "Primary",
            "management": "Public",
            "education": "Formal",
            "subtype": "Primary"
          }
        },
        {
          "type": "school",
          "name": "Bartak Duguri Primary School",
          "slug": "bartak-duguri-primary-school-school",
          "coordinates": {
            "lat": 10.0515743502761,
            "lng": 10.0946232202854
          },
          "source": "grid3",
          "verified": true,
          "metadata": {
            "category": "Primary",
            "management": "Public",
            "education": "Formal",
            "subtype": "Primary"
          }
        },
        {
          "type": "school",
          "name": "Kuka Primary School",
          "slug": "kuka-primary-school-school-3",
          "coordinates": {
            "lat": 10.0552554696642,
            "lng": 10.352597510167
          },
          "source": "grid3",
          "verified": true,
          "metadata": {
            "category": "Primary",
            "management": "Public",
            "education": "Formal",
            "subtype": "Primary"
          }
        },
        {
          "type": "school",
          "name": "Maina Maji Primary School",
          "slug": "maina-maji-primary-school-school",
          "coordinates": {
            "lat": 10.0556264508001,
            "lng": 10.2905086200768
          },
          "source": "grid3",
          "verified": true,
          "metadata": {
            "category": "Primary",
            "management": "Public",
            "education": "Formal",
            "subtype": "Primary"
          }
        },
        {
          "type": "school",
          "name": "Gale Primary School",
          "slug": "gale-primary-school-school-2",
          "coordinates": {
            "lat": 10.0559415210844,
            "lng": 10.3379623496828
          },
          "source": "grid3",
          "verified": true,
          "metadata": {
            "category": "Primary",
            "management": "Public",
            "education": "Formal",
            "subtype": "Primary"
          }
        },