{
  "name": "Bayelsa",
  "slug": "bayelsa",
  "lgas": [
    {
      "name": "Brass",
      "slug": "bayelsa-brass",
      "markets": [],
      "facilities": [
        {
          "type": "market",
          "name": "Otuma Ama Market",
          "slug": "otuma-ama-market-market",
          "coordinates": {
            "lat": 4.69007999999207,
            "lng": 6.55705000005753
          },
          "source": "grid3",
          "verified": true,
          "metadata": {
            "mrkt_days": "0"
          }
        },
        {
          "type": "market",
          "name": "Sule Kiri II Market",
          "slug": "sule-kiri-ii-market-market",
          "coordinates": {
            "lat": 4.46045999962934,
            "lng": 6.14420000003003
          },
          "source": "grid3",
          "verified": true,
          "metadata": {
            "mrkt_days": "0"
          }
        },
        {
          "type": "market",
          "name": "Ekebele Ama Market",
          "slug": "ekebele-ama-market-market",
          "coordinates": {
            "lat": 4.33028000022188,
            "lng": 6.3958599996393
          },
          "source": "grid3",
          "verified": true,
          "metadata": {
            "mrkt_days": "0"
          }
        },
        {
          "type": "market",
          "name": "Walson Gbene Agada Ama Market",
          "slug": "walson-gbene-agada-ama-market-market",
          "coordinates": {
            "lat": 4.30093999978124,
            "lng": 6.29259999969031
          },
          "source": "grid3",
          "verified": true,
          "metadata": {
            "mrkt_days": "0"
          }
        },
        {
          "type": "market",
          "name": "Imbikiri Market",
          "slug": "imbikiri-market-market",
          "coordinates": {
            "lat": 4.32388000006199,
            "lng": 6.24565999970929
          },
          "source": "grid3",
          "verified": true,
          "metadata": {
            "mrkt_days": "0"
          }
        },
        {
          "type": "market",
          "name": "Miniagba Market",
          "slug": "miniagba-market-market",
          "coordinates": {
            "lat": 4.32248000025186,
            "lng": 6.06928000027182
          },
          "source": "grid3",
          "verified": true,
          "metadata": {
            "mrkt_days": "0"
          }
        },
        {
          "type": "health_facility",
          "name": "Okpoama Cottage Hospital",
          "slug": "okpoama-cottage-hospital-health-facility",
          "coordinates": {
            "lat": 4.30647,
            "lng": 6.29569
          },
          "source": "grid3",
          "verified": true,
          "metadata": {
            "facility_level": "Secondary",
            "facility_level_option": "Primary Health Center",
            "ownership": "Public",
            "ownership_type": "State Government"
          }
        },
        {
          "type": "health_facility",
          "name": "Twon Brass Primary Health Care Center",
          "slug": "twon-brass-primary-health-care-center-health-facility",
          "coordinates": {
            "lat": 4.30837,
            "lng": 6.24188
          },
          "source": "grid3",
          "verified": true,
          "metadata": {
            "facility_level": "Primary",
            "facility_level_option": "Primary Health Center",
            "ownership": "Public",
            "ownership_type": "Local Government"
          }
        },
        {
          "type": "health_facility",
          "name": "Odioma Primary Health Care Center",
          "slug": "odioma-primary-health-care-center-health-facility",
          "coordinates": {
            "lat": 4.328200839,
            "lng": 6.434155178
          },
          "source": "grid3",
          "verified": true,
          "metadata": {
            "facility_level": "Primary",
            "facility_level_option": "Primary Health Center",
            "ownership": "Public",
            "ownership_type": "Local Government"
          }
        },
        {
          "type": "health_facility",
          "name": "Diema Primary Health Care Center",
          "slug": "diema-primary-health-care-center-health-facility",
          "coordinates": {
            "lat": 4.303639554,
            "lng": 6.33243387
          },
          "source": "grid3",
          "verified": true,
          "metadata": {
            "facility_level": "Primary",
            "facility_level_option": "Primary Health Center",
            "ownership": "Public",
            "ownership_type": "Local Government"
          }
        },
        {
          "type": "health_facility",
          "name": "Twon Brass General Hospital",
          "slug": "twon-brass-general-hospital-health-facility",
          "coordinates": {
            "lat": 4.316127135,
            "lng": 6.246118828
          },
          "source": "grid3",
          "verified": true,
          "metadata": {
            "facility_level": "Secondary",
            "facility_level_option": "General Hospital",
            "ownership": "Public",
            "ownership_type": "State Government"
          }
        },
        {
          "type": "health_facility",
          "name": "Bekekiri Primary Health Care Center",
          "slug": "bekekiri-primary-health-care-center-health-facility",
          "coordinates": {
            "lat": 4.321625889,
            "lng": 6.065760924
          },
          "source": "grid3",
          "verified": true,
          "metadata": {
            "facility_level": "Primary",
            "facility_level_option": "Primary Health Center",
            "ownership": "Public",
            "ownership_type": "Local Government"
          }
        },
        {
          "type": "health_facility",
          "name": "Ibidi Primary Health Care Center",
          "slug": "ibidi-primary-health-care-center-health-facility",
          "coordinates": {
            "lat": 4.328308105,
            "lng": 6.526916503
          },
          "source": "grid3",
          "verified": true,
          "metadata": {
            "facility_level": "Primary",
            "facility_level_option": "Primary Health Center",
            "ownership": "Public",
            "ownership_type": "Local Government"
          }
        },
        {
          "type": "health_facility",
          "name": "Imbikiri Primary Health Care Center",
          "slug": "imbikiri-primary-health-care-center-health-facility",
          "coordinates": {
            "lat": 4.32017,
            "lng": 6.24303
          },
          "source": "grid3",
          "verified": true,
          "metadata": {
            "facility_level": "Primary",
            "facility_level_option": "Primary Health Center",
            "ownership": "Public",
            "ownership_type": "Local Government"
          }
        },
        {
          "type": "health_facility",
          "name": "Minibie Primary Health Care Center",
          "slug": "minibie-primary-health-care-center-health-facility",
          "coordinates": {
            "lat": 4.30975,
            "lng": 6.05374
          },
          "source": "grid3",
          "verified": true,
          "metadata": {
            "facility_level": "Primary",
            "facility_level_option": "Primary Health Center",
            "ownership": "Public",
            "ownership_type": "Local Government"
          }
        },
        {
          "type": "health_facility",
          "name": "Sangana Primary Health Care Center",
          "slug": "sangana-primary-health-care-center-health-facility",
          "coordinates": {
            "lat": 4.33508,
            "lng": 5.9859
          },
          "source": "grid3",
          "verified": true,
          "metadata": {
            "facility_level": "Primary",
            "facility_level_option": "Primary Health Center",
            "ownership": "Public",
            "ownership_type": "Local Government"
          }
        },
        {
          "type": "health_facility",
          "name": "Opu Okumbiri Primary Health Care Center",
          "slug": "opu-okumbiri-primary-health-care-center-health-facility",
          "coordinates": {
            "lat": 4.300720214,
            "lng": 6.025085449
          },
          "source": "grid3",
          "verified": true,
          "metadata": {
            "facility_level": "Primary",
            "facility_level_option": "Primary Health Center",
            "ownership": "Public",
            "ownership_type": "Local Government"
          }
        },
        {
          "type": "health_facility",
          "name": "Egweama Primary Health Care Center",
          "slug": "egweama-primary-health-care-center-health-facility",
          "coordinates": {
            "lat": 4.30795,
            "lng": 6.19027
          },
          "source": "grid3",
          "verified": true,
          "metadata": {
            "facility_level": "Primary",
            "facility_level_option": "Primary Health Center",
            "ownership": "Public",
            "ownership_type": "Local Government"
          }
        },
        {
          "type": "health_facility",
          "name": "Oginibiri Primary Health Care Center",
          "slug": "oginibiri-primary-health-care-center-health-facility",
          "coordinates": {
            "lat": 4.28171,
            "lng": 6.08595
          },
          "source": "grid3",
          "verified": true,
          "metadata": {
            "facility_level": "Primary",
            "facility_level_option": "Health Post",
            "ownership": "Public",
            "ownership_type": "State Government"
          }
        },
        {
          "type": "health_facility",
          "name": "Abain Ama Cottage Hospital",
          "slug": "abain-ama-cottage-hospital-health-facility",
          "coordinates": {
            "lat": 4.30219,
            "lng": 6.29637
          },
          "source": "grid3",
          "verified": true,
          "metadata": {
            "facility_level": "Secondary",
            "facility_level_option": "Unknown",
            "ownership": "Unknown",
            "ownership_type": "Unknown"
          }
        },
        {
          "type": "health_facility",
          "name": "Ibidi Model Primary Health Center",
          "slug": "ibidi-model-primary-health-center-health-facility",
          "coordinates": {
            "lat": 4.306725,
            "lng": 6.267273333
          },
          "source": "grid3",
          "verified": true,
          "metadata": {
            "facility_level": "Primary",
            "facility_level_option": "Primary Health Center",
            "ownership": "Public",
            "ownership_type": "Unknown"
          }
        },
        {
          "type": "health_facility",
          "name": "Obio Ku Primary Health Center",
          "slug": "obio-ku-primary-health-center-health-facility",
          "coordinates": {
            "lat": 4.337213333,
            "lng": 6.536756667
          },
          "source": "grid3",
          "verified": true,
          "metadata": {
            "facility_level": "Primary",
            "facility_level_option": "Primary Health Center",
            "ownership": "Public",
            "ownership_type": "Unknown"
          }
        },
        {
          "type": "health_facility",
          "name": "Apparanbie Health Post",
          "slug": "apparanbie-health-post-health-facility",
          "coordinates": {
            "lat": 4.329284668,
            "lng": 6.033081055
          },
          "source": "grid3",
          "verified": true,
          "metadata": {
            "facility_level": "Primary",
            "facility_level_option": "Health Post",
            "ownership": "Unknown",
            "ownership_type": "Unknown"
          }
        },
        {
          "type": "health_facility",
          "name": "Obigbene Health Post",
          "slug": "obigbene-health-post-health-facility",
          "coordinates": {
            "lat": 4.438476562,
            "lng": 6.024719239
          },
          "source": "grid3",
          "verified": true,
          "metadata": {
            "facility_level": "Primary",
            "facility_level_option": "Health Post",
            "ownership": "Unknown",
            "ownership_type": "Unknown"
          }
        },
        {
          "type": "health_facility",
          "name": "Obioku Primary Health Clinic",
          "slug": "obioku-primary-health-clinic-health-facility",
          "coordinates": {
            "lat": 4.338684082,
            "lng": 6.537902832
          },
          "source": "grid3",
          "verified": true,
          "metadata": {
            "facility_level": "Primary",
            "facility_level_option": "Primary Health Center",
            "ownership": "Unknown",
            "ownership_type": "Unknown"
          }
        },
        {
          "type": "health_facility",
          "name": "Okpoama Cottage Hospital",
          "slug": "okpoama-cottage-hospital-health-facility-2",
          "coordinates": {
            "lat": 4.296325684,
            "lng": 6.291687012
          },
          "source": "grid3",
          "verified": true,
          "metadata": {
            "facility_level": "Secondary",
            "facility_level_option": "Unknown",
            "ownership": "Unknown",
            "ownership_type": "Unknown"
          }
        },
        {
          "type": "health_facility",
          "name": "Idema Basic Health Center",
          "slug": "idema-basic-health-center-health-facility",
          "coordinates": {
            "lat": 4.629063294,
            "lng": 6.463197462
          },
          "source": "grid3",
          "verified": true,
          "metadata": {
            "facility_level": "Primary",
            "facility_level_option": "Primary Health Center",
            "ownership": "Unknown",
            "ownership_type": "Unknown"
          }
        },
        {
          "type": "health_facility",
          "name": "Dorgas Medical Center",
          "slug": "dorgas-medical-center-health-facility",
          "coordinates": {
            "lat": 4.324523925,
            "lng": 6.246887207
          },
          "source": "grid3",
          "verified": true,
          "metadata": {
            "facility_level": "Primary",
            "facility_level_option": "Primary Health Clinic",
            "ownership": "Unknown",
            "ownership_type": "Unknown"
          }
        },
        {
          "type": "health_facility",
          "name": "Divine Clinic",
          "slug": "divine-clinic-health-facility-3",
          "coordinates": {
            "lat": 4.31167,
            "lng": 6.24304
          },
          "source": "grid3",
          "verified": true,
          "metadata": {
            "facility_level": "Primary",
            "facility_level_option": "Primary Health Center",
            "ownership": "Public",
            "ownership_type": "Unknown"
          }
        },
        {
          "type": "health_facility",
          "name": "Cradauta Salac Maternity Clinic",
          "slug": "cradauta-salac-maternity-clinic-health-facility",
          "coordinates": {
            "lat": 4.30122,
            "lng": 6.29211
          },
          "source": "grid3",
          "verified": true,
          "metadata": {
            "facility_level": "Primary",
            "facility_level_option": "Primary Health Clinic",
            "ownership": "Public",
            "ownership_type": "Unknown"
          }
        },
        {
          "type": "health_facility",
          "name": "Doga Medical Center",
          "slug": "doga-medical-center-health-facility",
          "coordinates": {
            "lat": 4.30067,
            "lng": 6.29503
          },
          "source": "grid3",
          "verified": true,
          "metadata": {
            "facility_level": "Primary",
            "facility_level_option": "Primary Health Clinic",
            "ownership": "Public",
            "ownership_type": "Unknown"
          }
        },
        {
          "type": "health_facility",
          "name": "Ikensi Primary Health Clinic",
          "slug": "ikensi-primary-health-clinic-health-facility",
          "coordinates": {
            "lat": 4.56514,
            "lng": 6.45528
          },
          "source": "grid3",
          "verified": true,
          "metadata": {
            "facility_level": "Primary",
            "facility_level_option": "Primary Health Center",
            "ownership": "Public",
            "ownership_type": "Unknown"
          }
        },
        {
          "type": "health_facility",
          "name": "Agrisaba Primary Health Center",
          "slug": "agrisaba-primary-health-center-health-facility",
          "coordinates": {
            "lat": 4.59807,
            "lng": 6.42182
          },
          "source": "grid3",
          "verified": true,
          "metadata": {
            "facility_level": "Primary",
            "facility_level_option": "Primary Health Center",
            "ownership": "Public",
            "ownership_type": "Unknown"
          }
        },
        {
          "type": "health_facility",
          "name": "Idema Health Center",
          "slug": "idema-health-center-health-facility",
          "coordinates": {
            "lat": 4.626913983,
            "lng": 6.458129937
          },
          "source": "grid3",
          "verified": true,
          "metadata": {
            "facility_level": "Primary",
            "facility_level_option": "Primary Health Center",
            "ownership": "Public",
            "ownership_type": "Unknown"
          }
        },
        {
          "type": "health_facility",
          "name": "Consolate Comprehensive Health Center",
          "slug": "consolate-comprehensive-health-center-health-facility",
          "coordinates": {
            "lat": 4.32006,
            "lng": 6.24298
          },
          "source": "grid3",
          "verified": true,
          "metadata": {
            "facility_level": "Primary",
            "facility_level_option": "Primary Health Center",
            "ownership": "Public",
            "ownership_type": "Unknown"
          }
        },
        {
          "type": "health_facility",
          "name": "Okoroba Primary Health Center",
          "slug": "okoroba-primary-health-center-health-facility",
          "coordinates": {
            "lat": 4.62922,
            "lng": 6.42368
          },
          "source": "grid3",
          "verified": true,
          "metadata": {
            "facility_level": "Primary",
            "facility_level_option": "Primary Health Center",
            "ownership": "Public",
            "ownership_type": "Unknown"
          }
        },
        {
          "type": "health_facility",
          "name": "Timdan Medical Store Maternity Services",
          "slug": "timdan-medical-store-maternity-services-health-facility",
          "coordinates": {
            "lat": 4.322875976,
            "lng": 6.244873047
          },
          "source": "grid3",
          "verified": true,
          "metadata": {
            "facility_level": "Primary",
            "facility_level_option": "Primary Health Clinic",
            "ownership": "Unknown",
            "ownership_type": "Unknown"
          }
        },
        {
          "type": "health_facility",
          "name": "Otumoama Primary Health Center",
          "slug": "otumoama-primary-health-center-health-facility",
          "coordinates": {
            "lat": 4.692504883,
            "lng": 6.554870605
          },
          "source": "grid3",
          "verified": true,
          "metadata": {
            "facility_level": "Primary",
            "facility_level_option": "Primary Health Center",
            "ownership": "Unknown",
            "ownership_type": "Unknown"
          }
        },
        {
          "type": "health_facility",
          "name": "Buoama Primary Health Care Center",
          "slug": "buoama-primary-health-care-center-health-facility",
          "coordinates": {
            "lat": 4.33456,
            "lng": 6.04551
          },
          "source": "grid3",
          "verified": true,
          "metadata": {
            "facility_level": "Primary",
            "facility_level_option": "Unknown",
            "ownership": "Public",
            "ownership_type": "State Government"
          }
        },
        {
          "type": "health_facility",
          "name": "Navy Sickbay Clinic",
          "slug": "navy-sickbay-clinic-health-facility",
          "coordinates": {
            "lat": 4.31907,
            "lng": 6.22037
          },
          "source": "grid3",
          "verified": true,
          "metadata": {
            "facility_level": "Secondary",
            "facility_level_option": "Primary Health Center",
            "ownership": "Private",
            "ownership_type": "Not For Profit"
          }
        },
        {
          "type": "health_facility",
          "name": "Iruanitaman Limited (Iruanitaman Dycl)",
          "slug": "iruanitaman-limited-iruanitaman-dycl-health-facility",
          "coordinates": {
            "lat": 4.31816,
            "lng": 6.24626
          },
          "source": "grid3",
          "verified": true,
          "metadata": {
            "facility_level": "Secondary",
            "facility_level_option": "Unknown",
            "ownership": "Private",
            "ownership_type": "For Profit"
          }
        },
        {
          "type": "health_facility",
          "name": "Iseleama Primary Health Care Center",
          "slug": "iseleama-primary-health-care-center-health-facility",
          "coordinates": {
            "lat": 4.30649,
            "lng": 6.29565
          },
          "source": "grid3",
          "verified": true,
          "metadata": {
            "facility_level": "Primary",
            "facility_level_option": "Primary Health Center",
            "ownership": "Public",
            "ownership_type": "Local Government"
          }
        },
        {
          "type": "health_facility",
          "name": "Ewoama Primary Health Care Center",
          "slug": "ewoama-primary-health-care-center-health-facility",
          "coordinates": {
            "lat": 4.30963,
            "lng": 6.2639
          },
          "source": "grid3",
          "verified": true,
          "metadata": {
            "facility_level": "Primary",
            "facility_level_option": "Unknown",
            "ownership": "Public",
            "ownership_type": "State Government"
          }
        },
        {
          "type": "school",
          "name": "Pecluliar Primary School Abain Ama",
          "slug": "pecluliar-primary-school-abain-ama-school",
          "coordinates": {
            "lat": 4.30389000002356,
            "lng": 6.29751999994807
          },
          "source": "grid3",
          "verified": true,
          "metadata": {
            "category": "Primary",
            "management": "Public",
            "education": "Formal",
            "subtype": "Standard"
          }
        },
        {
          "type": "school",
          "name": "State Primary School Odekiri",
          "slug": "state-primary-school-odekiri-school",
          "coordinates": {
            "lat": 4.66651999989813,
            "lng": 6.50951000028635
          },
          "source": "grid3",
          "verified": true,
          "metadata": {
            "category": "Primary",
            "management": "Public",
            "education": "Formal",
            "subtype": "Standard"
          }
        },
        {
          "type": "school",
          "name": "Community Primary School II",
          "slug": "community-primary-school-ii-school-4",
          "coordinates": {
            "lat": 4.30913700007255,
            "lng": 6.24258700009005
          },
          "source": "grid3",
          "verified": true,
          "metadata": {
            "category": "Primary",
            "management": "Public",
            "education": "Formal",
            "subtype": "Primary"
          }
        },
        {
          "type": "school",
          "name": "Community Primary School Obeduma",
          "slug": "community-primary-school-obeduma-school",
          "coordinates": {
            "lat": 4.63207100037641,
            "lng": 6.4645459996982
          },
          "source": "grid3",
          "verified": true,
          "metadata": {
            "category": "Primary",
            "management": "Public",
            "education": "Formal",
            "subtype": "Primary"
          }
        },
        {
          "type": "school",
          "name": "Community Primary School Pipeline",
          "slug": "community-primary-school-pipeline-school",
          "coordinates": {
            "lat": 4.4835050002556,
            "lng": 6.49553799987882
          },
          "source": "grid3",
          "verified": true,
          "metadata": {
            "category": "Primary",
            "management": "Public",
            "education": "Formal",
            "subtype": "Primary"
          }
        },
        {
          "type": "school",
          "name": "St Mark Primary School I Liama",
          "slug": "st-mark-primary-school-i-liama-school",
          "coordinates": {
            "lat": 4.32755799970198,
            "lng": 6.06302399955797
          },
          "source": "grid3",
          "verified": true,
          "metadata": {
            "category": "Primary",
            "management": "Public",
            "education": "Formal",
            "subtype": "Primary"
          }
        },
        {
          "type": "school",
          "name": "St Mark Primary School II",
          "slug": "st-mark-primary-school-ii-school",
          "coordinates": {
            "lat": 4.3277579999318,
            "lng": 6.06291700001958
          },
          "source": "grid3",
          "verified": true,
          "metadata": {
            "category": "Primary",
            "management": "Public",
            "education": "Formal",
            "subtype": "Primary"
          }
        },
        {
          "type": "school",
          "name": "St Peter Primary School I",
          "slug": "st-peter-primary-school-i-school",
          "coordinates": {
            "lat": 4.32896199969656,
            "lng": 6.43266299979763
          },
          "source": "grid3",
          "verified": true,
          "metadata": {
            "category": "Primary",
            "management": "Public",
            "education": "Formal",
            "subtype": "Primary"
          }
        },
        {
          "type": "school",
          "name": "St Peter Primary School II",
          "slug": "st-peter-primary-school-ii-school",
          "coordinates": {
            "lat": 4.32796499958511,
            "lng": 6.43337200011774
          },
          "source": "grid3",
          "verified": true,
          "metadata": {
            "category": "Primary",
            "management": "Public",
            "education": "Formal",
            "subtype": "Primary"
          }
        },
        {
          "type": "school",
          "name": "State Primary School Etukekiri",
          "slug": "state-primary-school-etukekiri-school",
          "coordinates": {
            "lat": 4.69527899962617,
            "lng": 6.55436700043674
          },
          "source": "grid3",
          "verified": true,
          "metadata": {
            "category": "Primary",
            "management": "Public",
            "education": "Formal",
            "subtype": "Primary"
          }
        },
        {
          "type": "school",
          "name": "Community Primary School I",
          "slug": "community-primary-school-i-school-3",
          "coordinates": {
            "lat": 4.30877599961275,
            "lng": 6.24261100029747
          },
          "source": "grid3",
          "verified": true,
          "metadata": {
            "category": "Primary",
            "management": "Public",
            "education": "Formal",
            "subtype": "Standard"
          }
        },
        {
          "type": "school",
          "name": "St Barnabas Primary School",
          "slug": "st-barnabas-primary-school-school-2",
          "coordinates": {
            "lat": 4.30899399977329,
            "lng": 6.24217399993017
          },
          "source": "grid3",
          "verified": true,
          "metadata": {
            "category": "Primary",
            "management": "Public",
            "education": "Formal",
            "subtype": "Standard"
          }
        },
        {
          "type": "school",
          "name": "Uncle Sammy Nursery and Primary School",
          "slug": "uncle-sammy-nursery-and-primary-school-school",
          "coordinates": {
            "lat": 4.31715800034146,
            "lng": 6.24257799967501
          },
          "source": "grid3",
          "verified": true,
          "metadata": {
            "category": "Primary",
            "management": "Private",
            "education": "Formal",
            "subtype": "Standard"
          }
        },
        {
          "type": "school",
          "name": "ACWA Model Nursery and Primary School",
          "slug": "acwa-model-nursery-and-primary-school-school",
          "coordinates": {
            "lat": 4.3348980000427,
            "lng": 5.98687199964314
          },
          "source": "grid3",
          "verified": true,
          "metadata": {
            "category": "Primary",
            "management": "Private",
            "education": "Formal",
            "subtype": "Standard"
          }
        },
        {
          "type": "school",
          "name": "Crowther Memorial Nursery and Primary School",
          "slug": "crowther-memorial-nursery-and-primary-school-school",
          "coordinates": {
            "lat": 4.31363299966324,
            "lng": 6.23984699963938
          },
          "source": "grid3",
          "verified": true,
          "metadata": {
            "category": "Primary",
            "management": "Private",
            "education": "Formal",
            "subtype": "Standard"
          }
        },
        {
          "type": "school",
          "name": "Ebi Epere Nursery and Primary School",
          "slug": "ebi-epere-nursery-and-primary-school-school",
          "coordinates": {
            "lat": 4.32349000006349,
            "lng": 6.2463710001216
          },
          "source": "grid3",
          "verified": true,
          "metadata": {
            "category": "Primary",
            "management": "Private",
            "education": "Formal",
            "subtype": "Standard"
          }
        },
        {
          "type": "school",
          "name": "Peculiar Academy Nursery and Primary School Odioma",
          "slug": "peculiar-academy-nursery-and-primary-school-odioma-school",
          "coordinates": {
            "lat": 4.32638799970647,
            "lng": 6.43406899988446
          },
          "source": "grid3",
          "verified": true,
          "metadata": {
            "category": "Primary",
            "management": "Private",
            "education": "Formal",
            "subtype": "Standard"
          }
        },
        {
          "type": "school",
          "name": "St Paul Church School Nursery and Primary School",
          "slug": "st-paul-church-school-nursery-and-primary-school-school",
          "coordinates": {
            "lat": 4.30968700025488,
            "lng": 6.26540600018683
          },
          "source": "grid3",
          "verified": true,
          "metadata": {
            "category": "Primary",
            "management": "Private",
            "education": "Formal",
            "subtype": "Standard"
          }
        },
        {
          "type": "school",
          "name": "Community Primary School 1",
          "slug": "community-primary-school-1-school-11",
          "coordinates": {
            "lat": 4.30086382180798,
            "lng": 6.29401314668939
          },
          "source": "grid3",
          "verified": true,
          "metadata": {
            "category": "Primary",
            "management": "Public",
            "education": "Formal",
            "subtype": "Primary"
          }
        },
        {
          "type": "school",
          "name": "Government Secondary School Imbikiri",
          "slug": "government-secondary-school-imbikiri-school",
          "coordinates": {
            "lat": 4.32431999966832,
            "lng": 6.24745000041725
          },
          "source": "grid3",
          "verified": true,
          "metadata": {
            "category": "Secondary",
            "management": "Public",
            "education": "Formal",
            "subtype": "Standard"
          }
        },
        {
          "type": "school",
          "name": "Community Secondary School Izagara Ama Izagara Ama",
          "slug": "community-secondary-school-izagara-ama-izagara-ama-school",
          "coordinates": {
            "lat": 4.62834000009099,
            "lng": 6.42181000023135
          },
          "source": "grid3",
          "verified": true,
          "metadata": {
            "category": "Secondary",
            "management": "Public",
            "education": "Formal",
            "subtype": "Standard"
          }
        },
        {
          "type": "school",
          "name": "U B E Junior Secondary School Okoroba",
          "slug": "u-b-e-junior-secondary-school-okoroba-school",
          "coordinates": {
            "lat": 4.63176000042375,
            "lng": 6.42335000020239
          },
          "source": "grid3",
          "verified": true,
          "metadata": {
            "category": "Secondary",
            "management": "Public",
            "education": "Formal",
            "subtype": "Standard"
          }
        },
        {
          "type": "school",
          "name": "Government Secondary School Ikeinsi",
          "slug": "government-secondary-school-ikeinsi-school",
          "coordinates": {
            "lat": 4.56319781812488,
            "lng": 6.45440399784627
          },
          "source": "grid3",
          "verified": true,
          "metadata": {
            "category": "Secondary",
            "management": "Public",
            "education": "Formal",
            "subtype": "Standard"
          }
        },
        {
          "type": "school",
          "name": "State School Okumbiri",
          "slug": "state-school-okumbiri-school",
          "coordinates": {
            "lat": 4.30064999989764,
            "lng": 6.02571000011648
          },
          "source": "grid3",
          "verified": true,
          "metadata": {
            "category": "Secondary",
            "management": "Public",
            "education": "Formal",
            "subtype": "Standard"
          }
        },
        {
          "type": "school",
          "name": "Migrant Fishermen Children School Adaweikiri",
          "slug": "migrant-fishermen-children-school-adaweikiri-school",
          "coordinates": {
            "lat": 4.75130000019487,
            "lng": 6.56247999955241
          },
          "source": "grid3",
          "verified": true,
          "metadata": {
            "category": "Secondary",
            "management": "Public",
            "education": "Formal",
            "subtype": "Standard"
          }
        },
        {
          "type": "school",
          "name": "U B E Abaikiri",
          "slug": "u-b-e-abaikiri-school",
          "coordinates": {
            "lat": 4.30481999974324,
            "lng": 6.05147000004052
          },
          "source": "grid3",
          "verified": true,
          "metadata": {
            "category": "Others",
            "management": "Public",
            "education": "Formal",
            "subtype": "Others"
          }
        },
        {
          "type": "school",
          "name": "Basic Junior Secondary School Sangana Akassa",
          "slug": "basic-junior-secondary-school-sangana-akassa-school",
          "coordinates": {
            "lat": 4.33513700027237,
            "lng": 5.9867630000125
          },
          "source": "grid3",
          "verified": true,
          "metadata": {
            "category": "Secondary",
            "management": "Public",
            "education": "Formal",
            "subtype": "Standard"
          }
        },
        {
          "type": "school",
          "name": "Community Comprehensive Secondary School Obioku",
          "slug": "community-comprehensive-secondary-school-obioku-school",
          "coordinates": {
            "lat": 4.33908599981908,
            "lng": 6.53911100017257
          },
          "source": "grid3",
          "verified": true,
          "metadata": {
            "category": "Secondary",
            "management": "Public",
            "education": "Formal",
            "subtype": "Standard"
          }
        },
        {
          "type": "school",
          "name": "Community Secondary School Minibie",
          "slug": "community-secondary-school-minibie-school",
          "coordinates": {
            "lat": 4.30823699993766,
            "lng": 6.05438799970648
          },
          "source": "grid3",
          "verified": true,
          "metadata": {
            "category": "Secondary",
            "management": "Public",
            "education": "Formal",
            "subtype": "Standard"
          }
        },
        {
          "type": "school",
          "name": "Community Secondary School Otumo Ama",
          "slug": "community-secondary-school-otumo-ama-school",
          "coordinates": {
            "lat": 4.69480800038895,
            "lng": 6.55412500006872
          },
          "source": "grid3",
          "verified": true,
          "metadata": {
            "category": "Secondary",
            "management": "Public",
            "education": "Formal",
            "subtype": "Standard"
          }
        },
        {
          "type": "school",
          "name": "De Future Leaders Academy",
          "slug": "de-future-leaders-academy-school",
          "coordinates": {
            "lat": 4.31232499959913,
            "lng": 6.2443009999912
          },
          "source": "grid3",
          "verified": true,
          "metadata": {
            "category": "Secondary",
            "management": "Private",
            "education": "Formal",
            "subtype": "Standard"
          }
        },
        {
          "type": "school",
          "name": "Evangel Light Group of Schools",
          "slug": "evangel-light-group-of-schools-school",
          "coordinates": {
            "lat": 4.30909199979601,
            "lng": 6.24372699960139
          },
          "source": "grid3",
          "verified": true,
          "metadata": {
            "category": "Secondary",
            "management": "Faith Based",
            "education": "Integrated",
            "subtype": "Standard"
          }
        },
        {
          "type": "school",
          "name": "Government Secondary School Akassa",
          "slug": "government-secondary-school-akassa-school",
          "coordinates": {
            "lat": 4.33290399981979,
            "lng": 6.05630600002195
          },
          "source": "grid3",
          "verified": true,
          "metadata": {
            "category": "Secondary",
            "management": "Public",
            "education": "Formal",
            "subtype": "Standard"
          }
        },
        {
          "type": "school",
          "name": "Government Secondary School Okpoama",
          "slug": "government-secondary-school-okpoama-school",
          "coordinates": {
            "lat": 4.29930800006417,
            "lng": 6.29553099995576
          },
          "source": "grid3",
          "verified": true,
          "metadata": {
            "category": "Secondary",
            "management": "Public",
            "education": "Formal",
            "subtype": "Standard"
          }
        },
        {
          "type": "school",
          "name": "Peculiar Academy School Okpoma",
          "slug": "peculiar-academy-school-okpoma-school",
          "coordinates": {
            "lat": 4.30076599985108,
            "lng": 6.29431399959145
          },
          "source": "grid3",
          "verified": true,
          "metadata": {
            "category": "Secondary",
            "management": "Private",
            "education": "Formal",
            "subtype": "Standard"
          }
        },
        {
          "type": "school",
          "name": "Sunny Goli Memorial School",
          "slug": "sunny-goli-memorial-school-school",
          "coordinates": {
            "lat": 4.31680100006616,
            "lng": 6.24188099990829
          },
          "source": "grid3",
          "verified": true,
          "metadata": {
            "category": "Secondary",
            "management": "Private",
            "education": "Formal",
            "subtype": "Aggregate"
          }
        },
        {
          "type": "school",
          "name": "Migrant Fishermen Children School",
          "slug": "migrant-fishermen-children-school-school-4",
          "coordinates": {
            "lat": 4.30052200029013,
            "lng": 6.29368700035485
          },
          "source": "grid3",
          "verified": true,
          "metadata": {
            "category": "Primary",
            "management": "Public",
            "education": "Formal",
            "subtype": "Primary"
          }
        },
        {
          "type": "school",
          "name": "Bishop Crowther Memorial School Akassa",
          "slug": "bishop-crowther-memorial-school-akassa-school",
          "coordinates": {
            "lat": 4.32777599986252,
            "lng": 6.0631600004337
          },
          "source": "grid3",
          "verified": true,
          "metadata": {
            "category": "Primary",
            "management": "Public",
            "education": "Formal",
            "subtype": "Primary"
          }
        },
        {
          "type": "school",
          "name": "Migrant Fishermen Child School Ilazakiri",
          "slug": "migrant-fishermen-child-school-ilazakiri-school",
          "coordinates": {
            "lat": 4.33969399997818,
            "lng": 5.9620780001996
          },
          "source": "grid3",
          "verified": true,
          "metadata": {
            "category": "Primary",
            "management": "Public",
            "education": "Formal",
            "subtype": "Primary"
          }
        },
        {
          "type": "school",
          "name": "St Barnabas School II",
          "slug": "st-barnabas-school-ii-school",
          "coordinates": {
            "lat": 4.30831599998345,
            "lng": 6.24281399976633
          },
          "source": "grid3",
          "verified": true,
          "metadata": {
            "category": "Primary",
            "management": "Public",
            "education": "Formal",
            "subtype": "Primary"
          }
        },
        {
          "type": "school",
          "name": "St John School Ewoama",
          "slug": "st-john-school-ewoama-school",
          "coordinates": {
            "lat": 4.31044400009057,
            "lng": 6.26639700002158
          },
          "source": "grid3",
          "verified": true,
          "metadata": {
            "category": "Primary",
            "management": "Public",
            "education": "Formal",
            "subtype": "Primary"
          }
        },
        {
          "type": "school",
          "name": "St Mark School I",
          "slug": "st-mark-school-i-school",
          "coordinates": {
            "lat": 4.63166499964007,
            "lng": 6.42665899991295
          },
          "source": "grid3",
          "verified": true,
          "metadata": {
            "category": "Primary",
            "management": "Public",
            "education": "Formal",
            "subtype": "Primary"
          }
        },
        {
          "type": "school",
          "name": "St Mark School II",
          "slug": "st-mark-school-ii-school",
          "coordinates": {
            "lat": 4.63176499975498,
            "lng": 6.42633400021401
          },
          "source": "grid3",
          "verified": true,
          "metadata": {
            "category": "Primary",
            "management": "Public",
            "education": "Formal",
            "subtype": "Primary"
          }
        },
        {
          "type": "school",
          "name": "St Matthew School Iegweama",
          "slug": "st-matthew-school-iegweama-school",
          "coordinates": {
            "lat": 4.30828899963768,
            "lng": 6.1907120000588
          },
          "source": "grid3",
          "verified": true,
          "metadata": {
            "category": "Primary",
            "management": "Public",
            "education": "Formal",
            "subtype": "Primary"
          }
        },
        {
          "type": "school",
          "name": "St Matthew School II Egweama",
          "slug": "st-matthew-school-ii-egweama-school",
          "coordinates": {
            "lat": 4.30857800037444,
            "lng": 6.18927000011047
          },
          "source": "grid3",
          "verified": true,
          "metadata": {
            "category": "Primary",
            "management": "Public",
            "education": "Formal",
            "subtype": "Primary"
          }
        },
        {
          "type": "school",
          "name": "St Paul School II",
          "slug": "st-paul-school-ii-school",
          "coordinates": {
            "lat": 4.29972699960138,
            "lng": 6.29504299993454
          },
          "source": "grid3",
          "verified": true,
          "metadata": {
            "category": "Primary",
            "management": "Public",
            "education": "Formal",
            "subtype": "Primary"
          }
        },
        {
          "type": "school",
          "name": "St Philip State School Wagitie",
          "slug": "st-philip-state-school-wagitie-school",
          "coordinates": {
            "lat": 4.30386199963164,
            "lng": 6.19372499960912
          },
          "source": "grid3",
          "verified": true,
          "metadata": {
            "category": "Primary",
            "management": "Public",
            "education": "Formal",
            "subtype": "Primary"
          }
        },
        {
          "type": "school",
          "name": "State School",
          "slug": "state-school-school-6",
          "coordinates": {
            "lat": 4.5945050001057,
            "lng": 6.42000499973102
          },
          "source": "grid3",
          "verified": true,
          "metadata": {
            "category": "Primary",
            "management": "Public",
            "education": "Formal",
            "subtype": "Primary"
          }
        },
        {
          "type": "school",
          "name": "State School Apparanbie",
          "slug": "state-school-apparanbie-school",
          "coordinates": {
            "lat": 4.3317270004008,
            "lng": 6.03018899982254
          },
          "source": "grid3",
          "verified": true,
          "metadata": {
            "category": "Primary",
            "management": "Public",
            "education": "Formal",
            "subtype": "Primary"
          }
        },
        {
          "type": "school",
          "name": "State School Atubo",
          "slug": "state-school-atubo-school",
          "coordinates": {
            "lat": 4.57979900002385,
            "lng": 6.45689400025793
          },
          "source": "grid3",
          "verified": true,
          "metadata": {
            "category": "Primary",
            "management": "Public",
            "education": "Formal",
            "subtype": "Primary"
          }
        },
        {
          "type": "school",
          "name": "State School Bara Ama",
          "slug": "state-school-bara-ama-school",
          "coordinates": {
            "lat": 4.30696699982724,
            "lng": 6.00219300020683
          },
          "source": "grid3",
          "verified": true,
          "metadata": {
            "category": "Primary",
            "management": "Public",
            "education": "Formal",
            "subtype": "Primary"
          }
        },
        {
          "type": "school",
          "name": "State School Beletiema",
          "slug": "state-school-beletiema-school",
          "coordinates": {
            "lat": 4.30622499978398,
            "lng": 6.20407000003053
          },
          "source": "grid3",
          "verified": true,
          "metadata": {
            "category": "Primary",
            "management": "Public",
            "education": "Formal",
            "subtype": "Primary"
          }
        },
        {
          "type": "school",
          "name": "State School Buo Ama Akassa",
          "slug": "state-school-buo-ama-akassa-school",
          "coordinates": {
            "lat": 4.33457599958274,
            "lng": 6.04594299966976
          },
          "source": "grid3",
          "verified": true,
          "metadata": {
            "category": "Primary",
            "management": "Public",
            "education": "Formal",
            "subtype": "Primary"
          }
        },
        {
          "type": "school",
          "name": "State School Hununu",
          "slug": "state-school-hununu-school",
          "coordinates": {
            "lat": 4.33609100019953,
            "lng": 6.05245799973693
          },
          "source": "grid3",
          "verified": true,
          "metadata": {
            "category": "Primary",
            "management": "Public",
            "education": "Formal",
            "subtype": "Primary"
          }
        },
        {
          "type": "school",
          "name": "State School I",
          "slug": "state-school-i-school",
          "coordinates": {
            "lat": 4.62933700020244,
            "lng": 6.45967399985528
          },
          "source": "grid3",
          "verified": true,
          "metadata": {
            "category": "Primary",
            "management": "Public",
            "education": "Formal",
            "subtype": "Primary"
          }
        },
        {
          "type": "school",
          "name": "State School I Sangana",
          "slug": "state-school-i-sangana-school",
          "coordinates": {
            "lat": 4.32946100022502,
            "lng": 5.98306400030344
          },
          "source": "grid3",
          "verified": true,
          "metadata": {
            "category": "Primary",
            "management": "Public",
            "education": "Formal",
            "subtype": "Primary"
          }
        },
        {
          "type": "school",
          "name": "State School Igbabeleu",
          "slug": "state-school-igbabeleu-school",
          "coordinates": {
            "lat": 4.30608399957697,
            "lng": 6.20364600026272
          },
          "source": "grid3",
          "verified": true,
          "metadata": {
            "category": "Primary",
            "management": "Public",
            "education": "Formal",
            "subtype": "Primary"
          }
        },
        {
          "type": "school",
          "name": "State School II Idema",
          "slug": "state-school-ii-idema-school",
          "coordinates": {
            "lat": 4.62928300041017,
            "lng": 6.45920499981094
          },
          "source": "grid3",
          "verified": true,
          "metadata": {
            "category": "Primary",
            "management": "Public",
            "education": "Formal",
            "subtype": "Primary"
          }
        },
        {
          "type": "school",
          "name": "State School II Sangana",
          "slug": "state-school-ii-sangana-school",
          "coordinates": {
            "lat": 4.32992299994652,
            "lng": 5.98301099965795
          },
          "source": "grid3",
          "verified": true,
          "metadata": {
            "category": "Primary",
            "management": "Public",
            "education": "Formal",
            "subtype": "Primary"
          }
        },
        {
          "type": "school",
          "name": "State School III Sangana",
          "slug": "state-school-iii-sangana-school",
          "coordinates": {
            "lat": 4.33792700033086,
            "lng": 5.98844100005215
          },
          "source": "grid3",
          "verified": true,
          "metadata": {
            "category": "Primary",
            "management": "Public",
            "education": "Formal",
            "subtype": "Primary"
          }
        },
        {
          "type": "school",
          "name": "State School Ikensi",
          "slug": "state-school-ikensi-school",
          "coordinates": {
            "lat": 4.56594799980041,
            "lng": 6.45561799987087
          },
          "source": "grid3",
          "verified": true,
          "metadata": {
            "category": "Primary",
            "management": "Public",
            "education": "Formal",
            "subtype": "Primary"
          }
        },
        {
          "type": "school",
          "name": "State School Minibie",
          "slug": "state-school-minibie-school",
          "coordinates": {
            "lat": 4.3089690004191,
            "lng": 6.05408400007661
          },
          "source": "grid3",
          "verified": true,
          "metadata": {
            "category": "Primary",
            "management": "Public",
            "education": "Formal",
            "subtype": "Primary"
          }
        },
        {
          "type": "school",
          "name": "State School Obioku",
          "slug": "state-school-obioku-school",
          "coordinates": {
            "lat": 4.33909300014187,
            "lng": 6.53744199964859
          },
          "source": "grid3",
          "verified": true,
          "metadata": {
            "category": "Primary",
            "management": "Public",
            "education": "Formal",
            "subtype": "Primary"
          }
        },
        {
          "type": "school",
          "name": "State School Oginibiri Akassa",
          "slug": "state-school-oginibiri-akassa-school",
          "coordinates": {
            "lat": 4.28096999976572,
            "lng": 6.0866269998362
          },
          "source": "grid3",
          "verified": true,
          "metadata": {
            "category": "Primary",
            "management": "Public",
            "education": "Formal",
            "subtype": "Primary"
          }
        },
        {
          "type": "school",
          "name": "State School Okumbiribeleu",
          "slug": "state-school-okumbiribeleu-school",
          "coordinates": {
            "lat": 4.29360999990161,
            "lng": 6.06177599956277
          },
          "source": "grid3",
          "verified": true,
          "metadata": {
            "category": "Primary",
            "management": "Public",
            "education": "Formal",
            "subtype": "Primary"
          }
        },
        {
          "type": "school",
          "name": "State School Oluasiri",
          "slug": "state-school-oluasiri-school",
          "coordinates": {
            "lat": 4.69490899965064,
            "lng": 6.55446899974459
          },
          "source": "grid3",
          "verified": true,
          "metadata": {
            "category": "Primary",
            "management": "Public",
            "education": "Formal",
            "subtype": "Primary"
          }
        },
        {
          "type": "school",
          "name": "State School Otuo",
          "slug": "state-school-otuo-school",
          "coordinates": {
            "lat": 4.36154500040152,
            "lng": 5.97947500027107
          },
          "source": "grid3",
          "verified": true,
          "metadata": {
            "category": "Primary",
            "management": "Public",
            "education": "Formal",
            "subtype": "Primary"
          }
        },
        {
          "type": "school",
          "name": "Kingdom Heritage Model School",
          "slug": "kingdom-heritage-model-school-school-8",
          "coordinates": {
            "lat": 4.3123509998988,
            "lng": 6.25086999985064
          },
          "source": "grid3",
          "verified": true,
          "metadata": {
            "category": "Primary",
            "management": "Faith Based",
            "education": "Integrated",
            "subtype": "Standard"
          }
        },
        {
          "type": "school",
          "name": "Peniel Alpha Success School Twon",
          "slug": "peniel-alpha-success-school-twon-school",
          "coordinates": {
            "lat": 4.31134500027161,
            "lng": 6.24300200034207
          },
          "source": "grid3",
          "verified": true,
          "metadata": {
            "category": "Primary",
            "management": "Faith Based",
            "education": "Formal",
            "subtype": "Standard"
          }
        },
        {
          "type": "school",
          "name": "St Paul School I",
          "slug": "st-paul-school-i-school-2",
          "coordinates": {
            "lat": 4.30033899994493,
            "lng": 6.29507899979603
          },
          "source": "grid3",
          "verified": true,
          "metadata": {
            "category": "Primary",
            "management": "Public",
            "education": "Formal",
            "subtype": "Standard"
          }
        },
        {
          "type": "school",
          "name": "State School Diema",
          "slug": "state-school-diema-school",
          "coordinates": {
            "lat": 4.30304100044185,
            "lng": 6.33198700029988
          },
          "source": "grid3",
          "verified": true,
          "metadata": {
            "category": "Primary",
            "management": "Public",
            "education": "Formal",
            "subtype": "Standard"
          }
        },
        {
          "type": "school",
          "name": "The Kings and Queens School Twon",
          "slug": "the-kings-and-queens-school-twon-school",
          "coordinates": {
            "lat": 4.3125579995521,
            "lng": 6.24114700023392
          },
          "source": "grid3",
          "verified": true,
          "metadata": {
            "category": "Primary",
            "management": "Private",
            "education": "Formal",
            "subtype": "Standard"
          }
        },
        {
          "type": "school",
          "name": "Adult Literacy Akpamama",
          "slug": "adult-literacy-akpamama-school",
          "coordinates": {
            "lat": 4.30422700027589,
            "lng": 6.01016500001481
          },
          "source": "grid3",
          "verified": true,
          "metadata": {
            "category": "Tertiary",
            "management": "Private",
            "education": "Formal",
            "subtype": "Adult Education"
          }
        },
        {
          "type": "school",
          "name": "Bcm School Akasa",
          "slug": "bcm-school-akasa-school",
          "coordinates": {
            "lat": 4.33022786832151,
            "lng": 6.0619358873314
          },
          "source": "grid3",
          "verified": true,
          "metadata": {
            "category": "Primary",
            "management": "Public",
            "education": "Formal",
            "subtype": "Primary"
          }
        },
        {
          "type": "school",
          "name": "Basic Junior Secondary School",
          "slug": "basic-junior-secondary-school-school-6",
          "coordinates": {
            "lat": 4.32517799966502,
            "lng": 6.24880399990474
          },
          "source": "grid3",
          "verified": true,
          "metadata": {
            "category": "Secondary",
            "management": "Public",
            "education": "Formal",
            "subtype": "Junior"
          }
        },
        {
          "type": "school",
          "name": "Basic Junior Secondary School Agrisaba",
          "slug": "basic-junior-secondary-school-agrisaba-school",
          "coordinates": {
            "lat": 4.59782500032355,
            "lng": 6.42214400034538
          },
          "source": "grid3",
          "verified": true,
          "metadata": {
            "category": "Secondary",
            "management": "Public",
            "education": "Formal",
            "subtype": "Junior"
          }
        },
        {
          "type": "school",
          "name": "Basic Junior Secondary School Idema",
          "slug": "basic-junior-secondary-school-idema-school",
          "coordinates": {
            "lat": 4.62880700004308,
            "lng": 6.45871399965142
          },
          "source": "grid3",
          "verified": true,
          "metadata": {
            "category": "Secondary",
            "management": "Public",
            "education": "Formal",
            "subtype": "Junior"
          }
        },
        {
          "type": "school",
          "name": "Basic Junior Secondary School Igweama",
          "slug": "basic-junior-secondary-school-igweama-school",
          "coordinates": {
            "lat": 4.30820500026061,
            "lng": 6.18908599971917
          },
          "source": "grid3",
          "verified": true,
          "metadata": {
            "category": "Secondary",
            "management": "Public",
            "education": "Formal",
            "subtype": "Junior"
          }
        },
        {
          "type": "church",
          "name": "Zion Church Zion Kiri",
          "slug": "zion-church-zion-kiri-church",
          "coordinates": {
            "lat": 4.33170000005498,
            "lng": 6.04459000022837
          },
          "source": "grid3",
          "verified": true
        },
        {
          "type": "church",
          "name": "Holy Messiah Imbikiri",
          "slug": "holy-messiah-imbikiri-church",
          "coordinates": {
            "lat": 4.32412999989964,
            "lng": 6.24651000023636
          },
          "source": "grid3",
          "verified": true
        },
        {
          "type": "church",
          "name": "Deepper Life Bible Church Igali Ama",
          "slug": "deepper-life-bible-church-igali-ama-church",
          "coordinates": {
            "lat": 4.32704000009596,
            "lng": 5.98084000026586
          },
          "source": "grid3",
          "verified": true
        },
        {
          "type": "church",
          "name": "Olumba Olumba Obu Church Onu Ama",
          "slug": "olumba-olumba-obu-church-onu-ama-church",
          "coordinates": {
            "lat": 4.32987999976223,
            "lng": 5.98215999998405
          },
          "source": "grid3",
          "verified": true
        },
        {
          "type": "church",
          "name": "New Jerusalem Zion Bie Ama",
          "slug": "new-jerusalem-zion-bie-ama-church",
          "coordinates": {
            "lat": 4.33104000019591,
            "lng": 5.98306000011894
          },
          "source": "grid3",
          "verified": true
        },
        {
          "type": "church",
          "name": "Holy Christ Church Ogbodo Ama",
          "slug": "holy-christ-church-ogbodo-ama-church",
          "coordinates": {
            "lat": 4.33135000010247,
            "lng": 5.98339000004853
          },
          "source": "grid3",
          "verified": true
        },
        {
          "type": "church",
          "name": "Christ Anglican Church Sangana Onu Ama",
          "slug": "christ-anglican-church-sangana-onu-ama-church",
          "coordinates": {
            "lat": 4.32946000017893,
            "lng": 5.98349000016344
          },
          "source": "grid3",
          "verified": true
        },
        {
          "type": "church",
          "name": "Christ Church Sangana",
          "slug": "christ-church-sangana-church",
          "coordinates": {
            "lat": 4.33896999986564,
            "lng": 5.98361999986315
          },
          "source": "grid3",
          "verified": true
        },
        {
          "type": "church",
          "name": "Mount Zion Church Zion Ama",
          "slug": "mount-zion-church-zion-ama-church",
          "coordinates": {
            "lat": 4.33728000017192,
            "lng": 5.98404000034577
          },
          "source": "grid3",
          "verified": true
        },
        {
          "type": "church",
          "name": "Redeemed Christian Church Of God Dunu Ama",
          "slug": "redeemed-christian-church-of-god-dunu-ama-church",
          "coordinates": {
            "lat": 4.33184000021589,
            "lng": 5.98552999980967
          },
          "source": "grid3",
          "verified": true
        },
        {
          "type": "church",
          "name": "Holy Trinity Zion Iwokoro Ama",
          "slug": "holy-trinity-zion-iwokoro-ama-church",
          "coordinates": {
            "lat": 4.33424999983765,
            "lng": 5.98591000024635
          },
          "source": "grid3",
          "verified": true
        },
        {
          "type": "church",
          "name": "Newlife Gospel Church Dunu Ama",
          "slug": "newlife-gospel-church-dunu-ama-church",
          "coordinates": {
            "lat": 4.33223000021439,
            "lng": 5.9859399998312
          },
          "source": "grid3",
          "verified": true
        },
        {
          "type": "church",
          "name": "Living Grace Gospel Iwokoro Ama",
          "slug": "living-grace-gospel-iwokoro-ama-church",
          "coordinates": {
            "lat": 4.33420000022988,
            "lng": 5.98661999971324
          },
          "source": "grid3",
          "verified": true
        },
        {
          "type": "church",
          "name": "Deeper Life Church New Sangana",
          "slug": "deeper-life-church-new-sangana-church",
          "coordinates": {
            "lat": 4.33697000026535,
            "lng": 5.98737999968728
          },
          "source": "grid3",
          "verified": true
        },
        {
          "type": "church",
          "name": "Goodnews Bible Church Iwokoro Ama",
          "slug": "goodnews-bible-church-iwokoro-ama-church",
          "coordinates": {
            "lat": 4.33498999978872,
            "lng": 5.9875799999171
          },
          "source": "grid3",
          "verified": true
        },
        {
          "type": "church",
          "name": "Christ Church Bara Ama",
          "slug": "christ-church-bara-ama-church",
          "coordinates": {
            "lat": 4.30592999966979,
            "lng": 6.00436999987562
          },
          "source": "grid3",
          "verified": true
        },
        {
          "type": "church",
          "name": "New Life Ministhry Churchkiri",
          "slug": "new-life-ministhry-churchkiri-church",
          "coordinates": {
            "lat": 4.30309000000352,
            "lng": 6.01335999986418
          },
          "source": "grid3",
          "verified": true
        },
        {
          "type": "church",
          "name": "Anointed Zion Okumbiri",
          "slug": "anointed-zion-okumbiri-church",
          "coordinates": {
            "lat": 4.30157000005551,
            "lng": 6.02210000001503
          },
          "source": "grid3",
          "verified": true
        },
        {
          "type": "church",
          "name": "Mount Zion Church Apparanbie 2",
          "slug": "mount-zion-church-apparanbie-2-church",
          "coordinates": {
            "lat": 4.3320099999616,
            "lng": 6.03187999956236
          },
          "source": "grid3",
          "verified": true
        },
        {
          "type": "church",
          "name": "Grace Baptist Moberebie",
          "slug": "grace-baptist-moberebie-church",
          "coordinates": {
            "lat": 4.33438999999856,
            "lng": 6.04621000029135
          },
          "source": "grid3",
          "verified": true
        },
        {
          "type": "church",
          "name": "Alpha And Omega Ministry Kongho",
          "slug": "alpha-and-omega-ministry-kongho-church",
          "coordinates": {
            "lat": 4.34048000025183,
            "lng": 6.05317000019539
          },
          "source": "grid3",
          "verified": true
        },
        {
          "type": "church",
          "name": "St Jude's Anglican Otolo Akassa",
          "slug": "st-jude-s-anglican-otolo-akassa-church",
          "coordinates": {
            "lat": 4.30715000017244,
            "lng": 6.05567999993212
          },
          "source": "grid3",
          "verified": true
        },
        {
          "type": "church",
          "name": "Cherubim And Seraphim Church Of Zion Kotikiri",
          "slug": "cherubim-and-seraphim-church-of-zion-kotikiri-church",
          "coordinates": {
            "lat": 4.33262999977472,
            "lng": 6.06054999968279
          },
          "source": "grid3",
          "verified": true
        },
        {
          "type": "church",
          "name": "Apostolic Faith Okoimbiribeleui",
          "slug": "apostolic-faith-okoimbiribeleui-church",
          "coordinates": {
            "lat": 4.29305000015745,
            "lng": 6.06222999981469
          },
          "source": "grid3",
          "verified": true
        },
        {
          "type": "church",
          "name": "Bishop Crowther Aner Ogbokiri",
          "slug": "bishop-crowther-aner-ogbokiri-church",
          "coordinates": {
            "lat": 4.32790000018491,
            "lng": 6.06294999974273
          },
          "source": "grid3",
          "verified": true
        },
        {
          "type": "church",
          "name": "St Matthew Anglican Church Mission Kiri Egwe Ama",
          "slug": "st-matthew-anglican-church-mission-kiri-egwe-ama-church",
          "coordinates": {
            "lat": 4.30854000042075,
            "lng": 6.19097000026534
          },
          "source": "grid3",
          "verified": true
        },
        {
          "type": "church",
          "name": "S And C Church Eyeh Ama",
          "slug": "s-and-c-church-eyeh-ama-church",
          "coordinates": {
            "lat": 4.3039599996543,
            "lng": 6.19411999983816
          },
          "source": "grid3",
          "verified": true
        },
        {
          "type": "church",
          "name": "Divine Order Of Cherubim And Seraphim Church Ada Ama",
          "slug": "divine-order-of-cherubim-and-seraphim-church-ada-ama-church",
          "coordinates": {
            "lat": 4.31090000043474,
            "lng": 6.23941999973323
          },
          "source": "grid3",
          "verified": true
        },
        {
          "type": "church",
          "name": "Holy Trinity Catholic Church Site Pogu",
          "slug": "holy-trinity-catholic-church-site-pogu-church",
          "coordinates": {
            "lat": 4.30830000014492,
            "lng": 6.23951999984814
          },
          "source": "grid3",
          "verified": true
        },
        {
          "type": "church",
          "name": "Zion Teme Beye Shidi Ama",
          "slug": "zion-teme-beye-shidi-ama-church",
          "coordinates": {
            "lat": 4.31363999998604,
            "lng": 6.23978000014694
          },
          "source": "grid3",
          "verified": true
        },
        {
          "type": "church",
          "name": "St Barnabas Anglican Church Ada Ama Town Brass",
          "slug": "st-barnabas-anglican-church-ada-ama-town-brass-church",
          "coordinates": {
            "lat": 4.30973000043923,
            "lng": 6.2421899997687
          },
          "source": "grid3",
          "verified": true
        },
        {
          "type": "church",
          "name": "Winners Chapel Cameroun Ama Town Brass",
          "slug": "winners-chapel-cameroun-ama-town-brass-church",
          "coordinates": {
            "lat": 4.3103900002983,
            "lng": 6.2423800004367
          },
          "source": "grid3",
          "verified": true
        },
        {
          "type": "church",
          "name": "Olumba Olumba Obu Church Sambo Ama Town Brass",
          "slug": "olumba-olumba-obu-church-sambo-ama-town-brass-church",
          "coordinates": {
            "lat": 4.31111999978822,
            "lng": 6.24269000034332
          },
          "source": "grid3",
          "verified": true
        },
        {
          "type": "church",
          "name": "Assembles Of God Cameroun Ama Town Brass",
          "slug": "assembles-of-god-cameroun-ama-town-brass-church",
          "coordinates": {
            "lat": 4.30947000014044,
            "lng": 6.24372999973974
          },
          "source": "grid3",
          "verified": true
        },
        {
          "type": "church",
          "name": "Apostolic Church Boropit Kiri",
          "slug": "apostolic-church-boropit-kiri-church",
          "coordinates": {
            "lat": 4.31179000010849,
            "lng": 6.24411000017642
          },
          "source": "grid3",
          "verified": true
        },
        {
          "type": "church",
          "name": "Greater Evangelical World Crusade Kiri Town Brass",
          "slug": "greater-evangelical-world-crusade-kiri-town-brass-church",
          "coordinates": {
            "lat": 4.30822000005298,
            "lng": 6.24456999980572
          },
          "source": "grid3",
          "verified": true
        },
        {
          "type": "church",
          "name": "New Apostolic Church Ateki Ama",
          "slug": "new-apostolic-church-ateki-ama-church",
          "coordinates": {
            "lat": 4.30526999981072,
            "lng": 6.24542999989461
          },
          "source": "grid3",
          "verified": true
        },
        {
          "type": "church",
          "name": "Divine Faith Of God Inebara Kiri",
          "slug": "divine-faith-of-god-inebara-kiri-church",
          "coordinates": {
            "lat": 4.32104000039573,
            "lng": 6.24692000025783
          },
          "source": "grid3",
          "verified": true
        },
        {
          "type": "church",
          "name": "Redeemed Christian Church Of God Ikalamo Kiri",
          "slug": "redeemed-christian-church-of-god-ikalamo-kiri-church",
          "coordinates": {
            "lat": 4.30662000001303,
            "lng": 6.24832000006802
          },
          "source": "grid3",
          "verified": true
        },
        {
          "type": "church",
          "name": "St John Anglican Church Ewoama",
          "slug": "st-john-anglican-church-ewoama-church",
          "coordinates": {
            "lat": 4.31031999976824,
            "lng": 6.26591000004652
          },
          "source": "grid3",
          "verified": true
        },
        {
          "type": "church",
          "name": "Zion Church Walson Gbene Agada Ama",
          "slug": "zion-church-walson-gbene-agada-ama-church",
          "coordinates": {
            "lat": 4.30132999977974,
            "lng": 6.29187000020039
          },
          "source": "grid3",
          "verified": true
        },
        {
          "type": "church",
          "name": "St Paul Anglican Church Walson Gbene Agada Ama",
          "slug": "st-paul-anglican-church-walson-gbene-agada-ama-church",
          "coordinates": {
            "lat": 4.30103999989615,
            "lng": 6.29316999989561
          },
          "source": "grid3",
          "verified": true
        },
        {
          "type": "church",
          "name": "Deeper Life Isele Ama",
          "slug": "deeper-life-isele-ama-church",
          "coordinates": {
            "lat": 4.3064199997832,
            "lng": 6.29345000021738
          },
          "source": "grid3",
          "verified": true
        },
        {
          "type": "church",
          "name": "Holy Christ Church Okpo Ama",
          "slug": "holy-christ-church-okpo-ama-church",
          "coordinates": {
            "lat": 4.303540000071,
            "lng": 6.29357000035526
          },
          "source": "grid3",
          "verified": true
        },
        {
          "type": "church",
          "name": "Redeemed Christian Church Of God Isele Ama",
          "slug": "redeemed-christian-church-of-god-isele-ama-church",
          "coordinates": {
            "lat": 4.30699999955038,
            "lng": 6.2941399996613
          },
          "source": "grid3",
          "verified": true
        },
        {
          "type": "church",
          "name": "Assembles Of God Abain Ama",
          "slug": "assembles-of-god-abain-ama-church",
          "coordinates": {
            "lat": 4.3037099998167,
            "lng": 6.2978600003388
          },
          "source": "grid3",
          "verified": true
        },
        {
          "type": "church",
          "name": "Holy Christ Church Die Ama",
          "slug": "holy-christ-church-die-ama-church",
          "coordinates": {
            "lat": 4.3030800004417,
            "lng": 6.3307200003278
          },
          "source": "grid3",
          "verified": true
        },
        {
          "type": "church",
          "name": "Arms Of Faith Die Ama",
          "slug": "arms-of-faith-die-ama-church",
          "coordinates": {
            "lat": 4.30280999968181,
            "lng": 6.33197999997708
          },
          "source": "grid3",
          "verified": true
        },
        {
          "type": "church",
          "name": "New Jerusalem New Jerusalem",
          "slug": "new-jerusalem-new-jerusalem-church",
          "coordinates": {
            "lat": 4.32265999955939,
            "lng": 6.40305000025734
          },
          "source": "grid3",
          "verified": true
        },
        {
          "type": "church",
          "name": "Holy Christ Church Itukama",
          "slug": "holy-christ-church-itukama-church",
          "coordinates": {
            "lat": 4.33114999987265,
            "lng": 6.43074000015093
          },
          "source": "grid3",
          "verified": true
        },
        {
          "type": "church",
          "name": "St Paul Anglican Church Odio Ama",
          "slug": "st-paul-anglican-church-odio-ama-church",
          "coordinates": {
            "lat": 4.3288299999046,
            "lng": 6.43236999977574
          },
          "source": "grid3",
          "verified": true
        },
        {
          "type": "church",
          "name": "All Saints Christ Church Odio Ama",
          "slug": "all-saints-christ-church-odio-ama-church",
          "coordinates": {
            "lat": 4.32644000030581,
            "lng": 6.43388000016193
          },
          "source": "grid3",
          "verified": true
        },
        {
          "type": "church",
          "name": "Assemblies Of God Church Odio Ama",
          "slug": "assemblies-of-god-church-odio-ama-church",
          "coordinates": {
            "lat": 4.32663000007449,
            "lng": 6.43447999995209
          },
          "source": "grid3",
          "verified": true
        },
        {
          "type": "church",
          "name": "Assembles Of God Ibidi Ama",
          "slug": "assembles-of-god-ibidi-ama-church",
          "coordinates": {
            "lat": 4.32815999958439,
            "lng": 6.52509000020342
          },
          "source": "grid3",
          "verified": true
        },
        {
          "type": "church",
          "name": "St Peter Anglican Church Ibidi Ama",
          "slug": "st-peter-anglican-church-ibidi-ama-church",
          "coordinates": {
            "lat": 4.32893000001951,
            "lng": 6.52595999985414
          },
          "source": "grid3",
          "verified": true
        },
        {
          "type": "church",
          "name": "St James Anglican Church Agrisaba Agrisaba",
          "slug": "st-james-anglican-church-agrisaba-agrisaba-church",
          "coordinates": {
            "lat": 4.59490999989663,
            "lng": 6.4199600003538
          },
          "source": "grid3",
          "verified": true
        },
        {
          "type": "church",
          "name": "St Mark's Anglican Church Okoroba Okoroba",
          "slug": "st-mark-s-anglican-church-okoroba-okoroba-church",
          "coordinates": {
            "lat": 4.63257000000556,
            "lng": 6.42610999977671
          },
          "source": "grid3",
          "verified": true
        },
        {
          "type": "church",
          "name": "Cherubim And Seraphim Church Of Zion Obiata",
          "slug": "cherubim-and-seraphim-church-of-zion-obiata-church",
          "coordinates": {
            "lat": 4.6073200002179,
            "lng": 6.44892999991959
          },
          "source": "grid3",
          "verified": true
        },
        {
          "type": "church",
          "name": "Assemblies Of God Church Sule Kiri 2",
          "slug": "assemblies-of-god-church-sule-kiri-2-church",
          "coordinates": {
            "lat": 4.46121999960337,
            "lng": 6.14442000028282
          },
          "source": "grid3",
          "verified": true
        },
        {
          "type": "mosque",
          "name": "Shidi Ama Mosque",
          "slug": "shidi-ama-mosque-mosque",
          "coordinates": {
            "lat": 4.31390000028483,
            "lng": 6.23994000033082
          },
          "source": "grid3",
          "verified": true
        }
      ]
    },
    {
      "name": "Ekeremor",
      "slug": "bayelsa-ekeremor",
      "markets": [],
      "facilities": [
        {
          "type": "market",
          "name": "Bilabiri Market",
          "slug": "bilabiri-market-market",
          "coordinates": {
            "lat": 4.8204300000445,
            "lng": 5.51729999999503
          },
          "source": "grid3",
          "verified": true,
          "metadata": {
            "mrkt_days": "0"
          }
        },
        {
          "type": "market",
          "name": "Atabai Gbene Market",
          "slug": "atabai-gbene-market-market",
          "coordinates": {
            "lat": 5.02670999966682,
            "lng": 5.81991999970825
          },
          "source": "grid3",
          "verified": true,
          "metadata": {
            "mrkt_days": "0"
          }
        },
        {
          "type": "market",
          "name": "Lalagbene Market",
          "slug": "lalagbene-market-market",
          "coordinates": {
            "lat": 5.04375999992408,
            "lng": 5.93370999961684
          },
          "source": "grid3",
          "verified": true,
          "metadata": {
            "mrkt_days": "0"
          }
        },
        {
          "type": "market",
          "name": "Aleibiri Market",
          "slug": "aleibiri-market-market",
          "coordinates": {
            "lat": 5.07760999970179,
            "lng": 5.87134999990263
          },
          "source": "grid3",
          "verified": true,
          "metadata": {
            "mrkt_days": "0"
          }
        },
        {
          "type": "market",
          "name": "Isampou Market",
          "slug": "isampou-market-market",
          "coordinates": {
            "lat": 5.06637999983718,
            "lng": 5.8529300003193
          },
          "source": "grid3",
          "verified": true,
          "metadata": {
            "mrkt_days": "0"
          }
        },
        {
          "type": "market",
          "name": "Azagbene Market",
          "slug": "azagbene-market-market",
          "coordinates": {
            "lat": 4.86872000022788,
            "lng": 5.82278999985863
          },
          "source": "grid3",
          "verified": true,
          "metadata": {
            "mrkt_days": "0"
          }
        },
        {
          "type": "market",
          "name": "Amabulou Market",
          "slug": "amabulou-market-market",
          "coordinates": {
            "lat": 4.98520000008,
            "lng": 5.80109000010344
          },
          "source": "grid3",
          "verified": true,
          "metadata": {
            "mrkt_days": "0"
          }
        },
        {
          "type": "market",
          "name": "Ekeremor Market",
          "slug": "ekeremor-market-market",
          "coordinates": {
            "lat": 5.06229999964529,
            "lng": 5.78132999987963
          },
          "source": "grid3",
          "verified": true,
          "metadata": {
            "mrkt_days": "0"
          }
        },
        {
          "type": "market",
          "name": "Norgbene Market",
          "slug": "norgbene-market-market",
          "coordinates": {
            "lat": 4.98388999992363,
            "lng": 5.7798600004387
          },
          "source": "grid3",
          "verified": true,
          "metadata": {
            "mrkt_days": "0"
          }
        },
        {
          "type": "market",
          "name": "Tamogbene Market",
          "slug": "tamogbene-market-market",
          "coordinates": {
            "lat": 4.97021000039126,
            "lng": 5.74407000023035
          },
          "source": "grid3",
          "verified": true,
          "metadata": {
            "mrkt_days": "0"
          }
        },
        {
          "type": "market",
          "name": "Peretoru Gbene Market",
          "slug": "peretoru-gbene-market-market",
          "coordinates": {
            "lat": 4.97779000010848,
            "lng": 5.64403999994607
          },
          "source": "grid3",
          "verified": true,
          "metadata": {
            "mrkt_days": "0"
          }
        },
        {
          "type": "market",
          "name": "Letugbene I Market",
          "slug": "letugbene-i-market-market",
          "coordinates": {
            "lat": 4.84173999980118,
            "lng": 5.54626999956088
          },
          "source": "grid3",
          "verified": true,
          "metadata": {
            "mrkt_days": "0"
          }
        },
        {
          "type": "market",
          "name": "Ogbotobo Market",
          "slug": "ogbotobo-market-market",
          "coordinates": {
            "lat": 4.98774999986267,
            "lng": 5.51791999980821
          },
          "source": "grid3",
          "verified": true,
          "metadata": {
            "mrkt_days": "0"
          }
        },
        {
          "type": "market",
          "name": "Amatu II Market",
          "slug": "amatu-ii-market-market",
          "coordinates": {
            "lat": 4.89027999982216,
            "lng": 5.46539000014843
          },
          "source": "grid3",
          "verified": true,
          "metadata": {
            "mrkt_days": "0"
          }
        },
        {
          "type": "market",
          "name": "Aghoro II Market",
          "slug": "aghoro-ii-market-market",
          "coordinates": {
            "lat": 5.1256700000705,
            "lng": 5.44133000037925
          },
          "source": "grid3",
          "verified": true,
          "metadata": {
            "mrkt_days": "0"
          }
        },
        {
          "type": "market",
          "name": "Agge Market",
          "slug": "agge-market-market",
          "coordinates": {
            "lat": 5.13414000036079,
            "lng": 5.40055999984418
          },
          "source": "grid3",
          "verified": true,
          "metadata": {
            "mrkt_days": "0"
          }
        },
        {
          "type": "health_facility",
          "name": "Toru Ndoro Primary Health Care Center",
          "slug": "toru-ndoro-primary-health-care-center-health-facility",
          "coordinates": {
            "lat": 5.03831,
            "lng": 5.60468
          },
          "source": "grid3",
          "verified": true,
          "metadata": {
            "facility_level": "Primary",
            "facility_level_option": "Primary Health Center",
            "ownership": "Public",
            "ownership_type": "Local Government"
          }
        },
        {
          "type": "health_facility",
          "name": "Aleibiri Primary Health Care Center",
          "slug": "aleibiri-primary-health-care-center-health-facility",
          "coordinates": {
            "lat": 5.06647,
            "lng": 5.86921
          },
          "source": "grid3",
          "verified": true,
          "metadata": {
            "facility_level": "Primary",
            "facility_level_option": "Primary Health Center",
            "ownership": "Public",
            "ownership_type": "Local Government"
          }
        },
        {
          "type": "health_facility",
          "name": "Amatu 2 Cottage Hospital",
          "slug": "amatu-2-cottage-hospital-health-facility",
          "coordinates": {
            "lat": 4.89150528065,
            "lng": 5.46423563521
          },
          "source": "grid3",
          "verified": true,
          "metadata": {
            "facility_level": "Secondary",
            "facility_level_option": "General Hospital",
            "ownership": "Public",
            "ownership_type": "State Government"
          }
        },
        {
          "type": "health_facility",
          "name": "Agbidi Ama Primary Health Care Center",
          "slug": "agbidi-ama-primary-health-care-center-health-facility",
          "coordinates": {
            "lat": 4.885070801,
            "lng": 5.777282715
          },
          "source": "grid3",
          "verified": true,
          "metadata": {
            "facility_level": "Primary",
            "facility_level_option": "Primary Health Center",
            "ownership": "Public",
            "ownership_type": "Local Government"
          }
        },
        {
          "type": "health_facility",
          "name": "Orobiri Primary Health Care Center",
          "slug": "orobiri-primary-health-care-center-health-facility",
          "coordinates": {
            "lat": 5.01755,
            "lng": 5.42977
          },
          "source": "grid3",
          "verified": true,
          "metadata": {
            "facility_level": "Primary",
            "facility_level_option": "Primary Health Center",
            "ownership": "Public",
            "ownership_type": "Local Government"
          }
        },
        {
          "type": "health_facility",
          "name": "Angala Oweigbene Primary Health Care Center",
          "slug": "angala-oweigbene-primary-health-care-center-health-facility",
          "coordinates": {
            "lat": 5.02596,
            "lng": 5.88679
          },
          "source": "grid3",
          "verified": true,
          "metadata": {
            "facility_level": "Primary",
            "facility_level_option": "Primary Health Center",
            "ownership": "Public",
            "ownership_type": "Local Government"
          }
        },
        {
          "type": "health_facility",
          "name": "Ekeremor Primary Health Care Center",
          "slug": "ekeremor-primary-health-care-center-health-facility",
          "coordinates": {
            "lat": 5.058966667,
            "lng": 5.769288333
          },
          "source": "grid3",
          "verified": true,
          "metadata": {
            "facility_level": "Primary",
            "facility_level_option": "Primary Health Center",
            "ownership": "Public",
            "ownership_type": "Local Government"
          }
        },
        {
          "type": "health_facility",
          "name": "Norgbene Primary Health Care Center",
          "slug": "norgbene-primary-health-care-center-health-facility",
          "coordinates": {
            "lat": 4.983876667,
            "lng": 5.780138333
          },
          "source": "grid3",
          "verified": true,
          "metadata": {
            "facility_level": "Primary",
            "facility_level_option": "Primary Health Center",
            "ownership": "Public",
            "ownership_type": "Local Government"
          }
        },
        {
          "type": "health_facility",
          "name": "Bilabiri Primary Health Care Center",
          "slug": "bilabiri-primary-health-care-center-health-facility",
          "coordinates": {
            "lat": 4.818481445,
            "lng": 5.520874023
          },
          "source": "grid3",
          "verified": true,
          "metadata": {
            "facility_level": "Primary",
            "facility_level_option": "Primary Health Center",
            "ownership": "Public",
            "ownership_type": "Local Government"
          }
        },
        {
          "type": "health_facility",
          "name": "Foutorugbene Primary Health Care Center",
          "slug": "foutorugbene-primary-health-care-center-health-facility",
          "coordinates": {
            "lat": 5.029724121,
            "lng": 5.74810791
          },
          "source": "grid3",
          "verified": true,
          "metadata": {
            "facility_level": "Primary",
            "facility_level_option": "Primary Health Center",
            "ownership": "Public",
            "ownership_type": "Local Government"
          }
        },
        {
          "type": "health_facility",
          "name": "Ogbotobo Primary Health Care Center",
          "slug": "ogbotobo-primary-health-care-center-health-facility",
          "coordinates": {
            "lat": 4.982475304,
            "lng": 5.521832956
          },
          "source": "grid3",
          "verified": true,
          "metadata": {
            "facility_level": "Primary",
            "facility_level_option": "Primary Health Center",
            "ownership": "Public",
            "ownership_type": "Local Government"
          }
        },
        {
          "type": "health_facility",
          "name": "Ayamasa Primary Health Care Center",
          "slug": "ayamasa-primary-health-care-center-health-facility",
          "coordinates": {
            "lat": 5.12430325,
            "lng": 5.918095116
          },
          "source": "grid3",
          "verified": true,
          "metadata": {
            "facility_level": "Primary",
            "facility_level_option": "Primary Health Center",
            "ownership": "Public",
            "ownership_type": "Local Government"
          }
        },
        {
          "type": "health_facility",
          "name": "Azagbene Primary Health Care Center",
          "slug": "azagbene-primary-health-care-center-health-facility",
          "coordinates": {
            "lat": 4.867675781,
            "lng": 5.820922852
          },
          "source": "grid3",
          "verified": true,
          "metadata": {
            "facility_level": "Primary",
            "facility_level_option": "Primary Health Center",
            "ownership": "Public",
            "ownership_type": "Local Government"
          }
        },
        {
          "type": "health_facility",
          "name": "Egbemo Angalabiri Cottage Hospital",
          "slug": "egbemo-angalabiri-cottage-hospital-health-facility",
          "coordinates": {
            "lat": 4.915936385,
            "lng": 5.821697046
          },
          "source": "grid3",
          "verified": true,
          "metadata": {
            "facility_level": "Secondary",
            "facility_level_option": "Unknown",
            "ownership": "Public",
            "ownership_type": "Local Government"
          }
        },
        {
          "type": "health_facility",
          "name": "Lalagbene Primary Health Care Center",
          "slug": "lalagbene-primary-health-care-center-health-facility",
          "coordinates": {
            "lat": 5.043884277,
            "lng": 5.930297852
          },
          "source": "grid3",
          "verified": true,
          "metadata": {
            "facility_level": "Primary",
            "facility_level_option": "Primary Health Center",
            "ownership": "Public",
            "ownership_type": "Local Government"
          }
        },
        {
          "type": "health_facility",
          "name": "Obirigbene Primary Health Care Center",
          "slug": "obirigbene-primary-health-care-center-health-facility",
          "coordinates": {
            "lat": 5.033081054,
            "lng": 5.819885254
          },
          "source": "grid3",
          "verified": true,
          "metadata": {
            "facility_level": "Primary",
            "facility_level_option": "Primary Health Center",
            "ownership": "Public",
            "ownership_type": "Local Government"
          }
        },
        {
          "type": "health_facility",
          "name": "Peretorugbene Primary Health Care Center",
          "slug": "peretorugbene-primary-health-care-center-health-facility",
          "coordinates": {
            "lat": 4.97169,
            "lng": 5.63858
          },
          "source": "grid3",
          "verified": true,
          "metadata": {
            "facility_level": "Primary",
            "facility_level_option": "Primary Health Center",
            "ownership": "Public",
            "ownership_type": "Local Government"
          }
        },
        {
          "type": "health_facility",
          "name": "Agge Primary Health Care Center",
          "slug": "agge-primary-health-care-center-health-facility",
          "coordinates": {
            "lat": 5.12893,
            "lng": 5.39079
          },
          "source": "grid3",
          "verified": true,
          "metadata": {
            "facility_level": "Primary",
            "facility_level_option": "Primary Health Center",
            "ownership": "Public",
            "ownership_type": "Local Government"
          }
        },
        {
          "type": "health_facility",
          "name": "Aghoro Primary Health Care Center",
          "slug": "aghoro-primary-health-care-center-health-facility",
          "coordinates": {
            "lat": 5.12482,
            "lng": 5.44085
          },
          "source": "grid3",
          "verified": true,
          "metadata": {
            "facility_level": "Primary",
            "facility_level_option": "Primary Health Center",
            "ownership": "Public",
            "ownership_type": "Local Government"
          }
        },
        {
          "type": "health_facility",
          "name": "Egbemo Angalabiri Primary Health Care Center",
          "slug": "egbemo-angalabiri-primary-health-care-center-health-facility",
          "coordinates": {
            "lat": 4.92466,
            "lng": 5.81611
          },
          "source": "grid3",
          "verified": true,
          "metadata": {
            "facility_level": "Primary",
            "facility_level_option": "Primary Health Center",
            "ownership": "Public",
            "ownership_type": "Local Government"
          }
        },
        {
          "type": "health_facility",
          "name": "Amabolou Primary Health Care Center",
          "slug": "amabolou-primary-health-care-center-health-facility",
          "coordinates": {
            "lat": 4.98248291,
            "lng": 5.792480469
          },
          "source": "grid3",
          "verified": true,
          "metadata": {
            "facility_level": "Primary",
            "facility_level_option": "Primary Health Center",
            "ownership": "Public",
            "ownership_type": "Local Government"
          }
        },