{
  "name": "Borno",
  "slug": "borno",
  "lgas": [
    {
      "name": "Abadam",
      "slug": "borno-abadam",
      "markets": [],
      "facilities": [
        {
          "type": "market",
          "name": "Kasuwar Talatam Ngam",
          "slug": "kasuwar-talatam-ngam-market",
          "coordinates": {
            "lat": 13.4963800004367,
            "lng": 12.9454200004327
          },
          "source": "grid3",
          "verified": true,
          "metadata": {
            "mrkt_days": "0"
          }
        },
        {
          "type": "market",
          "name": "Kasuwar Njawa",
          "slug": "kasuwar-njawa-market",
          "coordinates": {
            "lat": 13.5090300001344,
            "lng": 13.1592199997033
          },
          "source": "grid3",
          "verified": true,
          "metadata": {
            "mrkt_days": "0"
          }
        },
        {
          "type": "market",
          "name": "Kasuwar Metele",
          "slug": "kasuwar-metele-market",
          "coordinates": {
            "lat": 13.3588500002274,
            "lng": 13.4266400003358
          },
          "source": "grid3",
          "verified": true,
          "metadata": {
            "mrkt_days": "0"
          }
        },
        {
          "type": "market",
          "name": "Kasuwar Fish Market Mallam Fatori",
          "slug": "kasuwar-fish-market-mallam-fatori-market",
          "coordinates": {
            "lat": 13.6786400003358,
            "lng": 13.3465899996288
          },
          "source": "grid3",
          "verified": true,
          "metadata": {
            "mrkt_days": "0"
          }
        },
        {
          "type": "market",
          "name": "Kasuwar Mallam Fatori",
          "slug": "kasuwar-mallam-fatori-market",
          "coordinates": {
            "lat": 13.6745800001669,
            "lng": 13.3359599995544
          },
          "source": "grid3",
          "verified": true,
          "metadata": {
            "mrkt_days": "0"
          }
        },
        {
          "type": "market",
          "name": "Kasuwar Jabullam",
          "slug": "kasuwar-jabullam-market",
          "coordinates": {
            "lat": 13.5171400000111,
            "lng": 13.0803199998682
          },
          "source": "grid3",
          "verified": true,
          "metadata": {
            "mrkt_days": "0"
          }
        },
        {
          "type": "market",
          "name": "Kasuwar Garere",
          "slug": "kasuwar-garere-market",
          "coordinates": {
            "lat": 13.1966499999975,
            "lng": 13.2672599997492
          },
          "source": "grid3",
          "verified": true,
          "metadata": {
            "mrkt_days": "0"
          }
        },
        {
          "type": "market",
          "name": "Kasuwar Abadam",
          "slug": "kasuwar-abadam-market",
          "coordinates": {
            "lat": 13.6176400003857,
            "lng": 13.2645699998057
          },
          "source": "grid3",
          "verified": true,
          "metadata": {
            "mrkt_days": "0"
          }
        },
        {
          "type": "market",
          "name": "Kasuwar Arege",
          "slug": "kasuwar-arege-market",
          "coordinates": {
            "lat": 13.4885600004437,
            "lng": 13.3267700002354
          },
          "source": "grid3",
          "verified": true,
          "metadata": {
            "mrkt_days": "0"
          }
        },
        {
          "type": "health_facility",
          "name": "Mallam Fatori Primary Health Center",
          "slug": "mallam-fatori-primary-health-center-health-facility",
          "coordinates": {
            "lat": 13.6644699996,
            "lng": 13.3418300003
          },
          "source": "grid3",
          "verified": true,
          "metadata": {
            "facility_level": "Primary",
            "facility_level_option": "Primary Health Center",
            "ownership": "Public",
            "ownership_type": "Local Government"
          }
        },
        {
          "type": "health_facility",
          "name": "Kangarwa Health Clinic",
          "slug": "kangarwa-health-clinic-health-facility",
          "coordinates": {
            "lat": 13.67903,
            "lng": 13.34196
          },
          "source": "grid3",
          "verified": true,
          "metadata": {
            "facility_level": "Primary",
            "facility_level_option": "Primary Health Center",
            "ownership": "Private",
            "ownership_type": "Unknown"
          }
        },
        {
          "type": "health_facility",
          "name": "Tumbun Guni Health Post",
          "slug": "tumbun-guni-health-post-health-facility",
          "coordinates": {
            "lat": 13.4837299998,
            "lng": 13.4847500005
          },
          "source": "grid3",
          "verified": true,
          "metadata": {
            "facility_level": "Primary",
            "facility_level_option": "Health Post",
            "ownership": "Public",
            "ownership_type": "Unknown"
          }
        },
        {
          "type": "health_facility",
          "name": "Mallam Kaunari Health Clinic",
          "slug": "mallam-kaunari-health-clinic-health-facility",
          "coordinates": {
            "lat": 13.6985472912,
            "lng": 13.3379302329
          },
          "source": "grid3",
          "verified": true,
          "metadata": {
            "facility_level": "Primary",
            "facility_level_option": "Primary Health Center",
            "ownership": "Public",
            "ownership_type": "Unknown"
          }
        },
        {
          "type": "health_facility",
          "name": "Busuna Health Post",
          "slug": "busuna-health-post-health-facility",
          "coordinates": {
            "lat": 13.6976669541,
            "lng": 13.3377703493
          },
          "source": "grid3",
          "verified": true,
          "metadata": {
            "facility_level": "Primary",
            "facility_level_option": "Health Post",
            "ownership": "Unknown",
            "ownership_type": "Unknown"
          }
        },
        {
          "type": "health_facility",
          "name": "Garere Health Clinic",
          "slug": "garere-health-clinic-health-facility",
          "coordinates": {
            "lat": 13.1974700003,
            "lng": 13.2644099997
          },
          "source": "grid3",
          "verified": true,
          "metadata": {
            "facility_level": "Primary",
            "facility_level_option": "Primary Health Center",
            "ownership": "Public",
            "ownership_type": "Unknown"
          }
        },
        {
          "type": "health_facility",
          "name": "Talata Nga Health Clinic",
          "slug": "talata-nga-health-clinic-health-facility",
          "coordinates": {
            "lat": 13.4970199998,
            "lng": 12.9501600002
          },
          "source": "grid3",
          "verified": true,
          "metadata": {
            "facility_level": "Primary",
            "facility_level_option": "Primary Health Center",
            "ownership": "Public",
            "ownership_type": "Unknown"
          }
        },
        {
          "type": "health_facility",
          "name": "Arge Health Clinic",
          "slug": "arge-health-clinic-health-facility",
          "coordinates": {
            "lat": 13.4872400001,
            "lng": 13.3282700001
          },
          "source": "grid3",
          "verified": true,
          "metadata": {
            "facility_level": "Primary",
            "facility_level_option": "Primary Health Center",
            "ownership": "Public",
            "ownership_type": "Unknown"
          }
        },
        {
          "type": "health_facility",
          "name": "Metele Health Clinic",
          "slug": "metele-health-clinic-health-facility",
          "coordinates": {
            "lat": 13.3585199997,
            "lng": 13.42373
          },
          "source": "grid3",
          "verified": true,
          "metadata": {
            "facility_level": "Primary",
            "facility_level_option": "Primary Health Center",
            "ownership": "Public",
            "ownership_type": "Unknown"
          }
        },
        {
          "type": "health_facility",
          "name": "Jabullam Health Clinic",
          "slug": "jabullam-health-clinic-health-facility",
          "coordinates": {
            "lat": 13.5156500005,
            "lng": 13.0770000004
          },
          "source": "grid3",
          "verified": true,
          "metadata": {
            "facility_level": "Primary",
            "facility_level_option": "Primary Health Center",
            "ownership": "Public",
            "ownership_type": "Unknown"
          }
        },
        {
          "type": "health_facility",
          "name": "Abadam General Hospital",
          "slug": "abadam-general-hospital-health-facility",
          "coordinates": {
            "lat": 13.6230800004,
            "lng": 13.2716099996
          },
          "source": "grid3",
          "verified": true,
          "metadata": {
            "facility_level": "Secondary",
            "facility_level_option": "General Hospital",
            "ownership": "Public",
            "ownership_type": "Unknown"
          }
        },
        {
          "type": "health_facility",
          "name": "Malan Fatori Maternity and Child Health Centre",
          "slug": "malan-fatori-maternity-and-child-health-centre-health-facility",
          "coordinates": {
            "lat": 13.64316,
            "lng": 13.34495
          },
          "source": "grid3",
          "verified": true,
          "metadata": {
            "facility_level": "Primary",
            "facility_level_option": "Primary Health Clinic",
            "ownership": "Public",
            "ownership_type": "Local Government"
          }
        },
        {
          "type": "school",
          "name": "Primary School Abadam",
          "slug": "primary-school-abadam-school",
          "coordinates": {
            "lat": 13.6184275915601,
            "lng": 13.2633409323382
          },
          "source": "grid3",
          "verified": true,
          "metadata": {
            "category": "Primary",
            "management": "Unknown",
            "education": "Formal",
            "subtype": "Primary"
          }
        },
        {
          "type": "school",
          "name": "Primary School Afunori",
          "slug": "primary-school-afunori-school",
          "coordinates": {
            "lat": 13.6939907783518,
            "lng": 13.3384027039217
          },
          "source": "grid3",
          "verified": true,
          "metadata": {
            "category": "Primary",
            "management": "Unknown",
            "education": "Formal",
            "subtype": "Primary"
          }
        },
        {
          "type": "school",
          "name": "Primary School Alla",
          "slug": "primary-school-alla-school",
          "coordinates": {
            "lat": 13.4246150670318,
            "lng": 12.827688022884
          },
          "source": "grid3",
          "verified": true,
          "metadata": {
            "category": "Primary",
            "management": "Unknown",
            "education": "Formal",
            "subtype": "Primary"
          }
        },
        {
          "type": "school",
          "name": "Primary School Bulagana",
          "slug": "primary-school-bulagana-school",
          "coordinates": {
            "lat": 13.6509512091311,
            "lng": 13.3031388349893
          },
          "source": "grid3",
          "verified": true,
          "metadata": {
            "category": "Primary",
            "management": "Unknown",
            "education": "Formal",
            "subtype": "Primary"
          }
        },
        {
          "type": "school",
          "name": "Primary School Mallam Fatori",
          "slug": "primary-school-mallam-fatori-school",
          "coordinates": {
            "lat": 13.6708811650338,
            "lng": 13.33634465758
          },
          "source": "grid3",
          "verified": true,
          "metadata": {
            "category": "Primary",
            "management": "Unknown",
            "education": "Formal",
            "subtype": "Primary"
          }
        },
        {
          "type": "school",
          "name": "Primary School Metele",
          "slug": "primary-school-metele-school",
          "coordinates": {
            "lat": 13.3569596081994,
            "lng": 13.4242466399705
          },
          "source": "grid3",
          "verified": true,
          "metadata": {
            "category": "Primary",
            "management": "Unknown",
            "education": "Formal",
            "subtype": "Primary"
          }
        },
        {
          "type": "school",
          "name": "Primary School Yau",
          "slug": "primary-school-yau-school",
          "coordinates": {
            "lat": 13.5563306606315,
            "lng": 13.2309227548813
          },
          "source": "grid3",
          "verified": true,
          "metadata": {
            "category": "Primary",
            "management": "Unknown",
            "education": "Formal",
            "subtype": "Primary"
          }
        },
        {
          "type": "school",
          "name": "Government Boarding School Mallam Fatori",
          "slug": "government-boarding-school-mallam-fatori-school",
          "coordinates": {
            "lat": 13.6581805263103,
            "lng": 13.3438995293399
          },
          "source": "grid3",
          "verified": true,
          "metadata": {
            "category": "Others",
            "management": "Public",
            "education": "Formal",
            "subtype": "Standard"
          }
        },
        {
          "type": "school",
          "name": "Abadam Government Day Secondary School",
          "slug": "abadam-government-day-secondary-school-school",
          "coordinates": {
            "lat": 13.6100502520176,
            "lng": 13.2671068362116
          },
          "source": "grid3",
          "verified": true,
          "metadata": {
            "category": "Secondary",
            "management": "Public",
            "education": "Formal",
            "subtype": "Senior"
          }
        },
        {
          "type": "mosque",
          "name": "Yau Mosque",
          "slug": "yau-mosque-mosque",
          "coordinates": {
            "lat": 13.5582199995534,
            "lng": 13.2326599995594
          },
          "source": "grid3",
          "verified": true
        },
        {
          "type": "mosque",
          "name": "Jumma'ai Mosque",
          "slug": "jumma-ai-mosque-mosque",
          "coordinates": {
            "lat": 13.6212200000031,
            "lng": 13.2645800002668
          },
          "source": "grid3",
          "verified": true
        },
        {
          "type": "mosque",
          "name": "Afunori Central Mosque",
          "slug": "afunori-central-mosque-mosque",
          "coordinates": {
            "lat": 13.6984900002134,
            "lng": 13.3378599999391
          },
          "source": "grid3",
          "verified": true
        },
        {
          "type": "mosque",
          "name": "Bisko Mosque",
          "slug": "bisko-mosque-mosque",
          "coordinates": {
            "lat": 13.4312699998107,
            "lng": 13.4811499995729
          },
          "source": "grid3",
          "verified": true
        },
        {
          "type": "mosque",
          "name": "Bokokyari Kari Central Mosque",
          "slug": "bokokyari-kari-central-mosque-mosque",
          "coordinates": {
            "lat": 13.6741799997073,
            "lng": 13.3185099997368
          },
          "source": "grid3",
          "verified": true
        },
        {
          "type": "mosque",
          "name": "Bulagana Chiraye Central Mosque",
          "slug": "bulagana-chiraye-central-mosque-mosque",
          "coordinates": {
            "lat": 13.6770200002728,
            "lng": 13.3087100001664
          },
          "source": "grid3",
          "verified": true
        },
        {
          "type": "mosque",
          "name": "Chasaia Ngusuri Jumma Mosque",
          "slug": "chasaia-ngusuri-jumma-mosque-mosque",
          "coordinates": {
            "lat": 13.4749299996199,
            "lng": 12.9660700003303
          },
          "source": "grid3",
          "verified": true
        },
        {
          "type": "mosque",
          "name": "Dogon Chuku Jumma'a Mosque",
          "slug": "dogon-chuku-jumma-a-mosque-mosque",
          "coordinates": {
            "lat": 13.3777100003163,
            "lng": 13.350419999983
          },
          "source": "grid3",
          "verified": true
        },
        {
          "type": "mosque",
          "name": "Duguri Central Mosque Abadam",
          "slug": "duguri-central-mosque-abadam-mosque",
          "coordinates": {
            "lat": 13.6235800000171,
            "lng": 13.3439999998002
          },
          "source": "grid3",
          "verified": true
        },
        {
          "type": "mosque",
          "name": "Felmari Central Mosque",
          "slug": "felmari-central-mosque-mosque",
          "coordinates": {
            "lat": 13.6010099997118,
            "lng": 13.3392999997952
          },
          "source": "grid3",
          "verified": true
        },
        {
          "type": "mosque",
          "name": "Garere Jumma'a Mosque",
          "slug": "garere-jumma-a-mosque-mosque",
          "coordinates": {
            "lat": 13.1986699996208,
            "lng": 13.2657799998472
          },
          "source": "grid3",
          "verified": true
        },
        {
          "type": "mosque",
          "name": "Gawaba Central Mosque",
          "slug": "gawaba-central-mosque-mosque",
          "coordinates": {
            "lat": 13.4712699999106,
            "lng": 12.976380000037
          },
          "source": "grid3",
          "verified": true
        },
        {
          "type": "mosque",
          "name": "Jabullam Central Mosque",
          "slug": "jabullam-central-mosque-mosque",
          "coordinates": {
            "lat": 13.1545500001824,
            "lng": 13.0827199999281
          },
          "source": "grid3",
          "verified": true
        },
        {
          "type": "mosque",
          "name": "Kaliliya Mosque",
          "slug": "kaliliya-mosque-mosque",
          "coordinates": {
            "lat": 13.3089199999581,
            "lng": 13.2725099999366
          },
          "source": "grid3",
          "verified": true
        },
        {
          "type": "mosque",
          "name": "Karicico Central Mosque",
          "slug": "karicico-central-mosque-mosque",
          "coordinates": {
            "lat": 13.5368899997737,
            "lng": 13.2136499997478
          },
          "source": "grid3",
          "verified": true
        },
        {
          "type": "mosque",
          "name": "Kudokurgu Jumma'a Mosque",
          "slug": "kudokurgu-jumma-a-mosque-mosque",
          "coordinates": {
            "lat": 13.6463099996068,
            "lng": 13.3452899999336
          },
          "source": "grid3",
          "verified": true
        },
        {
          "type": "mosque",
          "name": "Kurusuram Central Mosque",
          "slug": "kurusuram-central-mosque-mosque",
          "coordinates": {
            "lat": 13.1738299998547,
            "lng": 13.1469300004192
          },
          "source": "grid3",
          "verified": true
        },
        {
          "type": "mosque",
          "name": "Mallam Fatori Central Mosque",
          "slug": "mallam-fatori-central-mosque-mosque",
          "coordinates": {
            "lat": 13.6750500002573,
            "lng": 13.3382099998916
          },
          "source": "grid3",
          "verified": true
        },
        {
          "type": "mosque",
          "name": "Mashayi Banawo Mosque",
          "slug": "mashayi-banawo-mosque-mosque",
          "coordinates": {
            "lat": 13.3602000004297,
            "lng": 13.1829899995889
          },
          "source": "grid3",
          "verified": true
        },
        {
          "type": "mosque",
          "name": "May Wango Central Mosque",
          "slug": "may-wango-central-mosque-mosque",
          "coordinates": {
            "lat": 13.434220000053,
            "lng": 12.9180700000305
          },
          "source": "grid3",
          "verified": true
        },
        {
          "type": "mosque",
          "name": "Metele Mosque",
          "slug": "metele-mosque-mosque",
          "coordinates": {
            "lat": 13.3593600003638,
            "lng": 13.4267099999666
          },
          "source": "grid3",
          "verified": true
        },
        {
          "type": "mosque",
          "name": "Ngamakindila Jumma'a Mosque",
          "slug": "ngamakindila-jumma-a-mosque-mosque",
          "coordinates": {
            "lat": 13.5113900001484,
            "lng": 13.2037700000855
          },
          "source": "grid3",
          "verified": true
        },
        {
          "type": "mosque",
          "name": "Ngauro Central Mosque",
          "slug": "ngauro-central-mosque-mosque",
          "coordinates": {
            "lat": 13.5429699995659,
            "lng": 13.2113400002409
          },
          "source": "grid3",
          "verified": true
        },
        {
          "type": "mosque",
          "name": "Njara 'a' Umarti Mosque",
          "slug": "njara-a-umarti-mosque-mosque",
          "coordinates": {
            "lat": 13.5759899997387,
            "lng": 13.3415599996943
          },
          "source": "grid3",
          "verified": true
        },
        {
          "type": "mosque",
          "name": "Wuso Gana Central Mosque",
          "slug": "wuso-gana-central-mosque-mosque",
          "coordinates": {
            "lat": 13.5109899996888,
            "lng": 12.9662099995919
          },
          "source": "grid3",
          "verified": true
        },
        {
          "type": "mosque",
          "name": "Yauwango Central Mosque",
          "slug": "yauwango-central-mosque-mosque",
          "coordinates": {
            "lat": 13.5160799996923,
            "lng": 13.1478899997238
          },
          "source": "grid3",
          "verified": true
        },
        {
          "type": "mosque",
          "name": "Yawa Kura Jumma 'a Mosque",
          "slug": "yawa-kura-jumma-a-mosque-mosque",
          "coordinates": {
            "lat": 13.6531799998572,
            "lng": 13.2812700001105
          },
          "source": "grid3",
          "verified": true
        },
        {
          "type": "mosque",
          "name": "Yituwakura Central Mosque",
          "slug": "yituwakura-central-mosque-mosque",
          "coordinates": {
            "lat": 13.6134499996178,
            "lng": 13.2596500004472
          },
          "source": "grid3",
          "verified": true
        },
        {
          "type": "mosque",
          "name": "Yowo Arege Mosque",
          "slug": "yowo-arege-mosque-mosque",
          "coordinates": {
            "lat": 13.4570899998037,
            "lng": 13.2056600000091
          },
          "source": "grid3",
          "verified": true
        },
        {
          "type": "mosque",
          "name": "Bula Njila A Central Mosque",
          "slug": "bula-njila-a-central-mosque-mosque",
          "coordinates": {
            "lat": 13.5222300000145,
            "lng": 13.0213000003948
          },
          "source": "grid3",
          "verified": true
        },
        {
          "type": "mosque",
          "name": "Bulagana Jumma'a Mosque",
          "slug": "bulagana-jumma-a-mosque-mosque",
          "coordinates": {
            "lat": 13.6536899999936,
            "lng": 13.3034199999331
          },
          "source": "grid3",
          "verified": true
        },
        {
          "type": "mosque",
          "name": "Bulamaduri Jumma'a Mosque",
          "slug": "bulamaduri-jumma-a-mosque-mosque",
          "coordinates": {
            "lat": 13.4610600003188,
            "lng": 12.9872500003872
          },
          "source": "grid3",
          "verified": true
        }
      ]
    },
    {
      "name": "Askira/Uba",
      "slug": "borno-askira-uba",
      "markets": [],
      "facilities": [
        {
          "type": "health_facility",
          "name": "Uba Primary Health Center",
          "slug": "uba-primary-health-center-health-facility",
          "coordinates": {
            "lat": 10.4589969996,
            "lng": 13.2138180004
          },
          "source": "grid3",
          "verified": true,
          "metadata": {
            "facility_level": "Primary",
            "facility_level_option": "Primary Health Center",
            "ownership": "Public",
            "ownership_type": "Local Government"
          }
        },
        {
          "type": "health_facility",
          "name": "Ngulde Comprehensive Health Center",
          "slug": "ngulde-comprehensive-health-center-health-facility",
          "coordinates": {
            "lat": 10.6323430004,
            "lng": 12.5458080005
          },
          "source": "grid3",
          "verified": true,
          "metadata": {
            "facility_level": "Primary",
            "facility_level_option": "Primary Health Center",
            "ownership": "Public",
            "ownership_type": "Local Government"
          }
        },
        {
          "type": "health_facility",
          "name": "Tampul Primary Health Clinic",
          "slug": "tampul-primary-health-clinic-health-facility",
          "coordinates": {
            "lat": 10.5775450001,
            "lng": 13.2230459996
          },
          "source": "grid3",
          "verified": true,
          "metadata": {
            "facility_level": "Primary",
            "facility_level_option": "Primary Health Clinic",
            "ownership": "Public",
            "ownership_type": "Local Government"
          }
        },
        {
          "type": "health_facility",
          "name": "Askira Primary Health Care Center",
          "slug": "askira-primary-health-care-center-health-facility",
          "coordinates": {
            "lat": 10.649427,
            "lng": 12.9108040005
          },
          "source": "grid3",
          "verified": true,
          "metadata": {
            "facility_level": "Primary",
            "facility_level_option": "Primary Health Center",
            "ownership": "Public",
            "ownership_type": "Local Government"
          }
        },
        {
          "type": "health_facility",
          "name": "Walafa Health Post",
          "slug": "walafa-health-post-health-facility",
          "coordinates": {
            "lat": 10.7773579999,
            "lng": 13.3099039997
          },
          "source": "grid3",
          "verified": true,
          "metadata": {
            "facility_level": "Primary",
            "facility_level_option": "Health Post",
            "ownership": "Public",
            "ownership_type": "Local Government"
          }
        },
        {
          "type": "health_facility",
          "name": "Rumirgo Federal Model Health Center",
          "slug": "rumirgo-federal-model-health-center-health-facility",
          "coordinates": {
            "lat": 10.5897230004,
            "lng": 13.0422859998
          },
          "source": "grid3",
          "verified": true,
          "metadata": {
            "facility_level": "Primary",
            "facility_level_option": "Primary Health Center",
            "ownership": "Public",
            "ownership_type": "Local Government"
          }
        },
        {
          "type": "health_facility",
          "name": "Muffa Primary Health Clinic",
          "slug": "muffa-primary-health-clinic-health-facility",
          "coordinates": {
            "lat": 10.4562479997,
            "lng": 13.2021960005
          },
          "source": "grid3",
          "verified": true,
          "metadata": {
            "facility_level": "Primary",
            "facility_level_option": "Primary Health Clinic",
            "ownership": "Public",
            "ownership_type": "Local Government"
          }
        },
        {
          "type": "health_facility",
          "name": "Kuma Health Post",
          "slug": "kuma-health-post-health-facility",
          "coordinates": {
            "lat": 10.41587624,
            "lng": 13.19606878
          },
          "source": "grid3",
          "verified": true,
          "metadata": {
            "facility_level": "Primary",
            "facility_level_option": "Health Post",
            "ownership": "Public",
            "ownership_type": "Local Government"
          }
        },
        {
          "type": "health_facility",
          "name": "Zadawa Primary Health Care Center",
          "slug": "zadawa-primary-health-care-center-health-facility",
          "coordinates": {
            "lat": 10.64694,
            "lng": 12.89444
          },
          "source": "grid3",
          "verified": true,
          "metadata": {
            "facility_level": "Primary",
            "facility_level_option": "Primary Health Clinic",
            "ownership": "Public",
            "ownership_type": "Local Government"
          }
        },
        {
          "type": "health_facility",
          "name": "Hussara Primary Health Center",
          "slug": "hussara-primary-health-center-health-facility",
          "coordinates": {
            "lat": 10.49861,
            "lng": 13.23694
          },
          "source": "grid3",
          "verified": true,
          "metadata": {
            "facility_level": "Primary",
            "facility_level_option": "Primary Health Center",
            "ownership": "Public",
            "ownership_type": "Local Government"
          }
        },
        {
          "type": "health_facility",
          "name": "Giwi Primary Health Clinic",
          "slug": "giwi-primary-health-clinic-health-facility",
          "coordinates": {
            "lat": 10.5089079995,
            "lng": 13.1055049998
          },
          "source": "grid3",
          "verified": true,
          "metadata": {
            "facility_level": "Primary",
            "facility_level_option": "Primary Health Clinic",
            "ownership": "Public",
            "ownership_type": "Local Government"
          }
        },
        {
          "type": "health_facility",
          "name": "Ngohi Primary Health Center",
          "slug": "ngohi-primary-health-center-health-facility",
          "coordinates": {
            "lat": 10.6713599999,
            "lng": 12.6899480004
          },
          "source": "grid3",
          "verified": true,
          "metadata": {
            "facility_level": "Primary",
            "facility_level_option": "Primary Health Center",
            "ownership": "Public",
            "ownership_type": "Local Government"
          }
        },
        {
          "type": "health_facility",
          "name": "Lassa General Hospital",
          "slug": "lassa-general-hospital-health-facility",
          "coordinates": {
            "lat": 10.6802769999,
            "lng": 13.2673949998
          },
          "source": "grid3",
          "verified": true,
          "metadata": {
            "facility_level": "Secondary",
            "facility_level_option": "Primary Health Center",
            "ownership": "Public",
            "ownership_type": "State Government"
          }
        },
        {
          "type": "health_facility",
          "name": "Kilarangal Primary Health Clinic",
          "slug": "kilarangal-primary-health-clinic-health-facility",
          "coordinates": {
            "lat": 10.7052809999,
            "lng": 12.7641539998
          },
          "source": "grid3",
          "verified": true,
          "metadata": {
            "facility_level": "Primary",
            "facility_level_option": "Primary Health Clinic",
            "ownership": "Public",
            "ownership_type": "Local Government"
          }
        },
        {
          "type": "health_facility",
          "name": "Grambal Health Clinic",
          "slug": "grambal-health-clinic-health-facility",
          "coordinates": {
            "lat": 10.6876339999,
            "lng": 12.5751330004
          },
          "source": "grid3",
          "verified": true,
          "metadata": {
            "facility_level": "Primary",
            "facility_level_option": "Primary Health Clinic",
            "ownership": "Public",
            "ownership_type": "Local Government"
          }
        },
        {
          "type": "health_facility",
          "name": "Leho A Health Post",
          "slug": "leho-a-health-post-health-facility",
          "coordinates": {
            "lat": 10.7040100001,
            "lng": 12.8460999995
          },
          "source": "grid3",
          "verified": true,
          "metadata": {
            "facility_level": "Primary",
            "facility_level_option": "Health Post",
            "ownership": "Public",
            "ownership_type": "Local Government"
          }
        },
        {
          "type": "health_facility",
          "name": "Yimir Ali Health Clinic",
          "slug": "yimir-ali-health-clinic-health-facility",
          "coordinates": {
            "lat": 10.6117210004,
            "lng": 12.9947989996
          },
          "source": "grid3",
          "verified": true,
          "metadata": {
            "facility_level": "Primary",
            "facility_level_option": "Primary Health Clinic",
            "ownership": "Public",
            "ownership_type": "Local Government"
          }
        },
        {
          "type": "health_facility",
          "name": "Dille Primary Health Center",
          "slug": "dille-primary-health-center-health-facility",
          "coordinates": {
            "lat": 10.74811,
            "lng": 13.2180100002
          },
          "source": "grid3",
          "verified": true,
          "metadata": {
            "facility_level": "Primary",
            "facility_level_option": "Primary Health Center",
            "ownership": "Public",
            "ownership_type": "Local Government"
          }
        },
        {
          "type": "health_facility",
          "name": "Wamdeo Primary Health Center",
          "slug": "wamdeo-primary-health-center-health-facility",
          "coordinates": {
            "lat": 10.5212999999,
            "lng": 13.1366099999
          },
          "source": "grid3",
          "verified": true,
          "metadata": {
            "facility_level": "Primary",
            "facility_level_option": "Primary Health Center",
            "ownership": "Public",
            "ownership_type": "Local Government"
          }
        },
        {
          "type": "health_facility",
          "name": "Askira General Hospital",
          "slug": "askira-general-hospital-health-facility",
          "coordinates": {
            "lat": 10.6566399999,
            "lng": 12.9078999995
          },
          "source": "grid3",
          "verified": true,
          "metadata": {
            "facility_level": "Secondary",
            "facility_level_option": "General Hospital",
            "ownership": "Public",
            "ownership_type": "State Government"
          }
        },
        {
          "type": "health_facility",
          "name": "Mussa Primary Health Center",
          "slug": "mussa-primary-health-center-health-facility",
          "coordinates": {
            "lat": 10.7418349998,
            "lng": 13.1276449998
          },
          "source": "grid3",
          "verified": true,
          "metadata": {
            "facility_level": "Primary",
            "facility_level_option": "Primary Health Center",
            "ownership": "Public",
            "ownership_type": "Local Government"
          }
        },
        {
          "type": "health_facility",
          "name": "Chull Primary Health Care Center",
          "slug": "chull-primary-health-care-center-health-facility",
          "coordinates": {
            "lat": 10.6159170002,
            "lng": 13.1317569996
          },
          "source": "grid3",
          "verified": true,
          "metadata": {
            "facility_level": "Primary",
            "facility_level_option": "Primary Health Center",
            "ownership": "Public",
            "ownership_type": "Local Government"
          }
        },
        {
          "type": "health_facility",
          "name": "Uvu Primary Health Center",
          "slug": "uvu-primary-health-center-health-facility",
          "coordinates": {
            "lat": 10.49786667,
            "lng": 13.129125
          },
          "source": "grid3",
          "verified": true,
          "metadata": {
            "facility_level": "Primary",
            "facility_level_option": "Primary Health Center",
            "ownership": "Public",
            "ownership_type": "Local Government"
          }
        },
        {
          "type": "health_facility",
          "name": "Dille Health Post",
          "slug": "dille-health-post-health-facility",
          "coordinates": {
            "lat": 10.4453,
            "lng": 13.136
          },
          "source": "grid3",
          "verified": true,
          "metadata": {
            "facility_level": "Primary",
            "facility_level_option": "Health Post",
            "ownership": "Unknown",
            "ownership_type": "Unknown"
          }
        },
        {
          "type": "health_facility",
          "name": "Ngurthavu Primary Health Center",
          "slug": "ngurthavu-primary-health-center-health-facility",
          "coordinates": {
            "lat": 10.77037167,
            "lng": 13.27278167
          },
          "source": "grid3",
          "verified": true,
          "metadata": {
            "facility_level": "Primary",
            "facility_level_option": "Primary Health Center",
            "ownership": "Unknown",
            "ownership_type": "Unknown"
          }
        },
        {
          "type": "health_facility",
          "name": "Leho A Temp Health Post",
          "slug": "leho-a-temp-health-post-health-facility",
          "coordinates": {
            "lat": 10.70306,
            "lng": 12.845
          },
          "source": "grid3",
          "verified": true,
          "metadata": {
            "facility_level": "Primary",
            "facility_level_option": "Health Post",
            "ownership": "Unknown",
            "ownership_type": "Unknown"
          }
        },
        {
          "type": "health_facility",
          "name": "Kithludula Primary Health Care Clinic",
          "slug": "kithludula-primary-health-care-clinic-health-facility",
          "coordinates": {
            "lat": 10.64833,
            "lng": 13.11972
          },
          "source": "grid3",
          "verified": true,
          "metadata": {
            "facility_level": "Primary",
            "facility_level_option": "Primary Health Center",
            "ownership": "Unknown",
            "ownership_type": "Unknown"
          }
        },
        {
          "type": "health_facility",
          "name": "Gwandawa Health Post",
          "slug": "gwandawa-health-post-health-facility",
          "coordinates": {
            "lat": 10.65092,
            "lng": 13.0432999995
          },
          "source": "grid3",
          "verified": true,
          "metadata": {
            "facility_level": "Primary",
            "facility_level_option": "Health Post",
            "ownership": "Public",
            "ownership_type": "Unknown"
          }
        },
        {
          "type": "health_facility",
          "name": "Ngurihiarvu Health Post",
          "slug": "ngurihiarvu-health-post-health-facility",
          "coordinates": {
            "lat": 10.76123,
            "lng": 13.2623500003
          },
          "source": "grid3",
          "verified": true,
          "metadata": {
            "facility_level": "Primary",
            "facility_level_option": "Health Post",
            "ownership": "Public",
            "ownership_type": "Unknown"
          }
        },
        {
          "type": "health_facility",
          "name": "Rumirgo Model Primary Health Center",
          "slug": "rumirgo-model-primary-health-center-health-facility",
          "coordinates": {
            "lat": 10.6581687705,
            "lng": 12.9101718562
          },
          "source": "grid3",
          "verified": true,
          "metadata": {
            "facility_level": "Primary",
            "facility_level_option": "Primary Health Center",
            "ownership": "Public",
            "ownership_type": "Unknown"
          }
        },
        {
          "type": "health_facility",
          "name": "Rimigo Federal Medical Center",
          "slug": "rimigo-federal-medical-center-health-facility",
          "coordinates": {
            "lat": 10.737657391,
            "lng": 13.1323426329
          },
          "source": "grid3",
          "verified": true,
          "metadata": {
            "facility_level": "Secondary",
            "facility_level_option": "Unknown",
            "ownership": "Public",
            "ownership_type": "Unknown"
          }
        },
        {
          "type": "health_facility",
          "name": "Kopa Health Post",
          "slug": "kopa-health-post-health-facility",
          "coordinates": {
            "lat": 10.75944,
            "lng": 13.3125
          },
          "source": "grid3",
          "verified": true,
          "metadata": {
            "facility_level": "Primary",
            "facility_level_option": "Health Post",
            "ownership": "Unknown",
            "ownership_type": "Unknown"
          }
        },
        {
          "type": "health_facility",
          "name": "Barka Clinic",
          "slug": "barka-clinic-health-facility",
          "coordinates": {
            "lat": 10.46051025,
            "lng": 13.22412109
          },
          "source": "grid3",
          "verified": true,
          "metadata": {
            "facility_level": "Primary",
            "facility_level_option": "Primary Health Center",
            "ownership": "Private",
            "ownership_type": "Unknown"
          }
        },
        {
          "type": "health_facility",
          "name": "Dzakwa Health Post",
          "slug": "dzakwa-health-post-health-facility-2",
          "coordinates": {
            "lat": 10.46003,
            "lng": 13.16301
          },
          "source": "grid3",
          "verified": true,
          "metadata": {
            "facility_level": "Primary",
            "facility_level_option": "Health Post",
            "ownership": "Public",
            "ownership_type": "Unknown"
          }
        },
        {
          "type": "health_facility",
          "name": "Shuwari Health Post",
          "slug": "shuwari-health-post-health-facility",
          "coordinates": {
            "lat": 10.80072022,
            "lng": 13.33447266
          },
          "source": "grid3",
          "verified": true,
          "metadata": {
            "facility_level": "Primary",
            "facility_level_option": "Health Post",
            "ownership": "Public",
            "ownership_type": "Unknown"
          }
        },
        {
          "type": "health_facility",
          "name": "Chull Temp Primary Health Center",
          "slug": "chull-temp-primary-health-center-health-facility",
          "coordinates": {
            "lat": 10.61528,
            "lng": 13.13167
          },
          "source": "grid3",
          "verified": true,
          "metadata": {
            "facility_level": "Primary",
            "facility_level_option": "Primary Health Center",
            "ownership": "Unknown",
            "ownership_type": "Unknown"
          }
        },
        {
          "type": "health_facility",
          "name": "Dumde Mugaire Health Center",
          "slug": "dumde-mugaire-health-center-health-facility",
          "coordinates": {
            "lat": 10.45844718,
            "lng": 13.22693467
          },
          "source": "grid3",
          "verified": true,
          "metadata": {
            "facility_level": "Primary",
            "facility_level_option": "Primary Health Center",
            "ownership": "Public",
            "ownership_type": "Unknown"
          }
        },
        {
          "type": "health_facility",
          "name": "Mussa A Primary Health Center",
          "slug": "mussa-a-primary-health-center-health-facility",
          "coordinates": {
            "lat": 10.7098679166,
            "lng": 13.1154866023
          },
          "source": "grid3",
          "verified": true,
          "metadata": {
            "facility_level": "Primary",
            "facility_level_option": "Primary Health Center",
            "ownership": "Public",
            "ownership_type": "Unknown"
          }
        },
        {
          "type": "health_facility",
          "name": "Rumirgo Health Post",
          "slug": "rumirgo-health-post-health-facility",
          "coordinates": {
            "lat": 10.6016599995,
            "lng": 13.0254700004
          },
          "source": "grid3",
          "verified": true,
          "metadata": {
            "facility_level": "Primary",
            "facility_level_option": "Health Post",
            "ownership": "Public",
            "ownership_type": "Unknown"
          }
        },
        {
          "type": "health_facility",
          "name": "Bula Kudugu Health Post",
          "slug": "bula-kudugu-health-post-health-facility",
          "coordinates": {
            "lat": 10.7040200001,
            "lng": 12.7390199998
          },
          "source": "grid3",
          "verified": true,
          "metadata": {
            "facility_level": "Primary",
            "facility_level_option": "Health Post",
            "ownership": "Public",
            "ownership_type": "Unknown"
          }
        },
        {
          "type": "health_facility",
          "name": "Rumirgo Model Primary Health Center",
          "slug": "rumirgo-model-primary-health-center-health-facility-2",
          "coordinates": {
            "lat": 10.6022601742,
            "lng": 13.0314159703
          },
          "source": "grid3",
          "verified": true,
          "metadata": {
            "facility_level": "Primary",
            "facility_level_option": "Primary Health Center",
            "ownership": "Public",
            "ownership_type": "Unknown"
          }
        },
        {
          "type": "health_facility",
          "name": "Leho B Temp Health Post",
          "slug": "leho-b-temp-health-post-health-facility",
          "coordinates": {
            "lat": 10.70694,
            "lng": 12.81667
          },
          "source": "grid3",
          "verified": true,
          "metadata": {
            "facility_level": "Primary",
            "facility_level_option": "Health Post",
            "ownership": "Public",
            "ownership_type": "Unknown"
          }
        },
        {
          "type": "health_facility",
          "name": "Tampul Temp Health Post",
          "slug": "tampul-temp-health-post-health-facility",
          "coordinates": {
            "lat": 10.57833,
            "lng": 13.22194
          },
          "source": "grid3",
          "verified": true,
          "metadata": {
            "facility_level": "Primary",
            "facility_level_option": "Health Post",
            "ownership": "Public",
            "ownership_type": "Unknown"
          }
        },
        {
          "type": "health_facility",
          "name": "Uda Adamawa Health Post",
          "slug": "uda-adamawa-health-post-health-facility",
          "coordinates": {
            "lat": 10.4971140005,
            "lng": 13.082345
          },
          "source": "grid3",
          "verified": true,
          "metadata": {
            "facility_level": "Primary",
            "facility_level_option": "Health Post",
            "ownership": "Public",
            "ownership_type": "Unknown"
          }
        },
        {
          "type": "health_facility",
          "name": "Eyn Primary Health Center",
          "slug": "eyn-primary-health-center-health-facility",
          "coordinates": {
            "lat": 10.5322200003,
            "lng": 13.1230099997
          },
          "source": "grid3",
          "verified": true,
          "metadata": {
            "facility_level": "Primary",
            "facility_level_option": "Primary Health Center",
            "ownership": "Private",
            "ownership_type": "Unknown"
          }
        },
        {
          "type": "health_facility",
          "name": "Ngulde Health Post",
          "slug": "ngulde-health-post-health-facility",
          "coordinates": {
            "lat": 10.6366300003,
            "lng": 12.5547099995
          },
          "source": "grid3",
          "verified": true,
          "metadata": {
            "facility_level": "Primary",
            "facility_level_option": "Health Post",
            "ownership": "Public",
            "ownership_type": "Unknown"
          }
        },
        {
          "type": "health_facility",
          "name": "Uba Health Post",
          "slug": "uba-health-post-health-facility",
          "coordinates": {
            "lat": 10.4540300002,
            "lng": 13.2062700002
          },
          "source": "grid3",
          "verified": true,
          "metadata": {
            "facility_level": "Primary",
            "facility_level_option": "Health Post",
            "ownership": "Public",
            "ownership_type": "Unknown"
          }
        },
        {
          "type": "health_facility",
          "name": "Eyn Health Post",
          "slug": "eyn-health-post-health-facility-2",
          "coordinates": {
            "lat": 10.71314,
            "lng": 13.11746
          },
          "source": "grid3",
          "verified": true,
          "metadata": {
            "facility_level": "Unknown",
            "facility_level_option": "Unknown",
            "ownership": "Private",
            "ownership_type": "Unknown"
          }
        },
        {
          "type": "health_facility",
          "name": "Kelle Health Post",
          "slug": "kelle-health-post-health-facility-2",
          "coordinates": {
            "lat": 10.69348145,
            "lng": 13.20410156
          },
          "source": "grid3",
          "verified": true,
          "metadata": {
            "facility_level": "Unknown",
            "facility_level_option": "Unknown",
            "ownership": "Public",
            "ownership_type": "Unknown"
          }
        },
        {
          "type": "health_facility",
          "name": "Kurgi Primary Health Clinic",
          "slug": "kurgi-primary-health-clinic-health-facility",
          "coordinates": {
            "lat": 10.48297,
            "lng": 13.19736
          },
          "source": "grid3",
          "verified": true,
          "metadata": {
            "facility_level": "Primary",
            "facility_level_option": "Health Post",
            "ownership": "Public",
            "ownership_type": "Local Government"
          }
        },
        {
          "type": "health_facility",
          "name": "Kwahyeli Primary Health Clinic",
          "slug": "kwahyeli-primary-health-clinic-health-facility",
          "coordinates": {
            "lat": 10.47926,
            "lng": 13.04556
          },
          "source": "grid3",
          "verified": true,
          "metadata": {
            "facility_level": "Primary",
            "facility_level_option": "Health Post",
            "ownership": "Public",
            "ownership_type": "Local Government"
          }
        },
        {
          "type": "health_facility",
          "name": "Wamdeo E Y N Primary Health Clinic",
          "slug": "wamdeo-e-y-n-primary-health-clinic-health-facility",
          "coordinates": {
            "lat": 10.53207,
            "lng": 13.12297
          },
          "source": "grid3",
          "verified": true,
          "metadata": {
            "facility_level": "Primary",
            "facility_level_option": "Primary Health Clinic",
            "ownership": "Private",
            "ownership_type": "For Profit"
          }
        },
        {
          "type": "health_facility",
          "name": "Udah Primary Health Center",
          "slug": "udah-primary-health-center-health-facility",
          "coordinates": {
            "lat": 10.49713,
            "lng": 13.08224
          },
          "source": "grid3",
          "verified": true,
          "metadata": {
            "facility_level": "Primary",
            "facility_level_option": "Primary Health Center",
            "ownership": "Public",
            "ownership_type": "Local Government"
          }
        },
        {
          "type": "health_facility",
          "name": "Samuwa Primary Health Clinic",
          "slug": "samuwa-primary-health-clinic-health-facility",
          "coordinates": {
            "lat": 10.67054,
            "lng": 13.27184
          },
          "source": "grid3",
          "verified": true,
          "metadata": {
            "facility_level": "Primary",
            "facility_level_option": "Primary Health Clinic",
            "ownership": "Public",
            "ownership_type": "Local Government"
          }
        },
        {
          "type": "health_facility",
          "name": "Sabon Gari Primary Health Clinic",
          "slug": "sabon-gari-primary-health-clinic-health-facility-6",
          "coordinates": {
            "lat": 10.62226,
            "lng": 13.19383
          },
          "source": "grid3",
          "verified": true,
          "metadata": {
            "facility_level": "Primary",
            "facility_level_option": "Primary Health Clinic",
            "ownership": "Public",
            "ownership_type": "Local Government"
          }
        }
      ]
    },
    {
      "name": "Bama",
      "slug": "borno-bama",
      "markets": [],
      "facilities": [
        {
          "type": "market",
          "name": "Kasuwar Kalamugdo",
          "slug": "kasuwar-kalamugdo-market",
          "coordinates": {
            "lat": 11.4720999999151,
            "lng": 14.4665600001439
          },
          "source": "grid3",
          "verified": true,
          "metadata": {
            "mrkt_days": "0"
          }
        },
        {
          "type": "market",
          "name": "Kasuwar Walasa",
          "slug": "kasuwar-walasa-market",
          "coordinates": {
            "lat": 11.573940000031,
            "lng": 14.2386799999821
          },
          "source": "grid3",
          "verified": true,
          "metadata": {
            "mrkt_days": "0"
          }
        },
        {
          "type": "market",
          "name": "Kasuwar Kumshe",
          "slug": "kasuwar-kumshe-market",
          "coordinates": {
            "lat": 11.3547199999281,
            "lng": 14.2109300000195
          },
          "source": "grid3",
          "verified": true,
          "metadata": {
            "mrkt_days": "0"
          }
        },
        {
          "type": "market",
          "name": "Kasuwar Tofa",
          "slug": "kasuwar-tofa-market",
          "coordinates": {
            "lat": 11.3055699996558,
            "lng": 14.0352200000031
          },
          "source": "grid3",
          "verified": true,
          "metadata": {
            "mrkt_days": "0"
          }
        },
        {
          "type": "market",
          "name": "Kasuwar Ngusuwa",
          "slug": "kasuwar-ngusuwa-market",
          "coordinates": {
            "lat": 11.6378300001545,
            "lng": 13.8888100003813
          },
          "source": "grid3",
          "verified": true,
          "metadata": {
            "mrkt_days": "0"
          }
        },
        {
          "type": "market",
          "name": "Kasuwar Jebra",
          "slug": "kasuwar-jebra-market",
          "coordinates": {
            "lat": 11.3985599999441,
            "lng": 13.7642700002604
          },
          "source": "grid3",
          "verified": true,
          "metadata": {
            "mrkt_days": "0"
          }
        },
        {
          "type": "market",
          "name": "Kasuwar Bem Bem",
          "slug": "kasuwar-bem-bem-market",
          "coordinates": {
            "lat": 11.4137899999086,
            "lng": 14.3227499999126
          },
          "source": "grid3",
          "verified": true,
          "metadata": {
            "mrkt_days": "0"
          }
        },
        {
          "type": "market",
          "name": "Kasuwar Yale Garu",
          "slug": "kasuwar-yale-garu-market",
          "coordinates": {
            "lat": 11.7071499997727,
            "lng": 13.7067400002509
          },
          "source": "grid3",
          "verified": true,
          "metadata": {
            "mrkt_days": "0"
          }
        },
        {
          "type": "market",
          "name": "Kasuwar Mayanti",
          "slug": "kasuwar-mayanti-market",
          "coordinates": {
            "lat": 11.3766799999821,
            "lng": 13.8750400002958
          },
          "source": "grid3",
          "verified": true,
          "metadata": {
            "mrkt_days": "0"
          }
        },
        {
          "type": "market",
          "name": "Kasuwar Kote Mamman",
          "slug": "kasuwar-kote-mamman-market",
          "coordinates": {
            "lat": 11.4160800002919,
            "lng": 14.0484399999061
          },
          "source": "grid3",
          "verified": true,
          "metadata": {
            "mrkt_days": "0"
          }
        },
        {
          "type": "market",
          "name": "Kasuwar Kashimiri",
          "slug": "kasuwar-kashimiri-market",
          "coordinates": {
            "lat": 11.6101400002609,
            "lng": 13.9572800003718
          },
          "source": "grid3",
          "verified": true,
          "metadata": {
            "mrkt_days": "0"
          }
        },
        {
          "type": "market",
          "name": "Kasuwar Jere",
          "slug": "kasuwar-jere-market",
          "coordinates": {
            "lat": 11.3887600003738,
            "lng": 13.9466199998132
          },
          "source": "grid3",
          "verified": true,
          "metadata": {
            "mrkt_days": "0"
          }
        },
        {
          "type": "market",
          "name": "Kasuwar Gulumba",
          "slug": "kasuwar-gulumba-market",
          "coordinates": {
            "lat": 11.6496799998322,
            "lng": 14.1029300000195
          },
          "source": "grid3",
          "verified": true,
          "metadata": {
            "mrkt_days": "0"
          }
        },
        {
          "type": "market",
          "name": "Kasuwar Bolingo",
          "slug": "kasuwar-bolingo-market",
          "coordinates": {
            "lat": 11.433100000065,
            "lng": 13.7932199998032
          },
          "source": "grid3",
          "verified": true,
          "metadata": {
            "mrkt_days": "0"
          }
        },
        {
          "type": "market",
          "name": "Kasuwar Banki",
          "slug": "kasuwar-banki-market",
          "coordinates": {
            "lat": 11.2549899999885,
            "lng": 14.1516799998322
          },
          "source": "grid3",
          "verified": true,
          "metadata": {
            "mrkt_days": "0"
          }
        },
        {
          "type": "market",
          "name": "Kasuwar Cattle Market Bama",
          "slug": "kasuwar-cattle-market-bama-market",
          "coordinates": {
            "lat": 11.5404899998137,
            "lng": 13.6864299998447
          },
          "source": "grid3",
          "verified": true,
          "metadata": {
            "mrkt_days": "0"
          }
        },
        {
          "type": "health_facility",
          "name": "Naf Emergency Hospital",
          "slug": "naf-emergency-hospital-health-facility",
          "coordinates": {
            "lat": 11.529405,
            "lng": 13.688382
          },
          "source": "grid3",
          "verified": true,
          "metadata": {
            "facility_level": "Secondary",
            "facility_level_option": "Unknown",
            "ownership": "Public",
            "ownership_type": "Military & Paramilitary formations"
          }
        },
        {
          "type": "health_facility",
          "name": "Bama Maternity and  Child Health Clinic",
          "slug": "bama-maternity-and-child-health-clinic-health-facility",
          "coordinates": {
            "lat": 11.5049000002,
            "lng": 13.6719899997
          },
          "source": "grid3",
          "verified": true,
          "metadata": {
            "facility_level": "Primary",
            "facility_level_option": "Primary Health Clinic",
            "ownership": "Public",
            "ownership_type": "Local Government"
          }
        },
        {
          "type": "health_facility",
          "name": "Bama General Hospital",
          "slug": "bama-general-hospital-health-facility",
          "coordinates": {
            "lat": 11.530622,
            "lng": 13.688927
          },
          "source": "grid3",
          "verified": true,
          "metadata": {
            "facility_level": "Secondary",
            "facility_level_option": "General Hospital",
            "ownership": "Public",
            "ownership_type": "State Government"
          }
        },
        {
          "type": "health_facility",
          "name": "Banki Bulabulin Lawanti Primary Health Clinic",
          "slug": "banki-bulabulin-lawanti-primary-health-clinic-health-facility",
          "coordinates": {
            "lat": 11.2489100003,
            "lng": 14.150777
          },
          "source": "grid3",
          "verified": true,
          "metadata": {
            "facility_level": "Primary",
            "facility_level_option": "Primary Health Clinic",
            "ownership": "Public",
            "ownership_type": "Local Government"
          }
        },
        {
          "type": "health_facility",
          "name": "Banki Idps Camp Clinic",
          "slug": "banki-idps-camp-clinic-health-facility",
          "coordinates": {
            "lat": 11.25611656,
            "lng": 14.15264527
          },
          "source": "grid3",
          "verified": true,
          "metadata": {
            "facility_level": "Primary",
            "facility_level_option": "Primary Health Clinic",
            "ownership": "Public",
            "ownership_type": "Local Government"
          }
        },
        {
          "type": "health_facility",
          "name": "Bama Skin Clinic",
          "slug": "bama-skin-clinic-health-facility",
          "coordinates": {
            "lat": 11.52612305,
            "lng": 13.68847656
          },
          "source": "grid3",
          "verified": true,
          "metadata": {
            "facility_level": "Primary",
            "facility_level_option": "Primary Health Clinic",
            "ownership": "Public",
            "ownership_type": "Local Government"
          }
        },
        {
          "type": "health_facility",
          "name": "Bama Emirate 21 Brigade Health Clinic",
          "slug": "bama-emirate-21-brigade-health-clinic-health-facility",
          "coordinates": {
            "lat": 11.5167700003,
            "lng": 13.6852599997
          },
          "source": "grid3",
          "verified": true,
          "metadata": {
            "facility_level": "Primary",
            "facility_level_option": "Primary Health Clinic",
            "ownership": "Public",
            "ownership_type": "Local Government"
          }
        },
        {
          "type": "health_facility",
          "name": "Tandari Fsp Health Clinic",
          "slug": "tandari-fsp-health-clinic-health-facility",
          "coordinates": {
            "lat": 11.5282200001,
            "lng": 13.6948400002
          },
          "source": "grid3",
          "verified": true,
          "metadata": {
            "facility_level": "Primary",
            "facility_level_option": "Primary Health Clinic",
            "ownership": "Public",
            "ownership_type": "Local Government"
          }
        },
        {
          "type": "health_facility",
          "name": "Gssss Bama Idps Camp Clinic",
          "slug": "gssss-bama-idps-camp-clinic-health-facility",
          "coordinates": {
            "lat": 11.507935,
            "lng": 13.687255
          },
          "source": "grid3",
          "verified": true,
          "metadata": {
            "facility_level": "Primary",
            "facility_level_option": "Primary Health Clinic",
            "ownership": "Public",
            "ownership_type": "Local Government"
          }
        },
        {
          "type": "health_facility",
          "name": "Mal Mastari Health Center",
          "slug": "mal-mastari-health-center-health-facility",
          "coordinates": {
            "lat": 11.6356100001,
            "lng": 13.6778599997
          },
          "source": "grid3",
          "verified": true,
          "metadata": {
            "facility_level": "Primary",
            "facility_level_option": "Primary Health Center",
            "ownership": "Public",
            "ownership_type": "Unknown"
          }
        },
        {
          "type": "health_facility",
          "name": "Buluugu Health Center",
          "slug": "buluugu-health-center-health-facility",
          "coordinates": {
            "lat": 11.4337299999,
            "lng": 13.7936800004
          },
          "source": "grid3",
          "verified": true,
          "metadata": {
            "facility_level": "Primary",
            "facility_level_option": "Primary Health Center",
            "ownership": "Public",
            "ownership_type": "Unknown"
          }
        },
        {
          "type": "health_facility",
          "name": "Zangori Primary Health Center",
          "slug": "zangori-primary-health-center-health-facility",
          "coordinates": {
            "lat": 11.65468,
            "lng": 14.1288900001
          },
          "source": "grid3",
          "verified": true,
          "metadata": {
            "facility_level": "Primary",
            "facility_level_option": "Primary Health Center",
            "ownership": "Public",
            "ownership_type": "Unknown"
          }
        },
        {
          "type": "health_facility",
          "name": "Andara Health Post",
          "slug": "andara-health-post-health-facility",
          "coordinates": {
            "lat": 11.49828,
            "lng": 14.23095
          },
          "source": "grid3",
          "verified": true,
          "metadata": {
            "facility_level": "Primary",
            "facility_level_option": "Health Post",
            "ownership": "Unknown",
            "ownership_type": "Unknown"
          }
        },
        {
          "type": "health_facility",
          "name": "Bem Bem Health Post",
          "slug": "bem-bem-health-post-health-facility",
          "coordinates": {
            "lat": 11.33848,
            "lng": 14.23034
          },
          "source": "grid3",
          "verified": true,
          "metadata": {
            "facility_level": "Primary",
            "facility_level_option": "Health Post",
            "ownership": "Unknown",
            "ownership_type": "Unknown"
          }
        },
        {
          "type": "health_facility",
          "name": "Banki Idp Camp Clinic",
          "slug": "banki-idp-camp-clinic-health-facility",
          "coordinates": {
            "lat": 11.35061,
            "lng": 14.2644
          },
          "source": "grid3",
          "verified": true,
          "metadata": {
            "facility_level": "Primary",
            "facility_level_option": "Primary Health Center",
            "ownership": "Unknown",
            "ownership_type": "Unknown"
          }
        },
        {
          "type": "health_facility",
          "name": "Umarye Health Post",
          "slug": "umarye-health-post-health-facility",
          "coordinates": {
            "lat": 11.7063249567,
            "lng": 13.857445655
          },
          "source": "grid3",
          "verified": true,
          "metadata": {
            "facility_level": "Primary",
            "facility_level_option": "Health Post",
            "ownership": "Unknown",
            "ownership_type": "Unknown"
          }
        },
        {
          "type": "health_facility",
          "name": "Jere Health Post",
          "slug": "jere-health-post-health-facility",
          "coordinates": {
            "lat": 11.2426797531,
            "lng": 14.1753242872
          },
          "source": "grid3",
          "verified": true,
          "metadata": {
            "facility_level": "Primary",
            "facility_level_option": "Health Post",
            "ownership": "Unknown",
            "ownership_type": "Unknown"
          }
        },
        {
          "type": "health_facility",
          "name": "Walasa Health Post",
          "slug": "walasa-health-post-health-facility",
          "coordinates": {
            "lat": 11.2621920311,
            "lng": 14.1391612214
          },
          "source": "grid3",
          "verified": true,
          "metadata": {
            "facility_level": "Primary",
            "facility_level_option": "Health Post",
            "ownership": "Unknown",
            "ownership_type": "Unknown"
          }
        },
        {
          "type": "health_facility",
          "name": "Briyel Maternal and Child Health",
          "slug": "briyel-maternal-and-child-health-health-facility",
          "coordinates": {
            "lat": 11.3863538068,
            "lng": 13.9486686424
          },
          "source": "grid3",
          "verified": true,
          "metadata": {
            "facility_level": "Primary",
            "facility_level_option": "Primary Health Center",
            "ownership": "Unknown",
            "ownership_type": "Unknown"
          }
        },
        {
          "type": "health_facility",
          "name": "Gama Dadi Health Post",
          "slug": "gama-dadi-health-post-health-facility",
          "coordinates": {
            "lat": 11.5751500265,
            "lng": 14.2366058727
          },
          "source": "grid3",
          "verified": true,
          "metadata": {
            "facility_level": "Primary",
            "facility_level_option": "Health Post",
            "ownership": "Unknown",
            "ownership_type": "Unknown"
          }
        },
        {
          "type": "health_facility",
          "name": "Gubili Health Post",
          "slug": "gubili-health-post-health-facility",
          "coordinates": {
            "lat": 11.5303379558,
            "lng": 13.6860806958
          },
          "source": "grid3",
          "verified": true,
          "metadata": {
            "facility_level": "Primary",
            "facility_level_option": "Health Post",
            "ownership": "Unknown",
            "ownership_type": "Unknown"
          }
        },
        {
          "type": "health_facility",
          "name": "Cocin Jebra Clinic",
          "slug": "cocin-jebra-clinic-health-facility",
          "coordinates": {
            "lat": 11.397709,
            "lng": 13.763332
          },
          "source": "grid3",
          "verified": true,
          "metadata": {
            "facility_level": "Unknown",
            "facility_level_option": "Unknown",
            "ownership": "Private",
            "ownership_type": "Unknown"
          }
        },
        {
          "type": "health_facility",
          "name": "Cocin Clinic",
          "slug": "cocin-clinic-health-facility-2",
          "coordinates": {
            "lat": 11.5109400003,
            "lng": 13.6883099998
          },
          "source": "grid3",
          "verified": true,
          "metadata": {
            "facility_level": "Primary",
            "facility_level_option": "Unknown",
            "ownership": "Private",
            "ownership_type": "Unknown"
          }
        },
        {
          "type": "health_facility",
          "name": "Borjino Health Center",
          "slug": "borjino-health-center-health-facility",
          "coordinates": {
            "lat": 11.5297400001,
            "lng": 14.1432699999
          },
          "source": "grid3",
          "verified": true,
          "metadata": {
            "facility_level": "Primary",
            "facility_level_option": "Primary Health Center",
            "ownership": "Public",
            "ownership_type": "Unknown"
          }
        },
        {
          "type": "health_facility",
          "name": "Modu Kimari Health Post",
          "slug": "modu-kimari-health-post-health-facility",
          "coordinates": {
            "lat": 11.7040861221,
            "lng": 13.8567536955
          },
          "source": "grid3",
          "verified": true,
          "metadata": {
            "facility_level": "Primary",
            "facility_level_option": "Health Post",
            "ownership": "Public",
            "ownership_type": "Unknown"
          }
        },
        {
          "type": "health_facility",
          "name": "Goni Kurmi Health Center",
          "slug": "goni-kurmi-health-center-health-facility",
          "coordinates": {
            "lat": 11.4767800001,
            "lng": 13.6315900002
          },
          "source": "grid3",
          "verified": true,
          "metadata": {
            "facility_level": "Primary",
            "facility_level_option": "Primary Health Center",
            "ownership": "Public",
            "ownership_type": "Unknown"
          }
        },
        {
          "type": "health_facility",
          "name": "Army Barracks Clinic",
          "slug": "army-barracks-clinic-health-facility",
          "coordinates": {
            "lat": 11.5484599998,
            "lng": 13.7380499996
          },
          "source": "grid3",
          "verified": true,
          "metadata": {
            "facility_level": "Secondary",
            "facility_level_option": "Unknown",
            "ownership": "Unknown",
            "ownership_type": "Unknown"
          }
        },
        {
          "type": "health_facility",
          "name": "Bula Galdaye Health Post",
          "slug": "bula-galdaye-health-post-health-facility",
          "coordinates": {
            "lat": 11.7012499997,
            "lng": 13.7582700003
          },
          "source": "grid3",
          "verified": true,
          "metadata": {
            "facility_level": "Primary",
            "facility_level_option": "Health Post",
            "ownership": "Public",
            "ownership_type": "Unknown"
          }
        },
        {
          "type": "health_facility",
          "name": "Jebra Health Center",
          "slug": "jebra-health-center-health-facility",
          "coordinates": {
            "lat": 11.3883900001,
            "lng": 13.94476
          },
          "source": "grid3",
          "verified": true,
          "metadata": {
            "facility_level": "Primary",
            "facility_level_option": "Primary Health Center",
            "ownership": "Public",
            "ownership_type": "Unknown"
          }
        },
        {
          "type": "health_facility",
          "name": "Kashimeri Health Center",
          "slug": "kashimeri-health-center-health-facility",
          "coordinates": {
            "lat": 11.6065200003,
            "lng": 13.9578499999
          },
          "source": "grid3",
          "verified": true,
          "metadata": {
            "facility_level": "Primary",
            "facility_level_option": "Primary Health Center",
            "ownership": "Public",
            "ownership_type": "Unknown"
          }
        },
        {
          "type": "health_facility",
          "name": "Durbe Health Post",
          "slug": "durbe-health-post-health-facility",
          "coordinates": {
            "lat": 11.7220269998,
            "lng": 14.0040290003
          },
          "source": "grid3",
          "verified": true,
          "metadata": {
            "facility_level": "Primary",
            "facility_level_option": "Health Post",
            "ownership": "Public",
            "ownership_type": "Unknown"
          }
        },
        {
          "type": "health_facility",
          "name": "Bogomari Health Center",
          "slug": "bogomari-health-center-health-facility",
          "coordinates": {
            "lat": 11.4944600001,
            "lng": 14.0180999998
          },
          "source": "grid3",
          "verified": true,
          "metadata": {
            "facility_level": "Primary",
            "facility_level_option": "Primary Health Center",
            "ownership": "Public",
            "ownership_type": "Unknown"
          }
        },
        {
          "type": "health_facility",
          "name": "Jabbari Health Post",
          "slug": "jabbari-health-post-health-facility",
          "coordinates": {
            "lat": 11.5390100004,
            "lng": 14.0579199999
          },
          "source": "grid3",
          "verified": true,
          "metadata": {
            "facility_level": "Primary",
            "facility_level_option": "Health Post",
            "ownership": "Public",
            "ownership_type": "Unknown"
          }
        },
        {
          "type": "health_facility",
          "name": "Gulumba Health Center",
          "slug": "gulumba-health-center-health-facility",
          "coordinates": {
            "lat": 11.6492900003,
            "lng": 14.0976799999
          },
          "source": "grid3",
          "verified": true,
          "metadata": {
            "facility_level": "Primary",
            "facility_level_option": "Primary Health Center",
            "ownership": "Public",
            "ownership_type": "Unknown"
          }
        },
        {
          "type": "health_facility",
          "name": "Kote Health Center",
          "slug": "kote-health-center-health-facility",
          "coordinates": {
            "lat": 11.4137300003,
            "lng": 14.0488599997
          },
          "source": "grid3",
          "verified": true,
          "metadata": {
            "facility_level": "Primary",
            "facility_level_option": "Primary Health Center",
            "ownership": "Public",
            "ownership_type": "Unknown"
          }
        },
        {
          "type": "health_facility",
          "name": "Kumshe Clinic",
          "slug": "kumshe-clinic-health-facility",
          "coordinates": {
            "lat": 11.3557799999,
            "lng": 14.2094809999
          },
          "source": "grid3",
          "verified": true,
          "metadata": {
            "facility_level": "Primary",
            "facility_level_option": "Primary Health Center",
            "ownership": "Public",
            "ownership_type": "Unknown"
          }
        },
        {
          "type": "health_facility",
          "name": "Soye Family Support Programme",
          "slug": "soye-family-support-programme-health-facility",
          "coordinates": {
            "lat": 11.46531,
            "lng": 13.75671
          },
          "source": "grid3",
          "verified": true,
          "metadata": {
            "facility_level": "Primary",
            "facility_level_option": "Primary Health Center",
            "ownership": "Public",
            "ownership_type": "Unknown"
          }
        },
        {
          "type": "health_facility",
          "name": "Vital Registration Department Bama",
          "slug": "vital-registration-department-bama-health-facility",
          "coordinates": {
            "lat": 11.26153,
            "lng": 14.14024
          },
          "source": "grid3",
          "verified": true,
          "metadata": {
            "facility_level": "Unknown",
            "facility_level_option": "Unknown",
            "ownership": "Unknown",
            "ownership_type": "Unknown"
          }
        },
        {
          "type": "health_facility",
          "name": "Gssss Bama Interos Idps Camp Clinic",
          "slug": "gssss-bama-interos-idps-camp-clinic-health-facility",
          "coordinates": {
            "lat": 11.50425,
            "lng": 13.68712
          },
          "source": "grid3",
          "verified": true,
          "metadata": {
            "facility_level": "Primary",
            "facility_level_option": "Unknown",
            "ownership": "Public",
            "ownership_type": "Local Government"
          }
        },
        {
          "type": "health_facility",
          "name": "Bama Maternal and Child Referral Centre",
          "slug": "bama-maternal-and-child-referral-centre-health-facility",
          "coordinates": {
            "lat": 11.53346,
            "lng": 13.70189
          },
          "source": "grid3",
          "verified": true,
          "metadata": {
            "facility_level": "Primary",
            "facility_level_option": "Primary Health Center",
            "ownership": "Public",
            "ownership_type": "Local Government"
          }
        },
        {
          "type": "school",
          "name": "Bama Staff Primary Secondary School",
          "slug": "bama-staff-primary-secondary-school-school",
          "coordinates": {
            "lat": 11.4872801090898,
            "lng": 13.7224593609108
          },
          "source": "grid3",
          "verified": true,
          "metadata": {
            "category": "Primary",
            "management": "Public",
            "education": "Formal",
            "subtype": "Standard"
          }
        },
        {
          "type": "school",
          "name": "Kasgula Primary School",
          "slug": "kasgula-primary-school-school",
          "coordinates": {
            "lat": 11.5219169895774,
            "lng": 13.6908310202355
          },
          "source": "grid3",
          "verified": true,
          "metadata": {
            "category": "Primary",
            "management": "Public",
            "education": "Formal",
            "subtype": "Aggregate"
          }
        },
        {
          "type": "school",
          "name": "Ali Karami Primary School",
          "slug": "ali-karami-primary-school-school",
          "coordinates": {
            "lat": 11.6701772453836,
            "lng": 13.7261241207316
          },
          "source": "grid3",
          "verified": true,
          "metadata": {
            "category": "Primary",
            "management": "Unknown",
            "education": "Formal",
            "subtype": "Primary"
          }
        },
        {
          "type": "school",
          "name": "Andara Primary School",
          "slug": "andara-primary-school-school",
          "coordinates": {
            "lat": 11.3380434161708,
            "lng": 14.2303096418765
          },
          "source": "grid3",
          "verified": true,
          "metadata": {
            "category": "Primary",
            "management": "Unknown",
            "education": "Formal",
            "subtype": "Primary"
          }
        },
        {
          "type": "school",
          "name": "Bem Bem Primary School",
          "slug": "bem-bem-primary-school-school",
          "coordinates": {
            "lat": 11.4126206609148,
            "lng": 14.3210062153646
          },
          "source": "grid3",
          "verified": true,
          "metadata": {
            "category": "Primary",
            "management": "Unknown",
            "education": "Formal",
            "subtype": "Primary"
          }
        },
        {
          "type": "school",
          "name": "Borwosheye Primary School",
          "slug": "borwosheye-primary-school-school",
          "coordinates": {
            "lat": 11.4375003576554,
            "lng": 13.8375744785794
          },
          "source": "grid3",
          "verified": true,
          "metadata": {
            "category": "Primary",
            "management": "Unknown",
            "education": "Formal",
            "subtype": "Primary"
          }
        },
        {
          "type": "school",
          "name": "Botori Primary School",
          "slug": "botori-primary-school-school",
          "coordinates": {
            "lat": 11.7322186449745,
            "lng": 13.8114371671916
          },
          "source": "grid3",
          "verified": true,
          "metadata": {
            "category": "Primary",
            "management": "Unknown",
            "education": "Formal",
            "subtype": "Primary"
          }
        },
        {
          "type": "school",
          "name": "Budua Primary School",
          "slug": "budua-primary-school-school",
          "coordinates": {
            "lat": 11.2963354982847,
            "lng": 14.1560202917032
          },
          "source": "grid3",
          "verified": true,
          "metadata": {
            "category": "Primary",
            "management": "Unknown",
            "education": "Formal",
            "subtype": "Primary"
          }
        },
        {
          "type": "school",
          "name": "Bulagero Primary School",
          "slug": "bulagero-primary-school-school",
          "coordinates": {
            "lat": 11.35763959679,
            "lng": 14.1179089704227
          },
          "source": "grid3",
          "verified": true,
          "metadata": {
            "category": "Primary",
            "management": "Unknown",
            "education": "Formal",
            "subtype": "Primary"
          }
        },
        {
          "type": "school",
          "name": "Umarye Primary School",
          "slug": "umarye-primary-school-school",
          "coordinates": {
            "lat": 11.4992068434211,
            "lng": 14.2310713766428
          },
          "source": "grid3",
          "verified": true,
          "metadata": {
            "category": "Primary",
            "management": "Unknown",
            "education": "Formal",
            "subtype": "Primary"
          }
        },
        {
          "type": "school",
          "name": "Dugje Primary School",
          "slug": "dugje-primary-school-school",
          "coordinates": {
            "lat": 11.6955534596245,
            "lng": 14.0873131350932
          },
          "source": "grid3",
          "verified": true,
          "metadata": {
            "category": "Primary",
            "management": "Unknown",
            "education": "Formal",
            "subtype": "Primary"
          }
        },
        {
          "type": "school",
          "name": "Galagana Primary School",
          "slug": "galagana-primary-school-school",
          "coordinates": {
            "lat": 11.3249368432607,
            "lng": 14.2070606831041
          },
          "source": "grid3",
          "verified": true,
          "metadata": {
            "category": "Primary",
            "management": "Unknown",
            "education": "Formal",
            "subtype": "Primary"
          }
        },
        {
          "type": "school",
          "name": "Garberi Galda Primary School",
          "slug": "garberi-galda-primary-school-school",
          "coordinates": {
            "lat": 11.7004576264184,
            "lng": 13.7578520721155
          },
          "source": "grid3",
          "verified": true,
          "metadata": {
            "category": "Primary",
            "management": "Unknown",
            "education": "Formal",
            "subtype": "Primary"
          }
        },
        {
          "type": "school",
          "name": "Iza Primary School",
          "slug": "iza-primary-school-school",
          "coordinates": {
            "lat": 11.3856510296714,
            "lng": 13.688730402686
          },
          "source": "grid3",
          "verified": true,
          "metadata": {
            "category": "Primary",
            "management": "Unknown",
            "education": "Formal",
            "subtype": "Primary"
          }
        },
        {
          "type": "school",
          "name": "Jere Primary School",
          "slug": "jere-primary-school-school",
          "coordinates": {
            "lat": 11.3883536057344,
            "lng": 13.9447808511554
          },
          "source": "grid3",
          "verified": true,
          "metadata": {
            "category": "Primary",
            "management": "Unknown",
            "education": "Formal",
            "subtype": "Primary"
          }
        },
        {
          "type": "school",
          "name": "Kodo Toma Primary School",
          "slug": "kodo-toma-primary-school-school",
          "coordinates": {
            "lat": 11.3206257550746,
            "lng": 14.2621280407765
          },
          "source": "grid3",
          "verified": true,
          "metadata": {
            "category": "Primary",
            "management": "Unknown",
            "education": "Formal",
            "subtype": "Primary"
          }
        },
        {
          "type": "school",
          "name": "Kote Primary School",
          "slug": "kote-primary-school-school",
          "coordinates": {
            "lat": 11.4139392720798,
            "lng": 14.0481086231145
          },
          "source": "grid3",
          "verified": true,
          "metadata": {
            "category": "Primary",
            "management": "Unknown",
            "education": "Formal",
            "subtype": "Primary"
          }
        },
        {
          "type": "school",
          "name": "Leno Abuna Primary School",
          "slug": "leno-abuna-primary-school-school",
          "coordinates": {
            "lat": 11.4239661481193,
            "lng": 13.9541335486244
          },
          "source": "grid3",
          "verified": true,
          "metadata": {
            "category": "Primary",
            "management": "Unknown",
            "education": "Formal",
            "subtype": "Primary"
          }
        },
        {
          "type": "school",
          "name": "Mallam Masari Primary School",
          "slug": "mallam-masari-primary-school-school",
          "coordinates": {
            "lat": 11.6346582091091,
            "lng": 13.6752789028991
          },
          "source": "grid3",
          "verified": true,
          "metadata": {
            "category": "Primary",
            "management": "Unknown",
            "education": "Formal",
            "subtype": "Primary"
          }
        },
        {
          "type": "school",
          "name": "Mbaga Primary School",
          "slug": "mbaga-primary-school-school",
          "coordinates": {
            "lat": 11.3069129446767,
            "lng": 14.1090931241484
          },
          "source": "grid3",
          "verified": true,
          "metadata": {
            "category": "Primary",
            "management": "Unknown",
            "education": "Formal",
            "subtype": "Primary"
          }
        },
        {
          "type": "school",
          "name": "Ndunguno Primary School",
          "slug": "ndunguno-primary-school-school",
          "coordinates": {
            "lat": 11.3945786445888,
            "lng": 14.1724775811755
          },
          "source": "grid3",
          "verified": true,
          "metadata": {
            "category": "Primary",
            "management": "Unknown",
            "education": "Formal",
            "subtype": "Primary"
          }
        },
        {
          "type": "school",
          "name": "Raffa Primary School",
          "slug": "raffa-primary-school-school",
          "coordinates": {
            "lat": 11.6249765180519,
            "lng": 14.1411410516183
          },
          "source": "grid3",
          "verified": true,
          "metadata": {
            "category": "Primary",
            "management": "Unknown",
            "education": "Formal",
            "subtype": "Primary"
          }
        },
        {
          "type": "school",
          "name": "Tarmuwa Primary School",
          "slug": "tarmuwa-primary-school-school",
          "coordinates": {
            "lat": 11.2434162369698,
            "lng": 14.1747413771129
          },
          "source": "grid3",
          "verified": true,
          "metadata": {
            "category": "Primary",
            "management": "Unknown",
            "education": "Formal",
            "subtype": "Primary"
          }
        },
        {
          "type": "school",
          "name": "Tofa Primary School",
          "slug": "tofa-primary-school-school-4",
          "coordinates": {
            "lat": 11.3097958231188,
            "lng": 14.0317468434421
          },
          "source": "grid3",
          "verified": true,
          "metadata": {
            "category": "Primary",
            "management": "Unknown",
            "education": "Formal",
            "subtype": "Primary"
          }
        },
        {
          "type": "school",
          "name": "Walasa Primary School",
          "slug": "walasa-primary-school-school",
          "coordinates": {
            "lat": 11.5756427440174,
            "lng": 14.2370203137365
          },
          "source": "grid3",
          "verified": true,
          "metadata": {
            "category": "Primary",
            "management": "Unknown",
            "education": "Formal",
            "subtype": "Primary"
          }
        },
        {
          "type": "school",
          "name": "Bulamusa Primary School",
          "slug": "bulamusa-primary-school-school",
          "coordinates": {
            "lat": 11.5252000096727,
            "lng": 13.9064437200017
          },
          "source": "grid3",
          "verified": true,
          "metadata": {
            "category": "Primary",
            "management": "Public",
            "education": "Formal",
            "subtype": "Primary"
          }
        },
        {
          "type": "school",
          "name": "Mairi Primary School Army Barrack",
          "slug": "mairi-primary-school-army-barrack-school",
          "coordinates": {
            "lat": 11.549649751335,
            "lng": 13.7375726873297
          },
          "source": "grid3",
          "verified": true,
          "metadata": {
            "category": "Primary",
            "management": "Public",
            "education": "Formal",
            "subtype": "Primary"
          }
        },
        {
          "type": "school",
          "name": "Jeri Primary School",
          "slug": "jeri-primary-school-school-3",
          "coordinates": {
            "lat": 11.3864232478347,
            "lng": 13.9486338336845
          },
          "source": "grid3",
          "verified": true,
          "metadata": {
            "category": "Primary",
            "management": "Public",
            "education": "Formal",
            "subtype": "Primary"
          }
        },
        {
          "type": "school",
          "name": "Wudula Primary School",
          "slug": "wudula-primary-school-school",
          "coordinates": {
            "lat": 11.3445051457959,
            "lng": 13.9164573283431
          },
          "source": "grid3",
          "verified": true,
          "metadata": {
            "category": "Primary",
            "management": "Public",
            "education": "Formal",
            "subtype": "Primary"
          }
        },
        {
          "type": "school",
          "name": "Darajamal Primary School",
          "slug": "darajamal-primary-school-school",
          "coordinates": {
            "lat": 11.3237858369469,
            "lng": 13.9703201997175
          },
          "source": "grid3",
          "verified": true,
          "metadata": {
            "category": "Primary",
            "management": "Public",
            "education": "Formal",
            "subtype": "Primary"
          }
        },
        {
          "type": "school",
          "name": "Dipchari Primary School",
          "slug": "dipchari-primary-school-school",
          "coordinates": {
            "lat": 11.3888346000368,
            "lng": 13.9108240901597
          },
          "source": "grid3",
          "verified": true,
          "metadata": {
            "category": "Primary",
            "management": "Public",
            "education": "Formal",
            "subtype": "Primary"
          }
        },
        {
          "type": "school",
          "name": "Goni Kurmi Primary School",
          "slug": "goni-kurmi-primary-school-school",
          "coordinates": {
            "lat": 11.4778773418659,
            "lng": 13.6306952606778
          },
          "source": "grid3",
          "verified": true,
          "metadata": {
            "category": "Primary",
            "management": "Public",
            "education": "Formal",
            "subtype": "Primary"
          }
        },
        {
          "type": "school",
          "name": "Kotembe Primary Schoolool",
          "slug": "kotembe-primary-schoolool-school",
          "coordinates": {
            "lat": 11.367315249799,
            "lng": 13.8736375003704
          },
          "source": "grid3",
          "verified": true,
          "metadata": {
            "category": "Primary",
            "management": "Public",
            "education": "Formal",
            "subtype": "Primary"
          }
        },
        {
          "type": "school",
          "name": "Dalagombori Primary School",
          "slug": "dalagombori-primary-school-school",
          "coordinates": {
            "lat": 11.3797473473622,
            "lng": 13.874027676636
          },
          "source": "grid3",
          "verified": true,
          "metadata": {
            "category": "Primary",
            "management": "Public",
            "education": "Formal",
            "subtype": "Primary"
          }
        },
        {
          "type": "school",
          "name": "Soye Primary School",
          "slug": "soye-primary-school-school",
          "coordinates": {
            "lat": 11.4710247497924,
            "lng": 13.7635999900476
          },
          "source": "grid3",
          "verified": true,
          "metadata": {
            "category": "Primary",
            "management": "Public",
            "education": "Formal",
            "subtype": "Primary"
          }
        },
        {
          "type": "school",
          "name": "Maimallumri Primary School",
          "slug": "maimallumri-primary-school-school",
          "coordinates": {
            "lat": 11.4234891557999,
            "lng": 13.7586292518386
          },
          "source": "grid3",
          "verified": true,
          "metadata": {
            "category": "Primary",
            "management": "Public",
            "education": "Formal",
            "subtype": "Primary"
          }
        },
        {
          "type": "school",
          "name": "Budumuri Primary School",
          "slug": "budumuri-primary-school-school",
          "coordinates": {
            "lat": 11.4283829902828,
            "lng": 13.8091117101374
          },