{
  "name": "Kebbi",
  "slug": "kebbi",
  "lgas": [
    {
      "name": "Aleiro",
      "slug": "kebbi-aleiro",
      "markets": [],
      "facilities": [
        {
          "type": "health_facility",
          "name": "University Health Clinic",
          "slug": "university-health-clinic-health-facility",
          "coordinates": {
            "lat": 12.3046779997,
            "lng": 4.4995050004
          },
          "source": "grid3",
          "verified": true,
          "metadata": {
            "facility_level": "Primary",
            "facility_level_option": "Primary Health Clinic",
            "ownership": "Public",
            "ownership_type": "State Government"
          }
        },
        {
          "type": "health_facility",
          "name": "Kashin Zama Primary Health Center",
          "slug": "kashin-zama-primary-health-center-health-facility",
          "coordinates": {
            "lat": 12.3853690005,
            "lng": 4.48364199963
          },
          "source": "grid3",
          "verified": true,
          "metadata": {
            "facility_level": "Primary",
            "facility_level_option": "Primary Health Center",
            "ownership": "Public",
            "ownership_type": "Local Government"
          }
        },
        {
          "type": "health_facility",
          "name": "Gumbulu Health Post",
          "slug": "gumbulu-health-post-health-facility",
          "coordinates": {
            "lat": 12.3388459999,
            "lng": 4.43992399992
          },
          "source": "grid3",
          "verified": true,
          "metadata": {
            "facility_level": "Primary",
            "facility_level_option": "Health Post",
            "ownership": "Public",
            "ownership_type": "Local Government"
          }
        },
        {
          "type": "health_facility",
          "name": "Dangaladima 1 Primary Health Center",
          "slug": "dangaladima-1-primary-health-center-health-facility",
          "coordinates": {
            "lat": 12.2828257,
            "lng": 4.47256
          },
          "source": "grid3",
          "verified": true,
          "metadata": {
            "facility_level": "Primary",
            "facility_level_option": "Primary Health Center",
            "ownership": "Public",
            "ownership_type": "Local Government"
          }
        },
        {
          "type": "health_facility",
          "name": "Rafin Bauna Primary Health Center",
          "slug": "rafin-bauna-primary-health-center-health-facility",
          "coordinates": {
            "lat": 12.2731940003,
            "lng": 4.39791000037
          },
          "source": "grid3",
          "verified": true,
          "metadata": {
            "facility_level": "Primary",
            "facility_level_option": "Primary Health Center",
            "ownership": "Public",
            "ownership_type": "Local Government"
          }
        },
        {
          "type": "health_facility",
          "name": "Unguwar Amadu Health Post",
          "slug": "unguwar-amadu-health-post-health-facility",
          "coordinates": {
            "lat": 12.2814409999,
            "lng": 4.3979490004
          },
          "source": "grid3",
          "verified": true,
          "metadata": {
            "facility_level": "Primary",
            "facility_level_option": "Health Post",
            "ownership": "Public",
            "ownership_type": "Local Government"
          }
        },
        {
          "type": "health_facility",
          "name": "Unguwar Galadima Primary Health Clinic",
          "slug": "unguwar-galadima-primary-health-clinic-health-facility",
          "coordinates": {
            "lat": 12.2886229997,
            "lng": 4.41365100007
          },
          "source": "grid3",
          "verified": true,
          "metadata": {
            "facility_level": "Primary",
            "facility_level_option": "Primary Health Clinic",
            "ownership": "Public",
            "ownership_type": "Local Government"
          }
        },
        {
          "type": "health_facility",
          "name": "Unguwar Basharu Health Post",
          "slug": "unguwar-basharu-health-post-health-facility",
          "coordinates": {
            "lat": 12.2822020004,
            "lng": 4.42490399972
          },
          "source": "grid3",
          "verified": true,
          "metadata": {
            "facility_level": "Primary",
            "facility_level_option": "Health Post",
            "ownership": "Public",
            "ownership_type": "Local Government"
          }
        },
        {
          "type": "health_facility",
          "name": "Sadam Health Post",
          "slug": "sadam-health-post-health-facility",
          "coordinates": {
            "lat": 12.2412719996,
            "lng": 4.44288499993
          },
          "source": "grid3",
          "verified": true,
          "metadata": {
            "facility_level": "Primary",
            "facility_level_option": "Health Post",
            "ownership": "Public",
            "ownership_type": "Local Government"
          }
        },
        {
          "type": "health_facility",
          "name": "Marmaro Health Post",
          "slug": "marmaro-health-post-health-facility",
          "coordinates": {
            "lat": 12.3631640004,
            "lng": 4.44672299954
          },
          "source": "grid3",
          "verified": true,
          "metadata": {
            "facility_level": "Primary",
            "facility_level_option": "Health Post",
            "ownership": "Public",
            "ownership_type": "Local Government"
          }
        },
        {
          "type": "health_facility",
          "name": "Gangije Health Post",
          "slug": "gangije-health-post-health-facility",
          "coordinates": {
            "lat": 12.3311599996,
            "lng": 4.52301000037
          },
          "source": "grid3",
          "verified": true,
          "metadata": {
            "facility_level": "Primary",
            "facility_level_option": "Health Post",
            "ownership": "Public",
            "ownership_type": "Local Government"
          }
        },
        {
          "type": "health_facility",
          "name": "Jiga Sala Health Post",
          "slug": "jiga-sala-health-post-health-facility",
          "coordinates": {
            "lat": 12.259496,
            "lng": 4.54273899978
          },
          "source": "grid3",
          "verified": true,
          "metadata": {
            "facility_level": "Primary",
            "facility_level_option": "Health Post",
            "ownership": "Public",
            "ownership_type": "Local Government"
          }
        },
        {
          "type": "health_facility",
          "name": "Jiga Kambarori Primary Health Center",
          "slug": "jiga-kambarori-primary-health-center-health-facility",
          "coordinates": {
            "lat": 12.2575659996,
            "lng": 4.5189199996
          },
          "source": "grid3",
          "verified": true,
          "metadata": {
            "facility_level": "Primary",
            "facility_level_option": "Primary Health Center",
            "ownership": "Public",
            "ownership_type": "Local Government"
          }
        },
        {
          "type": "health_facility",
          "name": "Aleiro General Hospital",
          "slug": "aleiro-general-hospital-health-facility",
          "coordinates": {
            "lat": 12.294677734,
            "lng": 4.468078613
          },
          "source": "grid3",
          "verified": true,
          "metadata": {
            "facility_level": "Secondary",
            "facility_level_option": "General Hospital",
            "ownership": "Public",
            "ownership_type": "State Government"
          }
        },
        {
          "type": "health_facility",
          "name": "Jiga Birni Primary Health Center",
          "slug": "jiga-birni-primary-health-center-health-facility",
          "coordinates": {
            "lat": 12.2817950001,
            "lng": 4.53438900011
          },
          "source": "grid3",
          "verified": true,
          "metadata": {
            "facility_level": "Primary",
            "facility_level_option": "Primary Health Center",
            "ownership": "Public",
            "ownership_type": "Local Government"
          }
        },
        {
          "type": "health_facility",
          "name": "Danwarai Primary Health Center",
          "slug": "danwarai-primary-health-center-health-facility",
          "coordinates": {
            "lat": 12.26069,
            "lng": 4.40938
          },
          "source": "grid3",
          "verified": true,
          "metadata": {
            "facility_level": "Primary",
            "facility_level_option": "Primary Health Center",
            "ownership": "Public",
            "ownership_type": "Local Government"
          }
        },
        {
          "type": "health_facility",
          "name": "Mallamawa Primary Health Center",
          "slug": "mallamawa-primary-health-center-health-facility",
          "coordinates": {
            "lat": 12.2944918066,
            "lng": 4.47640751199
          },
          "source": "grid3",
          "verified": true,
          "metadata": {
            "facility_level": "Primary",
            "facility_level_option": "Primary Health Center",
            "ownership": "Public",
            "ownership_type": "Local Government"
          }
        },
        {
          "type": "health_facility",
          "name": "Akalawa Primary Health Center",
          "slug": "akalawa-primary-health-center-health-facility",
          "coordinates": {
            "lat": 12.28445,
            "lng": 4.45175
          },
          "source": "grid3",
          "verified": true,
          "metadata": {
            "facility_level": "Primary",
            "facility_level_option": "Primary Health Center",
            "ownership": "Public",
            "ownership_type": "Unknown"
          }
        },
        {
          "type": "health_facility",
          "name": "Malamawa Primary Health Center",
          "slug": "malamawa-primary-health-center-health-facility",
          "coordinates": {
            "lat": 12.2876,
            "lng": 4.47296
          },
          "source": "grid3",
          "verified": true,
          "metadata": {
            "facility_level": "Primary",
            "facility_level_option": "Primary Health Center",
            "ownership": "Public",
            "ownership_type": "Unknown"
          }
        },
        {
          "type": "health_facility",
          "name": "Tago Mdg Clinic",
          "slug": "tago-mdg-clinic-health-facility",
          "coordinates": {
            "lat": 12.2612141898,
            "lng": 4.40879272664
          },
          "source": "grid3",
          "verified": true,
          "metadata": {
            "facility_level": "Primary",
            "facility_level_option": "Primary Health Center",
            "ownership": "Public",
            "ownership_type": "Unknown"
          }
        },
        {
          "type": "health_facility",
          "name": "Shiyar Gamji Health Clinic",
          "slug": "shiyar-gamji-health-clinic-health-facility",
          "coordinates": {
            "lat": 12.3762660003,
            "lng": 4.40563399962
          },
          "source": "grid3",
          "verified": true,
          "metadata": {
            "facility_level": "Primary",
            "facility_level_option": "Primary Health Center",
            "ownership": "Public",
            "ownership_type": "Unknown"
          }
        },
        {
          "type": "health_facility",
          "name": "Yamma Health Clinic",
          "slug": "yamma-health-clinic-health-facility",
          "coordinates": {
            "lat": 12.2560919996,
            "lng": 4.41294199959
          },
          "source": "grid3",
          "verified": true,
          "metadata": {
            "facility_level": "Primary",
            "facility_level_option": "Primary Health Center",
            "ownership": "Public",
            "ownership_type": "Unknown"
          }
        },
        {
          "type": "health_facility",
          "name": "Huta Federal Primary Health Care",
          "slug": "huta-federal-primary-health-care-health-facility",
          "coordinates": {
            "lat": 12.381685,
            "lng": 4.43869400009
          },
          "source": "grid3",
          "verified": true,
          "metadata": {
            "facility_level": "Primary",
            "facility_level_option": "Primary Health Center",
            "ownership": "Public",
            "ownership_type": "Unknown"
          }
        },
        {
          "type": "health_facility",
          "name": "Ari Health Center",
          "slug": "ari-health-center-health-facility-2",
          "coordinates": {
            "lat": 12.2424740004,
            "lng": 4.46735999956
          },
          "source": "grid3",
          "verified": true,
          "metadata": {
            "facility_level": "Primary",
            "facility_level_option": "Primary Health Center",
            "ownership": "Public",
            "ownership_type": "Unknown"
          }
        },
        {
          "type": "health_facility",
          "name": "Bakambara Health Center",
          "slug": "bakambara-health-center-health-facility",
          "coordinates": {
            "lat": 12.2824539996,
            "lng": 4.47326399957
          },
          "source": "grid3",
          "verified": true,
          "metadata": {
            "facility_level": "Primary",
            "facility_level_option": "Primary Health Center",
            "ownership": "Public",
            "ownership_type": "Unknown"
          }
        },
        {
          "type": "health_facility",
          "name": "Aleiro Orthopaedic Hospital",
          "slug": "aleiro-orthopaedic-hospital-health-facility",
          "coordinates": {
            "lat": 12.2975859998,
            "lng": 4.47558800015
          },
          "source": "grid3",
          "verified": true,
          "metadata": {
            "facility_level": "Tertiary",
            "facility_level_option": "General Hospital",
            "ownership": "Public",
            "ownership_type": "Unknown"
          }
        },
        {
          "type": "health_facility",
          "name": "Sabiyal Millennium Development Goals Primary Health Clinic",
          "slug": "sabiyal-millennium-development-goals-primary-health-clinic-health-facility",
          "coordinates": {
            "lat": 12.384094238,
            "lng": 4.437927246
          },
          "source": "grid3",
          "verified": true,
          "metadata": {
            "facility_level": "Primary",
            "facility_level_option": "Primary Health Center",
            "ownership": "Public",
            "ownership_type": "Unknown"
          }
        },
        {
          "type": "health_facility",
          "name": "Unguwar Garji Health Post",
          "slug": "unguwar-garji-health-post-health-facility",
          "coordinates": {
            "lat": 12.2874264967,
            "lng": 4.4578241277
          },
          "source": "grid3",
          "verified": true,
          "metadata": {
            "facility_level": "Primary",
            "facility_level_option": "Health Post",
            "ownership": "Public",
            "ownership_type": "Unknown"
          }
        },
        {
          "type": "health_facility",
          "name": "Gumbin Dari Primary Health Center",
          "slug": "gumbin-dari-primary-health-center-health-facility",
          "coordinates": {
            "lat": 12.24134,
            "lng": 4.46678
          },
          "source": "grid3",
          "verified": true,
          "metadata": {
            "facility_level": "Primary",
            "facility_level_option": "Primary Health Center",
            "ownership": "Public",
            "ownership_type": "Local Government"
          }
        },
        {
          "type": "health_facility",
          "name": "Aliero Dangeda Hospital",
          "slug": "aliero-dangeda-hospital-health-facility",
          "coordinates": {
            "lat": 12.29275,
            "lng": 4.46098
          },
          "source": "grid3",
          "verified": true,
          "metadata": {
            "facility_level": "Secondary",
            "facility_level_option": "Unknown",
            "ownership": "Private",
            "ownership_type": "For Profit"
          }
        },
        {
          "type": "health_facility",
          "name": "Dakala Health Clinic",
          "slug": "dakala-health-clinic-health-facility",
          "coordinates": {
            "lat": 12.37631,
            "lng": 4.40565
          },
          "source": "grid3",
          "verified": true,
          "metadata": {
            "facility_level": "Primary",
            "facility_level_option": "Primary Health Clinic",
            "ownership": "Public",
            "ownership_type": "Local Government"
          }
        },
        {
          "type": "health_facility",
          "name": "Dorawai Primary Health Center",
          "slug": "dorawai-primary-health-center-health-facility",
          "coordinates": {
            "lat": 12.33724,
            "lng": 4.38846
          },
          "source": "grid3",
          "verified": true,
          "metadata": {
            "facility_level": "Primary",
            "facility_level_option": "Primary Health Center",
            "ownership": "Public",
            "ownership_type": "Local Government"
          }
        },
        {
          "type": "health_facility",
          "name": "Kali Health Post",
          "slug": "kali-health-post-health-facility-3",
          "coordinates": {
            "lat": 12.27345,
            "lng": 4.44473
          },
          "source": "grid3",
          "verified": true,
          "metadata": {
            "facility_level": "Primary",
            "facility_level_option": "Health Post",
            "ownership": "Public",
            "ownership_type": "Local Government"
          }
        },
        {
          "type": "school",
          "name": "Rafin Bauna Primary and Secondary School",
          "slug": "rafin-bauna-primary-and-secondary-school-school",
          "coordinates": {
            "lat": 12.2726971526515,
            "lng": 4.39779989075242
          },
          "source": "grid3",
          "verified": true,
          "metadata": {
            "category": "Mixed",
            "management": "Public",
            "education": "Formal",
            "subtype": "Aggregate"
          }
        },
        {
          "type": "school",
          "name": "Laini Primary School",
          "slug": "laini-primary-school-school",
          "coordinates": {
            "lat": 12.3069100000965,
            "lng": 4.50679000025838
          },
          "source": "grid3",
          "verified": true,
          "metadata": {
            "category": "Primary",
            "management": "Public",
            "education": "Formal",
            "subtype": "Standard"
          }
        },
        {
          "type": "school",
          "name": "Salihu Attah Primary School",
          "slug": "salihu-attah-primary-school-school",
          "coordinates": {
            "lat": 12.2833374400709,
            "lng": 4.45862480978718
          },
          "source": "grid3",
          "verified": true,
          "metadata": {
            "category": "Primary",
            "management": "Public",
            "education": "Formal",
            "subtype": "Primary"
          }
        },
        {
          "type": "school",
          "name": "Danwarai Primary School",
          "slug": "danwarai-primary-school-school",
          "coordinates": {
            "lat": 12.2524789802208,
            "lng": 4.41099369969953
          },
          "source": "grid3",
          "verified": true,
          "metadata": {
            "category": "Primary",
            "management": "Public",
            "education": "Formal",
            "subtype": "Primary"
          }
        },
        {
          "type": "school",
          "name": "Kashinzama Primary School",
          "slug": "kashinzama-primary-school-school",
          "coordinates": {
            "lat": 12.3858272696128,
            "lng": 4.48480876990885
          },
          "source": "grid3",
          "verified": true,
          "metadata": {
            "category": "Primary",
            "management": "Public",
            "education": "Formal",
            "subtype": "Primary"
          }
        },
        {
          "type": "school",
          "name": "Gangije Primary School",
          "slug": "gangije-primary-school-school",
          "coordinates": {
            "lat": 12.3312123096005,
            "lng": 4.52345698015557
          },
          "source": "grid3",
          "verified": true,
          "metadata": {
            "category": "Primary",
            "management": "Public",
            "education": "Formal",
            "subtype": "Primary"
          }
        },
        {
          "type": "school",
          "name": "Gomozun Alietawa Primary School",
          "slug": "gomozun-alietawa-primary-school-school",
          "coordinates": {
            "lat": 12.329622679643,
            "lng": 4.35882822044607
          },
          "source": "grid3",
          "verified": true,
          "metadata": {
            "category": "Primary",
            "management": "Public",
            "education": "Formal",
            "subtype": "Primary"
          }
        },
        {
          "type": "school",
          "name": "Unguwar Basharu Primary School",
          "slug": "unguwar-basharu-primary-school-school",
          "coordinates": {
            "lat": 12.2817670097398,
            "lng": 4.42520149964952
          },
          "source": "grid3",
          "verified": true,
          "metadata": {
            "category": "Primary",
            "management": "Public",
            "education": "Formal",
            "subtype": "Primary"
          }
        },
        {
          "type": "school",
          "name": "Unguwar Galadima Primary School",
          "slug": "unguwar-galadima-primary-school-school-2",
          "coordinates": {
            "lat": 12.2884793597347,
            "lng": 4.4142375902926
          },
          "source": "grid3",
          "verified": true,
          "metadata": {
            "category": "Primary",
            "management": "Public",
            "education": "Formal",
            "subtype": "Primary"
          }
        },
        {
          "type": "school",
          "name": "Runtuwan Bayan Dutse Primary School",
          "slug": "runtuwan-bayan-dutse-primary-school-school",
          "coordinates": {
            "lat": 12.3090008501092,
            "lng": 4.43316739036283
          },
          "source": "grid3",
          "verified": true,
          "metadata": {
            "category": "Primary",
            "management": "Public",
            "education": "Formal",
            "subtype": "Primary"
          }
        },
        {
          "type": "school",
          "name": "Gumbin Dari Primary School",
          "slug": "gumbin-dari-primary-school-school",
          "coordinates": {
            "lat": 12.239732389738,
            "lng": 4.46540897964076
          },
          "source": "grid3",
          "verified": true,
          "metadata": {
            "category": "Primary",
            "management": "Public",
            "education": "Formal",
            "subtype": "Primary"
          }
        },
        {
          "type": "school",
          "name": "Fararun Makyairal Primary School",
          "slug": "fararun-makyairal-primary-school-school",
          "coordinates": {
            "lat": 12.352690860295,
            "lng": 4.48159921003554
          },
          "source": "grid3",
          "verified": true,
          "metadata": {
            "category": "Primary",
            "management": "Public",
            "education": "Formal",
            "subtype": "Primary"
          }
        },
        {
          "type": "school",
          "name": "Unguwar Alu Primary School",
          "slug": "unguwar-alu-primary-school-school",
          "coordinates": {
            "lat": 12.2871686697983,
            "lng": 4.40604494991453
          },
          "source": "grid3",
          "verified": true,
          "metadata": {
            "category": "Primary",
            "management": "Public",
            "education": "Formal",
            "subtype": "Primary"
          }
        },
        {
          "type": "school",
          "name": "Kyaira Primary School",
          "slug": "kyaira-primary-school-school",
          "coordinates": {
            "lat": 12.404132389798,
            "lng": 4.40017148032962
          },
          "source": "grid3",
          "verified": true,
          "metadata": {
            "category": "Primary",
            "management": "Public",
            "education": "Formal",
            "subtype": "Primary"
          }
        },
        {
          "type": "school",
          "name": "Gumbulu Mordel Primary School",
          "slug": "gumbulu-mordel-primary-school-school",
          "coordinates": {
            "lat": 12.3395549002385,
            "lng": 4.44048291025814
          },
          "source": "grid3",
          "verified": true,
          "metadata": {
            "category": "Primary",
            "management": "Public",
            "education": "Formal",
            "subtype": "Primary"
          }
        },
        {
          "type": "school",
          "name": "Kali Primary School",
          "slug": "kali-primary-school-school",
          "coordinates": {
            "lat": 12.2736200702101,
            "lng": 4.4437556403106
          },
          "source": "grid3",
          "verified": true,
          "metadata": {
            "category": "Primary",
            "management": "Public",
            "education": "Formal",
            "subtype": "Primary"
          }
        },
        {
          "type": "school",
          "name": "Gomozo Primary School",
          "slug": "gomozo-primary-school-school",
          "coordinates": {
            "lat": 12.3296802704282,
            "lng": 4.36351373956745
          },
          "source": "grid3",
          "verified": true,
          "metadata": {
            "category": "Primary",
            "management": "Public",
            "education": "Formal",
            "subtype": "Primary"
          }
        },
        {
          "type": "school",
          "name": "Aliero West Primary School",
          "slug": "aliero-west-primary-school-school",
          "coordinates": {
            "lat": 12.2823655499303,
            "lng": 4.47336288958576
          },
          "source": "grid3",
          "verified": true,
          "metadata": {
            "category": "Primary",
            "management": "Public",
            "education": "Formal",
            "subtype": "Primary"
          }
        },
        {
          "type": "school",
          "name": "Dorawai Primary School",
          "slug": "dorawai-primary-school-school",
          "coordinates": {
            "lat": 12.3364550900304,
            "lng": 4.38880912993744
          },
          "source": "grid3",
          "verified": true,
          "metadata": {
            "category": "Primary",
            "management": "Public",
            "education": "Formal",
            "subtype": "Primary"
          }
        },
        {
          "type": "school",
          "name": "Sadam Primary School",
          "slug": "sadam-primary-school-school-2",
          "coordinates": {
            "lat": 12.2419913698059,
            "lng": 4.43869103985963
          },
          "source": "grid3",
          "verified": true,
          "metadata": {
            "category": "Primary",
            "management": "Public",
            "education": "Formal",
            "subtype": "Primary"
          }
        },
        {
          "type": "school",
          "name": "Rafin Mudi Primary School",
          "slug": "rafin-mudi-primary-school-school",
          "coordinates": {
            "lat": 12.3075582404205,
            "lng": 4.42187898043068
          },
          "source": "grid3",
          "verified": true,
          "metadata": {
            "category": "Primary",
            "management": "Public",
            "education": "Formal",
            "subtype": "Primary"
          }
        },
        {
          "type": "school",
          "name": "Sabiyal Primary School",
          "slug": "sabiyal-primary-school-school",
          "coordinates": {
            "lat": 12.3887857702471,
            "lng": 4.44317325014543
          },
          "source": "grid3",
          "verified": true,
          "metadata": {
            "category": "Primary",
            "management": "Public",
            "education": "Formal",
            "subtype": "Primary"
          }
        },
        {
          "type": "school",
          "name": "Gumbi Dari Maigishiri Primary School",
          "slug": "gumbi-dari-maigishiri-primary-school-school",
          "coordinates": {
            "lat": 12.2383781897017,
            "lng": 4.47346277998338
          },
          "source": "grid3",
          "verified": true,
          "metadata": {
            "category": "Primary",
            "management": "Public",
            "education": "Formal",
            "subtype": "Primary"
          }
        },
        {
          "type": "school",
          "name": "Jiga Kobarori Primary School",
          "slug": "jiga-kobarori-primary-school-school",
          "coordinates": {
            "lat": 12.258319129924,
            "lng": 4.51894466956088
          },
          "source": "grid3",
          "verified": true,
          "metadata": {
            "category": "Primary",
            "management": "Public",
            "education": "Formal",
            "subtype": "Primary"
          }
        },
        {
          "type": "school",
          "name": "Marmaro Primary School",
          "slug": "marmaro-primary-school-school",
          "coordinates": {
            "lat": 12.3651237096915,
            "lng": 4.44852926961016
          },
          "source": "grid3",
          "verified": true,
          "metadata": {
            "category": "Primary",
            "management": "Public",
            "education": "Formal",
            "subtype": "Primary"
          }
        },
        {
          "type": "school",
          "name": "Jiga Sala Primary School",
          "slug": "jiga-sala-primary-school-school",
          "coordinates": {
            "lat": 12.2614784203928,
            "lng": 4.54181618017265
          },
          "source": "grid3",
          "verified": true,
          "metadata": {
            "category": "Primary",
            "management": "Public",
            "education": "Formal",
            "subtype": "Primary"
          }
        },
        {
          "type": "school",
          "name": "Dakala Primary School",
          "slug": "dakala-primary-school-school-2",
          "coordinates": {
            "lat": 12.3760261899567,
            "lng": 4.40426399009112
          },
          "source": "grid3",
          "verified": true,
          "metadata": {
            "category": "Primary",
            "management": "Public",
            "education": "Formal",
            "subtype": "Primary"
          }
        },
        {
          "type": "school",
          "name": "Muhammad Magawata Model Primary School",
          "slug": "muhammad-magawata-model-primary-school-school",
          "coordinates": {
            "lat": 12.2945260000749,
            "lng": 4.46197443007594
          },
          "source": "grid3",
          "verified": true,
          "metadata": {
            "category": "Primary",
            "management": "Public",
            "education": "Integrated",
            "subtype": "Standard"
          }
        },
        {
          "type": "school",
          "name": "Attahiru Model Primary School Aliero",
          "slug": "attahiru-model-primary-school-aliero-school",
          "coordinates": {
            "lat": 12.2890517998007,
            "lng": 4.47464879960245
          },
          "source": "grid3",
          "verified": true,
          "metadata": {
            "category": "Primary",
            "management": "Public",
            "education": "Integrated",
            "subtype": "Standard"
          }
        },
        {
          "type": "school",
          "name": "Jiga Birnin Primary School",
          "slug": "jiga-birnin-primary-school-school",
          "coordinates": {
            "lat": 12.2831907903227,
            "lng": 4.5370516196366
          },
          "source": "grid3",
          "verified": true,
          "metadata": {
            "category": "Primary",
            "management": "Public",
            "education": "Formal",
            "subtype": "Standard"
          }
        },
        {
          "type": "school",
          "name": "NYSC Nursery and Primary School",
          "slug": "nysc-nursery-and-primary-school-school-2",
          "coordinates": {
            "lat": 12.2974675799649,
            "lng": 4.47697877035404
          },
          "source": "grid3",
          "verified": true,
          "metadata": {
            "category": "Primary",
            "management": "Public",
            "education": "Formal",
            "subtype": "Standard"
          }
        },
        {
          "type": "school",
          "name": "Adamu Suleiman Nizamiyya Model Primary School Aliero",
          "slug": "adamu-suleiman-nizamiyya-model-primary-school-aliero-school",
          "coordinates": {
            "lat": 12.2925581503384,
            "lng": 4.46673268006919
          },
          "source": "grid3",
          "verified": true,
          "metadata": {
            "category": "Primary",
            "management": "Public",
            "education": "Integrated",
            "subtype": "Standard"
          }
        },
        {
          "type": "school",
          "name": "Government Secondary School Aliero",
          "slug": "government-secondary-school-aliero-school",
          "coordinates": {
            "lat": 12.3051990911652,
            "lng": 4.48203752071504
          },
          "source": "grid3",
          "verified": true,
          "metadata": {
            "category": "Secondary",
            "management": "Public",
            "education": "Formal",
            "subtype": "Standard"
          }
        },
        {
          "type": "school",
          "name": "University Staff School",
          "slug": "university-staff-school-school",
          "coordinates": {
            "lat": 12.30669294962,
            "lng": 4.48805778034233
          },
          "source": "grid3",
          "verified": true,
          "metadata": {
            "category": "Secondary",
            "management": "Public",
            "education": "Formal",
            "subtype": "Aggregate"
          }
        },
        {
          "type": "school",
          "name": "Unguwar Amadu Priml School",
          "slug": "unguwar-amadu-priml-school-school",
          "coordinates": {
            "lat": 12.2808085599671,
            "lng": 4.39845495962874
          },
          "source": "grid3",
          "verified": true,
          "metadata": {
            "category": "Primary",
            "management": "Public",
            "education": "Formal",
            "subtype": "Primary"
          }
        },
        {
          "type": "school",
          "name": "Hallmark Academy",
          "slug": "hallmark-academy-school",
          "coordinates": {
            "lat": 12.2865958996811,
            "lng": 4.46102799974244
          },
          "source": "grid3",
          "verified": true,
          "metadata": {
            "category": "Primary",
            "management": "Private",
            "education": "Formal",
            "subtype": "Standard"
          }
        },
        {
          "type": "school",
          "name": "Maahad Islamic School",
          "slug": "maahad-islamic-school-school",
          "coordinates": {
            "lat": 12.2898822904354,
            "lng": 4.468944309932
          },
          "source": "grid3",
          "verified": true,
          "metadata": {
            "category": "Primary",
            "management": "Private",
            "education": "Integrated",
            "subtype": "Primary"
          }
        },
        {
          "type": "school",
          "name": "Junior Secondary School Bakanbare",
          "slug": "junior-secondary-school-bakanbare-school",
          "coordinates": {
            "lat": 12.2818932295889,
            "lng": 4.47412396964552
          },
          "source": "grid3",
          "verified": true,
          "metadata": {
            "category": "Secondary",
            "management": "Public",
            "education": "Formal",
            "subtype": "Junior"
          }
        },
        {
          "type": "school",
          "name": "Junior Secondary School Sabiyal",
          "slug": "junior-secondary-school-sabiyal-school",
          "coordinates": {
            "lat": 12.388463939759,
            "lng": 4.44314287014737
          },
          "source": "grid3",
          "verified": true,
          "metadata": {
            "category": "Secondary",
            "management": "Public",
            "education": "Formal",
            "subtype": "Junior"
          }
        },
        {
          "type": "school",
          "name": "Danware Junion Secondary School",
          "slug": "danware-junion-secondary-school-school",
          "coordinates": {
            "lat": 12.2524537803178,
            "lng": 4.41138216005868
          },
          "source": "grid3",
          "verified": true,
          "metadata": {
            "category": "Secondary",
            "management": "Public",
            "education": "Formal",
            "subtype": "Junior"
          }
        },
        {
          "type": "school",
          "name": "Junior Secondary School Jiga Birnin",
          "slug": "junior-secondary-school-jiga-birnin-school",
          "coordinates": {
            "lat": 12.2836436898045,
            "lng": 4.53696213979094
          },
          "source": "grid3",
          "verified": true,
          "metadata": {
            "category": "Secondary",
            "management": "Public",
            "education": "Formal",
            "subtype": "Junior"
          }
        },
        {
          "type": "school",
          "name": "Government Day Secondary School Kashinzama",
          "slug": "government-day-secondary-school-kashinzama-school",
          "coordinates": {
            "lat": 12.3864726599853,
            "lng": 4.48622169027885
          },
          "source": "grid3",
          "verified": true,
          "metadata": {
            "category": "Secondary",
            "management": "Public",
            "education": "Formal",
            "subtype": "Senior"
          }
        },
        {
          "type": "school",
          "name": "Government Girls Comprehensive School Aliero",
          "slug": "government-girls-comprehensive-school-aliero-school",
          "coordinates": {
            "lat": 12.2863349703827,
            "lng": 4.45695247008047
          },
          "source": "grid3",
          "verified": true,
          "metadata": {
            "category": "Secondary",
            "management": "Public",
            "education": "Formal",
            "subtype": "Senior"
          }
        },
        {
          "type": "mosque",
          "name": "Kashin Zama Central Mosque",
          "slug": "kashin-zama-central-mosque-mosque",
          "coordinates": {
            "lat": 12.3854732317043,
            "lng": 4.48531057092617
          },
          "source": "grid3",
          "verified": true
        }
      ]
    },
    {
      "name": "Arewa Dandi",
      "slug": "kebbi-arewa-dandi",
      "markets": [],
      "facilities": [
        {
          "type": "market",
          "name": "Kasuwan Kuka Maifulani Sabowa",
          "slug": "kasuwan-kuka-maifulani-sabowa-market",
          "coordinates": {
            "lat": 12.3291600000341,
            "lng": 3.73345999967927
          },
          "source": "grid3",
          "verified": true,
          "metadata": {
            "mrkt_days": "0"
          }
        },
        {
          "type": "market",
          "name": "Kasuwan Jar Kuka",
          "slug": "kasuwan-jar-kuka-market",
          "coordinates": {
            "lat": 13.1511299998497,
            "lng": 4.4114700004402
          },
          "source": "grid3",
          "verified": true,
          "metadata": {
            "mrkt_days": "0"
          }
        },
        {
          "type": "market",
          "name": "Kasuwan Gunki",
          "slug": "kasuwan-gunki-market",
          "coordinates": {
            "lat": 12.2395300000096,
            "lng": 3.6842100001914
          },
          "source": "grid3",
          "verified": true,
          "metadata": {
            "mrkt_days": "0"
          }
        },
        {
          "type": "market",
          "name": "Kasuwar Bui",
          "slug": "kasuwar-bui-market",
          "coordinates": {
            "lat": 12.7204699995909,
            "lng": 4.11863999983615
          },
          "source": "grid3",
          "verified": true,
          "metadata": {
            "mrkt_days": "1"
          }
        },
        {
          "type": "market",
          "name": "Kasuwan Kangiwa",
          "slug": "kasuwan-kangiwa-market",
          "coordinates": {
            "lat": 12.5564200003828,
            "lng": 3.81669299968223
          },
          "source": "grid3",
          "verified": true,
          "metadata": {
            "mrkt_days": "1"
          }
        },
        {
          "type": "market",
          "name": "Kasuwan Yaldu",
          "slug": "kasuwan-yaldu-market",
          "coordinates": {
            "lat": 12.7886099996518,
            "lng": 4.26383199994689
          },
          "source": "grid3",
          "verified": true,
          "metadata": {
            "mrkt_days": "1"
          }
        },
        {
          "type": "market",
          "name": "Kasuwan Bachaka",
          "slug": "kasuwan-bachaka-market",
          "coordinates": {
            "lat": 13.1623100001065,
            "lng": 4.14318300029527
          },
          "source": "grid3",
          "verified": true,
          "metadata": {
            "mrkt_days": "1"
          }
        },
        {
          "type": "school",
          "name": "Junior Secondary School Kare",
          "slug": "junior-secondary-school-kare-school",
          "coordinates": {
            "lat": 12.8930384797421,
            "lng": 4.0743032502948
          },
          "source": "grid3",
          "verified": true,
          "metadata": {
            "category": "Secondary",
            "management": "Public",
            "education": "Formal",
            "subtype": "Primary"
          }
        },
        {
          "type": "school",
          "name": "Bachaka Model Primary School",
          "slug": "bachaka-model-primary-school-school",
          "coordinates": {
            "lat": 13.1613636003499,
            "lng": 4.14805233544695
          },
          "source": "grid3",
          "verified": true,
          "metadata": {
            "category": "Primary",
            "management": "Public",
            "education": "Formal",
            "subtype": "Aggregate"
          }
        },
        {
          "type": "school",
          "name": "Gorun Dikko Model Primary School",
          "slug": "gorun-dikko-model-primary-school-school",
          "coordinates": {
            "lat": 12.5851328298163,
            "lng": 3.99933752001061
          },
          "source": "grid3",
          "verified": true,
          "metadata": {
            "category": "Primary",
            "management": "Public",
            "education": "Formal",
            "subtype": "Aggregate"
          }
        },
        {
          "type": "school",
          "name": "Farsangu Primary School",
          "slug": "farsangu-primary-school-school",
          "coordinates": {
            "lat": 12.472782919696,
            "lng": 3.81312170010642
          },
          "source": "grid3",
          "verified": true,
          "metadata": {
            "category": "Primary",
            "management": "Public",
            "education": "Formal",
            "subtype": "Aggregate"
          }
        },
        {
          "type": "school",
          "name": "Kwallaye Primary School",
          "slug": "kwallaye-primary-school-school",
          "coordinates": {
            "lat": 12.5805299997597,
            "lng": 3.89645000036728
          },
          "source": "grid3",
          "verified": true,
          "metadata": {
            "category": "Primary",
            "management": "Public",
            "education": "Formal",
            "subtype": "Standard"
          }
        },
        {
          "type": "school",
          "name": "Tsulawa Primary School",
          "slug": "tsulawa-primary-school-school",
          "coordinates": {
            "lat": 12.6022699995609,
            "lng": 3.88268000028182
          },
          "source": "grid3",
          "verified": true,
          "metadata": {
            "category": "Primary",
            "management": "Public",
            "education": "Formal",
            "subtype": "Standard"
          }
        },
        {
          "type": "school",
          "name": "Gubawa Primary School",
          "slug": "gubawa-primary-school-school",
          "coordinates": {
            "lat": 12.6097300000395,
            "lng": 4.05053999982118
          },
          "source": "grid3",
          "verified": true,
          "metadata": {
            "category": "Primary",
            "management": "Public",
            "education": "Formal",
            "subtype": "Standard"
          }
        },
        {
          "type": "school",
          "name": "Hakimawa Primary School",
          "slug": "hakimawa-primary-school-school",
          "coordinates": {
            "lat": 12.6333199997183,
            "lng": 4.05509000010346
          },
          "source": "grid3",
          "verified": true,
          "metadata": {
            "category": "Primary",
            "management": "Public",
            "education": "Formal",
            "subtype": "Standard"
          }
        },
        {
          "type": "school",
          "name": "Karage Shawani Primary School",
          "slug": "karage-shawani-primary-school-school",
          "coordinates": {
            "lat": 12.696240000076,
            "lng": 3.95448999961383
          },
          "source": "grid3",
          "verified": true,
          "metadata": {
            "category": "Primary",
            "management": "Public",
            "education": "Formal",
            "subtype": "Standard"
          }
        },
        {
          "type": "school",
          "name": "Muduwai Primary School",
          "slug": "muduwai-primary-school-school",
          "coordinates": {
            "lat": 12.926320000068,
            "lng": 4.28484999972773
          },
          "source": "grid3",
          "verified": true,
          "metadata": {
            "category": "Primary",
            "management": "Public",
            "education": "Formal",
            "subtype": "Standard"
          }
        },
        {
          "type": "school",
          "name": "Madam Fara Primary School",
          "slug": "madam-fara-primary-school-school",
          "coordinates": {
            "lat": 13.0000600002688,
            "lng": 4.27532999957987
          },
          "source": "grid3",
          "verified": true,
          "metadata": {
            "category": "Primary",
            "management": "Public",
            "education": "Formal",
            "subtype": "Standard"
          }
        },
        {
          "type": "school",
          "name": "Unguwan Sara Primary School",
          "slug": "unguwan-sara-primary-school-school",
          "coordinates": {
            "lat": 13.1552700001105,
            "lng": 4.35895999990413
          },
          "source": "grid3",
          "verified": true,
          "metadata": {
            "category": "Primary",
            "management": "Public",
            "education": "Formal",
            "subtype": "Standard"
          }
        },
        {
          "type": "school",
          "name": "Jaja Primary School",
          "slug": "jaja-primary-school-school",
          "coordinates": {
            "lat": 13.15640000006,
            "lng": 4.38555000033227
          },
          "source": "grid3",
          "verified": true,
          "metadata": {
            "category": "Primary",
            "management": "Public",
            "education": "Formal",
            "subtype": "Standard"
          }
        },
        {
          "type": "school",
          "name": "Huddussu Primary School",
          "slug": "huddussu-primary-school-school",
          "coordinates": {
            "lat": 12.922448520283,
            "lng": 4.11790430493977
          },
          "source": "grid3",
          "verified": true,
          "metadata": {
            "category": "Primary",
            "management": "Public",
            "education": "Formal",
            "subtype": "Primary"
          }
        },
        {
          "type": "school",
          "name": "Bagga Primary School",
          "slug": "bagga-primary-school-school",
          "coordinates": {
            "lat": 12.631987760227,
            "lng": 4.11895173003836
          },
          "source": "grid3",
          "verified": true,
          "metadata": {
            "category": "Primary",
            "management": "Public",
            "education": "Formal",
            "subtype": "Primary"
          }
        },
        {
          "type": "school",
          "name": "Unguwar Imanna Primary School",
          "slug": "unguwar-imanna-primary-school-school",
          "coordinates": {
            "lat": 12.6003010796312,
            "lng": 3.81631502002222
          },
          "source": "grid3",
          "verified": true,
          "metadata": {
            "category": "Primary",
            "management": "Public",
            "education": "Formal",
            "subtype": "Primary"
          }
        },
        {
          "type": "school",
          "name": "Gombara Primary School",
          "slug": "gombara-primary-school-school",
          "coordinates": {
            "lat": 12.7634364404394,
            "lng": 4.30609881860562
          },
          "source": "grid3",
          "verified": true,
          "metadata": {
            "category": "Primary",
            "management": "Public",
            "education": "Formal",
            "subtype": "Primary"
          }
        },
        {
          "type": "school",
          "name": "Gorun Ango Primary School",
          "slug": "gorun-ango-primary-school-school",
          "coordinates": {
            "lat": 12.1550524201331,
            "lng": 3.64484310212748
          },
          "source": "grid3",
          "verified": true,
          "metadata": {
            "category": "Primary",
            "management": "Public",
            "education": "Formal",
            "subtype": "Primary"
          }
        },
        {
          "type": "school",
          "name": "Giddare Primary School",
          "slug": "giddare-primary-school-school",
          "coordinates": {
            "lat": 12.6160115001307,
            "lng": 3.79158675742298
          },
          "source": "grid3",
          "verified": true,
          "metadata": {
            "category": "Primary",
            "management": "Public",
            "education": "Formal",
            "subtype": "Primary"
          }
        },
        {
          "type": "school",
          "name": "Feske Rafi Primary School",
          "slug": "feske-rafi-primary-school-school",
          "coordinates": {
            "lat": 12.7277356898502,
            "lng": 3.96650368040059
          },
          "source": "grid3",
          "verified": true,
          "metadata": {
            "category": "Primary",
            "management": "Public",
            "education": "Integrated",
            "subtype": "Primary"
          }
        },
        {
          "type": "school",
          "name": "Feske Gube Primary School",
          "slug": "feske-gube-primary-school-school",
          "coordinates": {
            "lat": 12.6204223204338,
            "lng": 3.88807367975659
          },
          "source": "grid3",
          "verified": true,
          "metadata": {
            "category": "Primary",
            "management": "Public",
            "education": "Formal",
            "subtype": "Primary"
          }
        },
        {
          "type": "school",
          "name": "Kamfani Primary School",
          "slug": "kamfani-primary-school-school",
          "coordinates": {
            "lat": 12.5938788500289,
            "lng": 3.92900163991379
          },
          "source": "grid3",
          "verified": true,
          "metadata": {
            "category": "Primary",
            "management": "Public",
            "education": "Formal",
            "subtype": "Primary"
          }
        },
        {
          "type": "school",
          "name": "Kuri Babba Primary School",
          "slug": "kuri-babba-primary-school-school",
          "coordinates": {
            "lat": 12.5899900304156,
            "lng": 3.86316493041727
          },
          "source": "grid3",
          "verified": true,
          "metadata": {
            "category": "Primary",
            "management": "Public",
            "education": "Formal",
            "subtype": "Primary"
          }
        },
        {
          "type": "school",
          "name": "Awashaka Primary School",
          "slug": "awashaka-primary-school-school",
          "coordinates": {
            "lat": 12.8782948403347,
            "lng": 4.07111911965171
          },
          "source": "grid3",
          "verified": true,
          "metadata": {
            "category": "Primary",
            "management": "Public",
            "education": "Formal",
            "subtype": "Primary"
          }
        },
        {
          "type": "school",
          "name": "Kuri Sabuwa Primary School",
          "slug": "kuri-sabuwa-primary-school-school",
          "coordinates": {
            "lat": 12.5779739898078,
            "lng": 3.88180880003614
          },
          "source": "grid3",
          "verified": true,
          "metadata": {
            "category": "Primary",
            "management": "Public",
            "education": "Formal",
            "subtype": "Primary"
          }
        },
        {
          "type": "school",
          "name": "Tullun Dabaga Primary School",
          "slug": "tullun-dabaga-primary-school-school",
          "coordinates": {
            "lat": 13.0795758297608,
            "lng": 4.18469374991668
          },
          "source": "grid3",
          "verified": true,
          "metadata": {
            "category": "Primary",
            "management": "Public",
            "education": "Formal",
            "subtype": "Primary"
          }
        },
        {
          "type": "school",
          "name": "Sangela Primary School",
          "slug": "sangela-primary-school-school",
          "coordinates": {
            "lat": 13.076754859749,
            "lng": 4.31224335015054
          },
          "source": "grid3",
          "verified": true,
          "metadata": {
            "category": "Primary",
            "management": "Public",
            "education": "Formal",
            "subtype": "Primary"
          }
        },
        {
          "type": "school",
          "name": "Masama Primary School",
          "slug": "masama-primary-school-school-3",
          "coordinates": {
            "lat": 12.8658154402304,
            "lng": 4.14960153008661
          },
          "source": "grid3",
          "verified": true,
          "metadata": {
            "category": "Primary",
            "management": "Public",
            "education": "Formal",
            "subtype": "Primary"
          }
        },
        {
          "type": "school",
          "name": "Dunbugaje Primary School",
          "slug": "dunbugaje-primary-school-school",
          "coordinates": {
            "lat": 12.1868889403723,
            "lng": 3.70343642994732
          },
          "source": "grid3",
          "verified": true,
          "metadata": {
            "category": "Primary",
            "management": "Public",
            "education": "Formal",
            "subtype": "Primary"
          }
        },
        {
          "type": "school",
          "name": "Tumkara Primary School",
          "slug": "tumkara-primary-school-school",
          "coordinates": {
            "lat": 12.3666952003233,
            "lng": 3.73666282003319
          },
          "source": "grid3",
          "verified": true,
          "metadata": {
            "category": "Primary",
            "management": "Public",
            "education": "Formal",
            "subtype": "Primary"
          }
        },
        {
          "type": "school",
          "name": "Kuka Bakwai Primary School",
          "slug": "kuka-bakwai-primary-school-school",
          "coordinates": {
            "lat": 12.8954919696787,
            "lng": 4.22860948004353
          },
          "source": "grid3",
          "verified": true,
          "metadata": {
            "category": "Primary",
            "management": "Public",
            "education": "Formal",
            "subtype": "Primary"
          }
        },
        {
          "type": "school",
          "name": "Kamzo Primary School",
          "slug": "kamzo-primary-school-school",
          "coordinates": {
            "lat": 12.8047216895544,
            "lng": 4.15406937010539
          },
          "source": "grid3",
          "verified": true,
          "metadata": {
            "category": "Primary",
            "management": "Public",
            "education": "Formal",
            "subtype": "Primary"
          }
        },
        {
          "type": "school",
          "name": "Maimaiki Primary School",
          "slug": "maimaiki-primary-school-school",
          "coordinates": {
            "lat": 13.0418158196444,
            "lng": 4.39328809007333
          },
          "source": "grid3",
          "verified": true,
          "metadata": {
            "category": "Primary",
            "management": "Public",
            "education": "Formal",
            "subtype": "Primary"
          }
        },
        {
          "type": "school",
          "name": "Rausar Kade Primary School",
          "slug": "rausar-kade-primary-school-school",
          "coordinates": {
            "lat": 13.0371824603023,
            "lng": 4.44882791017994
          },
          "source": "grid3",
          "verified": true,
          "metadata": {
            "category": "Primary",
            "management": "Public",
            "education": "Formal",
            "subtype": "Primary"
          }
        },
        {
          "type": "school",
          "name": "Bachaka II Primary School",
          "slug": "bachaka-ii-primary-school-school",
          "coordinates": {
            "lat": 13.1684128903427,
            "lng": 4.14532518990563
          },
          "source": "grid3",
          "verified": true,
          "metadata": {
            "category": "Primary",
            "management": "Public",
            "education": "Formal",
            "subtype": "Primary"
          }
        },
        {
          "type": "school",
          "name": "Gorun Gora Primary School",
          "slug": "gorun-gora-primary-school-school",
          "coordinates": {
            "lat": 12.5858538495755,
            "lng": 3.72934332963098
          },
          "source": "grid3",
          "verified": true,
          "metadata": {
            "category": "Primary",
            "management": "Public",
            "education": "Formal",
            "subtype": "Primary"
          }
        },
        {
          "type": "school",
          "name": "Mafaskara Primary School",
          "slug": "mafaskara-primary-school-school",
          "coordinates": {
            "lat": 13.1117778101979,
            "lng": 4.374197250203
          },
          "source": "grid3",
          "verified": true,
          "metadata": {
            "category": "Primary",
            "management": "Public",
            "education": "Formal",
            "subtype": "Primary"
          }
        },
        {
          "type": "school",
          "name": "Dukki Primary School",
          "slug": "dukki-primary-school-school",
          "coordinates": {
            "lat": 13.158707280017,
            "lng": 4.2307173101558
          },
          "source": "grid3",
          "verified": true,
          "metadata": {
            "category": "Primary",
            "management": "Public",
            "education": "Formal",
            "subtype": "Primary"
          }
        },
        {
          "type": "school",
          "name": "Sakwabe Model Primary School",
          "slug": "sakwabe-model-primary-school-school",
          "coordinates": {
            "lat": 13.1594124699096,
            "lng": 4.21825800000676
          },
          "source": "grid3",
          "verified": true,
          "metadata": {
            "category": "Primary",
            "management": "Public",
            "education": "Formal",
            "subtype": "Primary"
          }
        },
        {
          "type": "school",
          "name": "Botawa Primary School",
          "slug": "botawa-primary-school-school",
          "coordinates": {
            "lat": 13.1687464398963,
            "lng": 4.18586149980842
          },
          "source": "grid3",
          "verified": true,
          "metadata": {
            "category": "Primary",
            "management": "Public",
            "education": "Formal",
            "subtype": "Primary"
          }
        },
        {
          "type": "school",
          "name": "Tungar Turba Primary School",
          "slug": "tungar-turba-primary-school-school",
          "coordinates": {
            "lat": 13.1500104500223,
            "lng": 4.37563059957256
          },
          "source": "grid3",
          "verified": true,
          "metadata": {
            "category": "Primary",
            "management": "Public",
            "education": "Formal",
            "subtype": "Primary"
          }
        },
        {
          "type": "school",
          "name": "Unguwar Barau Primary School",
          "slug": "unguwar-barau-primary-school-school",
          "coordinates": {
            "lat": 12.5694535402487,
            "lng": 3.80146998025543
          },
          "source": "grid3",
          "verified": true,
          "metadata": {
            "category": "Primary",
            "management": "Public",
            "education": "Formal",
            "subtype": "Primary"
          }
        },
        {
          "type": "school",
          "name": "Unguwar Ali Primary School",
          "slug": "unguwar-ali-primary-school-school",
          "coordinates": {
            "lat": 12.4608198698411,
            "lng": 3.90553887002289
          },
          "source": "grid3",
          "verified": true,
          "metadata": {
            "category": "Primary",
            "management": "Public",
            "education": "Formal",
            "subtype": "Primary"
          }
        },
        {
          "type": "school",
          "name": "Fawangu Primary School",
          "slug": "fawangu-primary-school-school",
          "coordinates": {
            "lat": 12.5027387695786,
            "lng": 3.82907466956038
          },
          "source": "grid3",
          "verified": true,
          "metadata": {
            "category": "Primary",
            "management": "Public",
            "education": "Formal",
            "subtype": "Primary"
          }
        },
        {
          "type": "school",
          "name": "Kohobi Primary School",
          "slug": "kohobi-primary-school-school",
          "coordinates": {
            "lat": 12.4992241902442,
            "lng": 3.93132563017372
          },
          "source": "grid3",
          "verified": true,
          "metadata": {
            "category": "Primary",
            "management": "Public",
            "education": "Formal",
            "subtype": "Primary"
          }
        },
        {
          "type": "school",
          "name": "Junjawa Primary School",
          "slug": "junjawa-primary-school-school",
          "coordinates": {
            "lat": 12.4391330802275,
            "lng": 3.83916149980342
          },
          "source": "grid3",
          "verified": true,
          "metadata": {
            "category": "Primary",
            "management": "Public",
            "education": "Formal",
            "subtype": "Primary"
          }
        },
        {
          "type": "school",
          "name": "Dukki Primary School",
          "slug": "dukki-primary-school-school-2",
          "coordinates": {
            "lat": 12.8638847603734,
            "lng": 4.24671743016529
          },
          "source": "grid3",
          "verified": true,
          "metadata": {
            "category": "Primary",
            "management": "Public",
            "education": "Formal",
            "subtype": "Primary"
          }
        },
        {
          "type": "school",
          "name": "Farsangu Nomadic Primary School",
          "slug": "farsangu-nomadic-primary-school-school",
          "coordinates": {
            "lat": 12.4673469001394,
            "lng": 3.81542413001961
          },
          "source": "grid3",
          "verified": true,
          "metadata": {
            "category": "Primary",
            "management": "Public",
            "education": "Formal",
            "subtype": "Primary"
          }
        },
        {
          "type": "school",
          "name": "Sabon Gari Ungowar Kolo Primary School",
          "slug": "sabon-gari-ungowar-kolo-primary-school-school",
          "coordinates": {
            "lat": 12.329958279651,
            "lng": 3.71784990035269
          },
          "source": "grid3",
          "verified": true,
          "metadata": {
            "category": "Primary",
            "management": "Public",
            "education": "Formal",
            "subtype": "Primary"
          }
        },
        {
          "type": "school",
          "name": "Gorun Goje Primary School",
          "slug": "gorun-goje-primary-school-school",
          "coordinates": {
            "lat": 12.2986114897285,
            "lng": 3.67400432993594
          },
          "source": "grid3",
          "verified": true,
          "metadata": {
            "category": "Primary",
            "management": "Private",
            "education": "Formal",
            "subtype": "Primary"
          }
        },
        {
          "type": "school",
          "name": "Dangongora Primary School",
          "slug": "dangongora-primary-school-school",
          "coordinates": {
            "lat": 12.7181624597298,
            "lng": 4.06992309957144
          },
          "source": "grid3",
          "verified": true,
          "metadata": {
            "category": "Primary",
            "management": "Public",
            "education": "Formal",
            "subtype": "Primary"
          }
        },
        {
          "type": "school",
          "name": "Bui Primary School",
          "slug": "bui-primary-school-school",
          "coordinates": {
            "lat": 12.7218741803492,
            "lng": 4.11786899036167
          },
          "source": "grid3",
          "verified": true,
          "metadata": {
            "category": "Primary",
            "management": "Public",
            "education": "Formal",
            "subtype": "Primary"
          }
        },
        {
          "type": "school",
          "name": "Madawaci Primary School",
          "slug": "madawaci-primary-school-school",
          "coordinates": {
            "lat": 12.8007975103968,
            "lng": 4.03099508955177
          },
          "source": "grid3",
          "verified": true,
          "metadata": {
            "category": "Primary",
            "management": "Public",
            "education": "Formal",
            "subtype": "Primary"
          }
        },
        {
          "type": "school",
          "name": "Mamunu Primary School",
          "slug": "mamunu-primary-school-school",
          "coordinates": {
            "lat": 12.7962983496892,
            "lng": 4.11383525039656
          },
          "source": "grid3",
          "verified": true,
          "metadata": {
            "category": "Primary",
            "management": "Public",
            "education": "Formal",
            "subtype": "Primary"
          }
        },
        {
          "type": "school",
          "name": "Makangara Primary School",
          "slug": "makangara-primary-school-school",
          "coordinates": {
            "lat": 12.725659460116,
            "lng": 4.04379206005558
          },
          "source": "grid3",
          "verified": true,
          "metadata": {
            "category": "Primary",
            "management": "Public",
            "education": "Formal",
            "subtype": "Primary"
          }
        },
        {
          "type": "school",
          "name": "Tashar Isyaka Primary School",
          "slug": "tashar-isyaka-primary-school-school",
          "coordinates": {
            "lat": 12.6861020496699,
            "lng": 4.07552902984088
          },
          "source": "grid3",
          "verified": true,
          "metadata": {
            "category": "Primary",
            "management": "Public",
            "education": "Formal",
            "subtype": "Primary"
          }
        },
        {
          "type": "school",
          "name": "Landari Primary School",
          "slug": "landari-primary-school-school",
          "coordinates": {
            "lat": 12.6063996702086,
            "lng": 4.02048187993483
          },
          "source": "grid3",
          "verified": true,
          "metadata": {
            "category": "Primary",
            "management": "Public",
            "education": "Formal",
            "subtype": "Primary"
          }
        },
        {
          "type": "school",
          "name": "Unguwar Rimi Primary School",
          "slug": "unguwar-rimi-primary-school-school-4",
          "coordinates": {
            "lat": 12.5655487495752,
            "lng": 3.96848804978373
          },
          "source": "grid3",
          "verified": true,
          "metadata": {
            "category": "Primary",
            "management": "Public",
            "education": "Formal",
            "subtype": "Primary"
          }
        },
        {
          "type": "school",
          "name": "Sabaru Primary School",
          "slug": "sabaru-primary-school-school-4",
          "coordinates": {
            "lat": 12.5712297696382,
            "lng": 3.94862445035812
          },
          "source": "grid3",
          "verified": true,
          "metadata": {
            "category": "Primary",
            "management": "Public",
            "education": "Formal",
            "subtype": "Primary"
          }
        },
        {
          "type": "school",
          "name": "Unguwar Tuwo Primary School",
          "slug": "unguwar-tuwo-primary-school-school",
          "coordinates": {
            "lat": 12.5561043401432,
            "lng": 3.94696096987292
          },
          "source": "grid3",
          "verified": true,
          "metadata": {
            "category": "Primary",
            "management": "Public",
            "education": "Formal",
            "subtype": "Primary"
          }
        },
        {
          "type": "school",
          "name": "Mazubi Primary School",
          "slug": "mazubi-primary-school-school",
          "coordinates": {
            "lat": 12.5356590196481,
            "lng": 3.91347302006386
          },
          "source": "grid3",
          "verified": true,
          "metadata": {
            "category": "Primary",
            "management": "Public",
            "education": "Formal",
            "subtype": "Primary"
          }
        },
        {
          "type": "school",
          "name": "Bela Primary School",
          "slug": "bela-primary-school-school-3",
          "coordinates": {
            "lat": 12.3719522700812,
            "lng": 3.77495981983986
          },
          "source": "grid3",
          "verified": true,
          "metadata": {
            "category": "Primary",
            "management": "Private",
            "education": "Formal",
            "subtype": "Primary"
          }
        },
        {
          "type": "school",
          "name": "Madanfara Primary School",
          "slug": "madanfara-primary-school-school",
          "coordinates": {
            "lat": 12.9997056898657,
            "lng": 4.28922500992633
          },
          "source": "grid3",
          "verified": true,
          "metadata": {
            "category": "Primary",
            "management": "Public",
            "education": "Formal",
            "subtype": "Primary"
          }
        },
        {
          "type": "school",
          "name": "Unguwar Chiffa Primary School",
          "slug": "unguwar-chiffa-primary-school-school",
          "coordinates": {
            "lat": 12.5155559100772,
            "lng": 3.85885281970189
          },
          "source": "grid3",
          "verified": true,
          "metadata": {
            "category": "Primary",
            "management": "Public",
            "education": "Formal",
            "subtype": "Primary"
          }
        },
        {
          "type": "school",
          "name": "Dogon Daji Primary School",
          "slug": "dogon-daji-primary-school-school",
          "coordinates": {
            "lat": 13.1729782303611,
            "lng": 4.22147434976148
          },
          "source": "grid3",
          "verified": true,
          "metadata": {
            "category": "Primary",
            "management": "Public",
            "education": "Formal",
            "subtype": "Primary"
          }
        },
        {
          "type": "school",
          "name": "Jantullu Primary School",
          "slug": "jantullu-primary-school-school",
          "coordinates": {
            "lat": 12.898038759781,
            "lng": 4.06748354013331
          },
          "source": "grid3",
          "verified": true,
          "metadata": {
            "category": "Primary",
            "management": "Public",
            "education": "Formal",
            "subtype": "Primary"
          }
        },
        {
          "type": "school",
          "name": "Dutsin Fakkara Primary School",
          "slug": "dutsin-fakkara-primary-school-school",
          "coordinates": {
            "lat": 12.8850860401886,
            "lng": 4.41011408000082
          },
          "source": "grid3",
          "verified": true,
          "metadata": {
            "category": "Primary",
            "management": "Public",
            "education": "Formal",
            "subtype": "Primary"
          }
        },
        {
          "type": "school",
          "name": "Hodi Model Primary School",
          "slug": "hodi-model-primary-school-school",
          "coordinates": {
            "lat": 12.5544601699009,
            "lng": 3.82039904557956
          },
          "source": "grid3",
          "verified": true,
          "metadata": {
            "category": "Primary",
            "management": "Public",
            "education": "Formal",
            "subtype": "Primary"
          }
        },
        {
          "type": "school",
          "name": "Kukoki Primary School",
          "slug": "kukoki-primary-school-school-2",
          "coordinates": {
            "lat": 12.9573011400356,
            "lng": 4.1392225029162
          },
          "source": "grid3",
          "verified": true,
          "metadata": {
            "category": "Primary",
            "management": "Public",
            "education": "Formal",
            "subtype": "Primary"
          }
        },
        {
          "type": "school",
          "name": "Eri Primary School",
          "slug": "eri-primary-school-school",
          "coordinates": {
            "lat": 12.5395309895636,
            "lng": 3.86379182263454
          },
          "source": "grid3",
          "verified": true,
          "metadata": {
            "category": "Primary",
            "management": "Public",
            "education": "Formal",
            "subtype": "Primary"
          }
        },
        {
          "type": "school",
          "name": "Zabamawa Primary School",
          "slug": "zabamawa-primary-school-school",
          "coordinates": {
            "lat": 12.5877745496558,
            "lng": 3.91451015961621
          },
          "source": "grid3",
          "verified": true,
          "metadata": {
            "category": "Primary",
            "management": "Public",
            "education": "Formal",
            "subtype": "Primary"
          }
        },
        {
          "type": "school",
          "name": "Tungar Kibiya Primary School",
          "slug": "tungar-kibiya-primary-school-school",
          "coordinates": {
            "lat": 12.7710378197397,
            "lng": 4.27893877030806
          },
          "source": "grid3",
          "verified": true,
          "metadata": {
            "category": "Primary",
            "management": "Public",
            "education": "Formal",
            "subtype": "Primary"
          }
        },
        {
          "type": "school",
          "name": "Unguwar Mauri Primary School",
          "slug": "unguwar-mauri-primary-school-school",
          "coordinates": {
            "lat": 12.5474409199625,
            "lng": 3.935242260422
          },
          "source": "grid3",
          "verified": true,
          "metadata": {
            "category": "Primary",
            "management": "Public",
            "education": "Formal",
            "subtype": "Primary"
          }
        },
        {
          "type": "school",
          "name": "Danyakku Primary School",
          "slug": "danyakku-primary-school-school",
          "coordinates": {
            "lat": 13.1468953396483,
            "lng": 4.39725747994879
          },
          "source": "grid3",
          "verified": true,
          "metadata": {
            "category": "Primary",
            "management": "Public",
            "education": "Formal",
            "subtype": "Primary"
          }
        },
        {
          "type": "school",
          "name": "Maduwai Primary School",
          "slug": "maduwai-primary-school-school",
          "coordinates": {
            "lat": 12.9278529295691,
            "lng": 4.28632307035349
          },
          "source": "grid3",
          "verified": true,
          "metadata": {
            "category": "Primary",
            "management": "Public",
            "education": "Formal",
            "subtype": "Primary"
          }
        },
        {
          "type": "school",
          "name": "Sanyahi Primary School",
          "slug": "sanyahi-primary-school-school",
          "coordinates": {
            "lat": 12.3610353503012,
            "lng": 3.8169389957381
          },
          "source": "grid3",
          "verified": true,
          "metadata": {
            "category": "Primary",
            "management": "Public",
            "education": "Formal",
            "subtype": "Primary"
          }
        },
        {
          "type": "school",
          "name": "Gigane Primary School",
          "slug": "gigane-primary-school-school-2",
          "coordinates": {
            "lat": 12.6523989604437,
            "lng": 4.07385511002536
          },
          "source": "grid3",
          "verified": true,
          "metadata": {
            "category": "Primary",
            "management": "Public",
            "education": "Formal",
            "subtype": "Primary"
          }
        },
        {
          "type": "school",
          "name": "Pawomgo Primary School",
          "slug": "pawomgo-primary-school-school",
          "coordinates": {
            "lat": 12.5027042598937,
            "lng": 3.8288426399759
          },
          "source": "grid3",
          "verified": true,
          "metadata": {
            "category": "Primary",
            "management": "Public",
            "education": "Formal",
            "subtype": "Primary"
          }
        },
        {
          "type": "school",
          "name": "Intali Primary School",
          "slug": "intali-primary-school-school",
          "coordinates": {
            "lat": 12.1817189501695,
            "lng": 3.67371976375614
          },
          "source": "grid3",
          "verified": true,
          "metadata": {
            "category": "Primary",
            "management": "Public",
            "education": "Formal",
            "subtype": "Primary"
          }
        },
        {
          "type": "school",
          "name": "Kyada Primary School",
          "slug": "kyada-primary-school-school",
          "coordinates": {
            "lat": 12.9851800200419,
            "lng": 4.1666132210234
          },
          "source": "grid3",
          "verified": true,
          "metadata": {
            "category": "Primary",
            "management": "Public",
            "education": "Formal",
            "subtype": "Primary"
          }
        },
        {
          "type": "school",
          "name": "Gandun Wala Primary School",
          "slug": "gandun-wala-primary-school-school",
          "coordinates": {
            "lat": 12.8161150197924,
            "lng": 4.22620117744242
          },
          "source": "grid3",
          "verified": true,
          "metadata": {
            "category": "Primary",
            "management": "Public",
            "education": "Formal",
            "subtype": "Primary"
          }
        },
        {
          "type": "school",
          "name": "Laima Jantullu Primary School",
          "slug": "laima-jantullu-primary-school-school",
          "coordinates": {
            "lat": 12.9474627996685,
            "lng": 4.23223078282439
          },
          "source": "grid3",
          "verified": true,
          "metadata": {
            "category": "Primary",
            "management": "Public",
            "education": "Formal",
            "subtype": "Primary"
          }
        },
        {
          "type": "school",
          "name": "Tulluje Primary School",
          "slug": "tulluje-primary-school-school",
          "coordinates": {
            "lat": 12.8005260203596,
            "lng": 4.27991509410634
          },
          "source": "grid3",
          "verified": true,
          "metadata": {
            "category": "Primary",
            "management": "Public",
            "education": "Formal",
            "subtype": "Primary"
          }
        },
        {
          "type": "school",
          "name": "Maikali Primary School",
          "slug": "maikali-primary-school-school",
          "coordinates": {
            "lat": 12.8671467300376,
            "lng": 4.17827010208362
          },
          "source": "grid3",
          "verified": true,
          "metadata": {
            "category": "Primary",
            "management": "Public",
            "education": "Formal",
            "subtype": "Primary"
          }
        },
        {
          "type": "school",
          "name": "Falde Primary School",
          "slug": "falde-primary-school-school",
          "coordinates": {
            "lat": 12.5952780197649,
            "lng": 3.80271256003664
          },
          "source": "grid3",
          "verified": true,
          "metadata": {
            "category": "Primary",
            "management": "Public",
            "education": "Formal",
            "subtype": "Primary"
          }
        },
        {
          "type": "school",
          "name": "Kwanawa Primary School",
          "slug": "kwanawa-primary-school-school",
          "coordinates": {
            "lat": 12.78947532013,
            "lng": 4.24072802088153
          },
          "source": "grid3",
          "verified": true,
          "metadata": {
            "category": "Primary",
            "management": "Public",
            "education": "Formal",
            "subtype": "Primary"
          }
        },
        {
          "type": "school",
          "name": "Marake Primary School",
          "slug": "marake-primary-school-school-2",
          "coordinates": {
            "lat": 12.4447685496289,
            "lng": 3.81592512074775
          },
          "source": "grid3",
          "verified": true,
          "metadata": {
            "category": "Primary",
            "management": "Public",
            "education": "Formal",
            "subtype": "Primary"
          }
        },
        {
          "type": "school",
          "name": "Gwamatse Primary School",
          "slug": "gwamatse-primary-school-school",
          "coordinates": {
            "lat": 12.7771693497857,
            "lng": 4.21715676757083
          },
          "source": "grid3",
          "verified": true,
          "metadata": {
            "category": "Primary",
            "management": "Public",
            "education": "Formal",
            "subtype": "Primary"
          }
        },
        {
          "type": "school",
          "name": "Dangandu Primary School",
          "slug": "dangandu-primary-school-school",
          "coordinates": {
            "lat": 12.9433912000439,
            "lng": 4.36402916891109
          },
          "source": "grid3",
          "verified": true,
          "metadata": {
            "category": "Primary",
            "management": "Public",
            "education": "Formal",
            "subtype": "Primary"
          }
        },
        {
          "type": "school",
          "name": "Tungar Sule Primary School",
          "slug": "tungar-sule-primary-school-school",
          "coordinates": {
            "lat": 12.4424350301526,
            "lng": 3.73852193364036
          },
          "source": "grid3",
          "verified": true,
          "metadata": {
            "category": "Primary",
            "management": "Public",
            "education": "Formal",
            "subtype": "Primary"
          }
        },
        {
          "type": "school",
          "name": "Adigari Primary School",
          "slug": "adigari-primary-school-school",
          "coordinates": {
            "lat": 12.8529471202135,
            "lng": 4.32552874065891
          },
          "source": "grid3",
          "verified": true,
          "metadata": {
            "category": "Primary",
            "management": "Public",
            "education": "Formal",
            "subtype": "Primary"
          }
        },
        {
          "type": "school",
          "name": "Raya Primary School",
          "slug": "raya-primary-school-school-3",
          "coordinates": {
            "lat": 12.3667162696402,
            "lng": 3.6733978990938
          },
          "source": "grid3",
          "verified": true,
          "metadata": {
            "category": "Primary",
            "management": "Public",
            "education": "Formal",
            "subtype": "Primary"
          }
        },
        {
          "type": "school",
          "name": "Goru Primary School",
          "slug": "goru-primary-school-school",
          "coordinates": {
            "lat": 12.8848546698072,
            "lng": 4.35563921907476
          },
          "source": "grid3",
          "verified": true,
          "metadata": {
            "category": "Primary",
            "management": "Public",
            "education": "Formal",
            "subtype": "Primary"
          }
        },
        {
          "type": "school",
          "name": "Tubowa Primary School",
          "slug": "tubowa-primary-school-school",
          "coordinates": {
            "lat": 12.6256406303109,
            "lng": 3.88687491404607
          },
          "source": "grid3",
          "verified": true,
          "metadata": {
            "category": "Primary",
            "management": "Public",
            "education": "Formal",
            "subtype": "Primary"
          }
        },
        {
          "type": "school",
          "name": "Model Primary School",
          "slug": "model-primary-school-school-3",
          "coordinates": {
            "lat": 12.7221118199046,
            "lng": 4.11840163992377
          },
          "source": "grid3",
          "verified": true,
          "metadata": {
            "category": "Primary",
            "management": "Public",
            "education": "Formal",
            "subtype": "Primary"
          }
        },
        {
          "type": "school",
          "name": "Nizamiya Primary School",
          "slug": "nizamiya-primary-school-school-3",
          "coordinates": {
            "lat": 12.7883970698689,
            "lng": 4.26835477415358
          },
          "source": "grid3",
          "verified": true,
          "metadata": {
            "category": "Primary",
            "management": "Public",
            "education": "Formal",
            "subtype": "Primary"
          }
        },
        {
          "type": "school",
          "name": "Ganza Primary School",
          "slug": "ganza-primary-school-school-2",
          "coordinates": {
            "lat": 12.6789629497804,
            "lng": 3.92879247739097
          },
          "source": "grid3",
          "verified": true,
          "metadata": {
            "category": "Primary",
            "management": "Public",
            "education": "Formal",
            "subtype": "Primary"
          }
        },
        {
          "type": "school",
          "name": "Mulgu Primary School",
          "slug": "mulgu-primary-school-school",
          "coordinates": {
            "lat": 12.5493746997826,
            "lng": 3.78858804720068
          },
          "source": "grid3",
          "verified": true,
          "metadata": {
            "category": "Primary",
            "management": "Public",
            "education": "Formal",
            "subtype": "Primary"
          }
        },
        {
          "type": "school",
          "name": "Birnin Deebe Primary School",
          "slug": "birnin-deebe-primary-school-school",
          "coordinates": {
            "lat": 12.428696750055,
            "lng": 3.70194196714812
          },
          "source": "grid3",
          "verified": true,
          "metadata": {
            "category": "Primary",
            "management": "Public",
            "education": "Formal",
            "subtype": "Primary"
          }
        },
        {
          "type": "school",
          "name": "Kukar Mai Fulani Primary School",
          "slug": "kukar-mai-fulani-primary-school-school",
          "coordinates": {
            "lat": 12.3370242097995,
            "lng": 3.75361740581866
          },
          "source": "grid3",
          "verified": true,
          "metadata": {
            "category": "Primary",
            "management": "Public",
            "education": "Formal",
            "subtype": "Primary"
          }
        },
        {
          "type": "school",
          "name": "Feske Tudu Primary School",
          "slug": "feske-tudu-primary-school-school",
          "coordinates": {
            "lat": 12.7251827699689,
            "lng": 3.96118819697773
          },
          "source": "grid3",
          "verified": true,
          "metadata": {
            "category": "Primary",
            "management": "Public",
            "education": "Formal",
            "subtype": "Primary"
          }
        },
        {
          "type": "school",
          "name": "Dagwabrio Primary School",
          "slug": "dagwabrio-primary-school-school",
          "coordinates": {
            "lat": 12.7631843101079,
            "lng": 4.17082428930956
          },
          "source": "grid3",
          "verified": true,
          "metadata": {
            "category": "Primary",
            "management": "Public",
            "education": "Formal",
            "subtype": "Primary"
          }
        },
        {
          "type": "school",
          "name": "Rafin Tsaka Primary School",
          "slug": "rafin-tsaka-primary-school-school",
          "coordinates": {
            "lat": 12.2558927500504,
            "lng": 3.72562050778026
          },
          "source": "grid3",
          "verified": true,
          "metadata": {
            "category": "Primary",
            "management": "Public",
            "education": "Formal",
            "subtype": "Primary"
          }
        },
        {
          "type": "school",
          "name": "Bagiza Primary School",
          "slug": "bagiza-primary-school-school",
          "coordinates": {
            "lat": 12.9657554597467,
            "lng": 4.41064596244127
          },
          "source": "grid3",
          "verified": true,
          "metadata": {
            "category": "Primary",
            "management": "Public",
            "education": "Formal",
            "subtype": "Primary"
          }
        },
        {
          "type": "school",
          "name": "Gadanga Primary School",
          "slug": "gadanga-primary-school-school",
          "coordinates": {
            "lat": 12.5387048696341,
            "lng": 3.72683823119945
          },
          "source": "grid3",
          "verified": true,
          "metadata": {
            "category": "Primary",
            "management": "Public",
            "education": "Formal",
            "subtype": "Primary"
          }
        },
        {
          "type": "school",
          "name": "Amagoro Primary School",
          "slug": "amagoro-primary-school-school",
          "coordinates": {
            "lat": 12.6850301000591,
            "lng": 3.89686346098
          },
          "source": "grid3",
          "verified": true,
          "metadata": {
            "category": "Primary",
            "management": "Public",
            "education": "Formal",
            "subtype": "Primary"
          }
        },
        {
          "type": "school",
          "name": "Maitsaida Primary School",
          "slug": "maitsaida-primary-school-school",
          "coordinates": {
            "lat": 12.940859200192,
            "lng": 4.12996351660308
          },
          "source": "grid3",
          "verified": true,
          "metadata": {
            "category": "Primary",
            "management": "Public",
            "education": "Formal",
            "subtype": "Primary"
          }
        },
        {
          "type": "school",
          "name": "Turumin Duste Primary School",
          "slug": "turumin-duste-primary-school-school",
          "coordinates": {
            "lat": 12.4557280496098,
            "lng": 3.89639139244883
          },
          "source": "grid3",
          "verified": true,
          "metadata": {
            "category": "Primary",
            "management": "Public",
            "education": "Formal",
            "subtype": "Primary"
          }
        },
        {
          "type": "school",
          "name": "Tukui Primary School",
          "slug": "tukui-primary-school-school",
          "coordinates": {
            "lat": 12.5090986500827,
            "lng": 3.66475045716788
          },
          "source": "grid3",
          "verified": true,
          "metadata": {
            "category": "Primary",
            "management": "Public",
            "education": "Formal",
            "subtype": "Primary"
          }
        },
        {
          "type": "school",
          "name": "Chibike Baba Primary School",
          "slug": "chibike-baba-primary-school-school",
          "coordinates": {
            "lat": 12.4736881296035,
            "lng": 3.84653449087409
          },
          "source": "grid3",
          "verified": true,
          "metadata": {
            "category": "Primary",
            "management": "Public",
            "education": "Formal",
            "subtype": "Primary"
          }
        },
        {
          "type": "school",
          "name": "Dogondaji Primary School",
          "slug": "dogondaji-primary-school-school-2",
          "coordinates": {
            "lat": 12.4175065802645,
            "lng": 3.78219366060898
          },
          "source": "grid3",
          "verified": true,
          "metadata": {
            "category": "Primary",
            "management": "Public",
            "education": "Formal",
            "subtype": "Primary"
          }
        },
        {
          "type": "school",
          "name": "Jadadi Primary School",
          "slug": "jadadi-primary-school-school-2",
          "coordinates": {
            "lat": 12.5081545103225,
            "lng": 3.75120878215961
          },
          "source": "grid3",
          "verified": true,
          "metadata": {
            "category": "Primary",
            "management": "Public",
            "education": "Formal",
            "subtype": "Primary"
          }
        },
        {
          "type": "school",
          "name": "Ramba Primary School",
          "slug": "ramba-primary-school-school",
          "coordinates": {
            "lat": 12.4522679997684,
            "lng": 3.86515974992255
          },
          "source": "grid3",
          "verified": true,
          "metadata": {
            "category": "Primary",
            "management": "Public",
            "education": "Formal",
            "subtype": "Primary"
          }
        },
        {
          "type": "school",
          "name": "Gerukuka Primary School",
          "slug": "gerukuka-primary-school-school",
          "coordinates": {
            "lat": 13.1524747597024,
            "lng": 4.41188514188582
          },
          "source": "grid3",
          "verified": true,
          "metadata": {
            "category": "Primary",
            "management": "Public",
            "education": "Formal",
            "subtype": "Primary"
          }
        },
        {
          "type": "school",
          "name": "Tago Primary School",
          "slug": "tago-primary-school-school",
          "coordinates": {
            "lat": 12.7451099595571,
            "lng": 4.22987824988138
          },
          "source": "grid3",
          "verified": true,
          "metadata": {
            "category": "Primary",
            "management": "Public",
            "education": "Formal",
            "subtype": "Primary"
          }
        },
        {
          "type": "school",
          "name": "Zagabu Primary School",
          "slug": "zagabu-primary-school-school",
          "coordinates": {
            "lat": 12.8409415504123,
            "lng": 4.2983204131566
          },