{
  "name": "Kogi",
  "slug": "kogi",
  "lgas": [
    {
      "name": "Adavi",
      "slug": "kogi-adavi",
      "markets": [],
      "facilities": [
        {
          "type": "market",
          "name": "Okodi Market",
          "slug": "okodi-market-market",
          "coordinates": {
            "lat": 7.58411000037626,
            "lng": 6.22147000024034
          },
          "source": "grid3",
          "verified": true,
          "metadata": {
            "mrkt_days": "0"
          }
        },
        {
          "type": "health_facility",
          "name": "Adavi Support Programme Health Clinic and Maternity",
          "slug": "adavi-support-programme-health-clinic-and-maternity-health-facility",
          "coordinates": {
            "lat": 7.57044,
            "lng": 6.24548
          },
          "source": "grid3",
          "verified": true,
          "metadata": {
            "facility_level": "Primary",
            "facility_level_option": "Primary Health Clinic",
            "ownership": "Public",
            "ownership_type": "Local Government"
          }
        },
        {
          "type": "health_facility",
          "name": "Gods Glory Hospital",
          "slug": "gods-glory-hospital-health-facility",
          "coordinates": {
            "lat": 7.55015,
            "lng": 6.18384
          },
          "source": "grid3",
          "verified": true,
          "metadata": {
            "facility_level": "Secondary",
            "facility_level_option": "Primary Health Center",
            "ownership": "Private",
            "ownership_type": "For Profit"
          }
        },
        {
          "type": "health_facility",
          "name": "Okatahi Clinic",
          "slug": "okatahi-clinic-health-facility",
          "coordinates": {
            "lat": 7.55572,
            "lng": 6.18167
          },
          "source": "grid3",
          "verified": true,
          "metadata": {
            "facility_level": "Primary",
            "facility_level_option": "Primary Health Clinic",
            "ownership": "Private",
            "ownership_type": "For Profit"
          }
        },
        {
          "type": "health_facility",
          "name": "Apasi Clinic",
          "slug": "apasi-clinic-health-facility",
          "coordinates": {
            "lat": 7.56769,
            "lng": 6.23655
          },
          "source": "grid3",
          "verified": true,
          "metadata": {
            "facility_level": "Primary",
            "facility_level_option": "Primary Health Clinic",
            "ownership": "Private",
            "ownership_type": "For Profit"
          }
        },
        {
          "type": "health_facility",
          "name": "Ebogbogo Primary Health Center",
          "slug": "ebogbogo-primary-health-center-health-facility",
          "coordinates": {
            "lat": 7.56324,
            "lng": 6.2394
          },
          "source": "grid3",
          "verified": true,
          "metadata": {
            "facility_level": "Primary",
            "facility_level_option": "Primary Health Clinic",
            "ownership": "Public",
            "ownership_type": "Local Government"
          }
        },
        {
          "type": "health_facility",
          "name": "Victory Hospital",
          "slug": "victory-hospital-health-facility",
          "coordinates": {
            "lat": 7.58187,
            "lng": 6.22347
          },
          "source": "grid3",
          "verified": true,
          "metadata": {
            "facility_level": "Secondary",
            "facility_level_option": "Primary Health Clinic",
            "ownership": "Private",
            "ownership_type": "For Profit"
          }
        },
        {
          "type": "health_facility",
          "name": "Oyiza Hospital",
          "slug": "oyiza-hospital-health-facility",
          "coordinates": {
            "lat": 7.56497,
            "lng": 6.23867
          },
          "source": "grid3",
          "verified": true,
          "metadata": {
            "facility_level": "Secondary",
            "facility_level_option": "Primary Health Center",
            "ownership": "Private",
            "ownership_type": "For Profit"
          }
        },
        {
          "type": "health_facility",
          "name": "Ogaminana Clinic",
          "slug": "ogaminana-clinic-health-facility",
          "coordinates": {
            "lat": 7.59363,
            "lng": 6.22116
          },
          "source": "grid3",
          "verified": true,
          "metadata": {
            "facility_level": "Primary",
            "facility_level_option": "Primary Health Clinic",
            "ownership": "Private",
            "ownership_type": "For Profit"
          }
        },
        {
          "type": "health_facility",
          "name": "Osisi Maternity and Primary Health Clinic",
          "slug": "osisi-maternity-and-primary-health-clinic-health-facility",
          "coordinates": {
            "lat": 7.56985,
            "lng": 6.23274
          },
          "source": "grid3",
          "verified": true,
          "metadata": {
            "facility_level": "Primary",
            "facility_level_option": "Primary Health Clinic",
            "ownership": "Public",
            "ownership_type": "Local Government"
          }
        },
        {
          "type": "health_facility",
          "name": "Adavi Eba Cottage Hospital",
          "slug": "adavi-eba-cottage-hospital-health-facility",
          "coordinates": {
            "lat": 7.55813,
            "lng": 6.17509
          },
          "source": "grid3",
          "verified": true,
          "metadata": {
            "facility_level": "Secondary",
            "facility_level_option": "Unknown",
            "ownership": "Public",
            "ownership_type": "State Government"
          }
        },
        {
          "type": "health_facility",
          "name": "Osara Modern Primary Health Center",
          "slug": "osara-modern-primary-health-center-health-facility",
          "coordinates": {
            "lat": 7.68315,
            "lng": 6.42955
          },
          "source": "grid3",
          "verified": true,
          "metadata": {
            "facility_level": "Primary",
            "facility_level_option": "Primary Health Center",
            "ownership": "Public",
            "ownership_type": "Local Government"
          }
        },
        {
          "type": "health_facility",
          "name": "Aku Primary Health Clinic",
          "slug": "aku-primary-health-clinic-health-facility",
          "coordinates": {
            "lat": 7.72699,
            "lng": 6.48429
          },
          "source": "grid3",
          "verified": true,
          "metadata": {
            "facility_level": "Primary",
            "facility_level_option": "Health Post",
            "ownership": "Public",
            "ownership_type": "Local Government"
          }
        },
        {
          "type": "health_facility",
          "name": "Irepeni Health Post",
          "slug": "irepeni-health-post-health-facility",
          "coordinates": {
            "lat": 7.79918,
            "lng": 6.53348
          },
          "source": "grid3",
          "verified": true,
          "metadata": {
            "facility_level": "Primary",
            "facility_level_option": "Health Post",
            "ownership": "Public",
            "ownership_type": "Local Government"
          }
        },
        {
          "type": "health_facility",
          "name": "Fati Memorial Clinic",
          "slug": "fati-memorial-clinic-health-facility",
          "coordinates": {
            "lat": 7.611328125,
            "lng": 6.220886231
          },
          "source": "grid3",
          "verified": true,
          "metadata": {
            "facility_level": "Primary",
            "facility_level_option": "Primary Health Clinic",
            "ownership": "Private",
            "ownership_type": "For Profit"
          }
        },
        {
          "type": "health_facility",
          "name": "Ochu Memorial Clinic",
          "slug": "ochu-memorial-clinic-health-facility",
          "coordinates": {
            "lat": 7.589111328,
            "lng": 6.221923828
          },
          "source": "grid3",
          "verified": true,
          "metadata": {
            "facility_level": "Primary",
            "facility_level_option": "Primary Health Clinic",
            "ownership": "Private",
            "ownership_type": "For Profit"
          }
        },
        {
          "type": "health_facility",
          "name": "People'S Clinic",
          "slug": "people-s-clinic-health-facility-2",
          "coordinates": {
            "lat": 7.59672,
            "lng": 6.22565
          },
          "source": "grid3",
          "verified": true,
          "metadata": {
            "facility_level": "Primary",
            "facility_level_option": "Primary Health Clinic",
            "ownership": "Private",
            "ownership_type": "For Profit"
          }
        },
        {
          "type": "health_facility",
          "name": "Nagazi Clinic and Maternity",
          "slug": "nagazi-clinic-and-maternity-health-facility",
          "coordinates": {
            "lat": 7.59599,
            "lng": 6.23549
          },
          "source": "grid3",
          "verified": true,
          "metadata": {
            "facility_level": "Secondary",
            "facility_level_option": "Primary Health Clinic",
            "ownership": "Private",
            "ownership_type": "For Profit"
          }
        },
        {
          "type": "health_facility",
          "name": "Mercy Clinic",
          "slug": "mercy-clinic-health-facility-2",
          "coordinates": {
            "lat": 7.56011,
            "lng": 6.22701
          },
          "source": "grid3",
          "verified": true,
          "metadata": {
            "facility_level": "Primary",
            "facility_level_option": "Primary Health Clinic",
            "ownership": "Private",
            "ownership_type": "For Profit"
          }
        },
        {
          "type": "health_facility",
          "name": "Deeza Hospital",
          "slug": "deeza-hospital-health-facility",
          "coordinates": {
            "lat": 7.59595,
            "lng": 6.23692
          },
          "source": "grid3",
          "verified": true,
          "metadata": {
            "facility_level": "Secondary",
            "facility_level_option": "Primary Health Center",
            "ownership": "Private",
            "ownership_type": "For Profit"
          }
        },
        {
          "type": "health_facility",
          "name": "Ebira Secondary School Community Clinic",
          "slug": "ebira-secondary-school-community-clinic-health-facility",
          "coordinates": {
            "lat": 7.5992,
            "lng": 6.23022
          },
          "source": "grid3",
          "verified": true,
          "metadata": {
            "facility_level": "Primary",
            "facility_level_option": "Health Post",
            "ownership": "Public",
            "ownership_type": "Local Government"
          }
        },
        {
          "type": "health_facility",
          "name": "Ogaminana Government Secondary School Clinic",
          "slug": "ogaminana-government-secondary-school-clinic-health-facility",
          "coordinates": {
            "lat": 7.60574,
            "lng": 6.24693
          },
          "source": "grid3",
          "verified": true,
          "metadata": {
            "facility_level": "Primary",
            "facility_level_option": "Health Post",
            "ownership": "Public",
            "ownership_type": "Local Government"
          }
        },
        {
          "type": "health_facility",
          "name": "Nagazi Comprehensive Health Center",
          "slug": "nagazi-comprehensive-health-center-health-facility",
          "coordinates": {
            "lat": 7.58435,
            "lng": 6.22951
          },
          "source": "grid3",
          "verified": true,
          "metadata": {
            "facility_level": "Secondary",
            "facility_level_option": "Primary Health Center",
            "ownership": "Public",
            "ownership_type": "State Government"
          }
        },
        {
          "type": "health_facility",
          "name": "Obuburu Primary Health Center",
          "slug": "obuburu-primary-health-center-health-facility",
          "coordinates": {
            "lat": 7.5789,
            "lng": 6.21947
          },
          "source": "grid3",
          "verified": true,
          "metadata": {
            "facility_level": "Primary",
            "facility_level_option": "Primary Health Clinic",
            "ownership": "Public",
            "ownership_type": "Local Government"
          }
        },
        {
          "type": "health_facility",
          "name": "Egge Basic Health Clinic",
          "slug": "egge-basic-health-clinic-health-facility",
          "coordinates": {
            "lat": 7.56938,
            "lng": 6.19584
          },
          "source": "grid3",
          "verified": true,
          "metadata": {
            "facility_level": "Primary",
            "facility_level_option": "Primary Health Clinic",
            "ownership": "Public",
            "ownership_type": "Local Government"
          }
        },
        {
          "type": "health_facility",
          "name": "Ozuri Modern Primary Health Center",
          "slug": "ozuri-modern-primary-health-center-health-facility",
          "coordinates": {
            "lat": 7.58263,
            "lng": 6.21653
          },
          "source": "grid3",
          "verified": true,
          "metadata": {
            "facility_level": "Primary",
            "facility_level_option": "Primary Health Center",
            "ownership": "Public",
            "ownership_type": "Local Government"
          }
        },
        {
          "type": "health_facility",
          "name": "Oziokutu Modern Primary Health Center",
          "slug": "oziokutu-modern-primary-health-center-health-facility",
          "coordinates": {
            "lat": 7.5916,
            "lng": 6.22276
          },
          "source": "grid3",
          "verified": true,
          "metadata": {
            "facility_level": "Primary",
            "facility_level_option": "Primary Health Center",
            "ownership": "Public",
            "ownership_type": "Local Government"
          }
        },
        {
          "type": "health_facility",
          "name": "Iresuha Primary Health Clinic",
          "slug": "iresuha-primary-health-clinic-health-facility",
          "coordinates": {
            "lat": 7.55904,
            "lng": 6.2443
          },
          "source": "grid3",
          "verified": true,
          "metadata": {
            "facility_level": "Primary",
            "facility_level_option": "Primary Health Clinic",
            "ownership": "Public",
            "ownership_type": "Local Government"
          }
        },
        {
          "type": "health_facility",
          "name": "Oyiza Services Eye Care",
          "slug": "oyiza-services-eye-care-health-facility",
          "coordinates": {
            "lat": 7.596496582,
            "lng": 6.227905274
          },
          "source": "grid3",
          "verified": true,
          "metadata": {
            "facility_level": "Primary",
            "facility_level_option": "Primary Health Center",
            "ownership": "Private",
            "ownership_type": "Unknown"
          }
        },
        {
          "type": "health_facility",
          "name": "St Margaret Hospital",
          "slug": "st-margaret-hospital-health-facility",
          "coordinates": {
            "lat": 7.55911,
            "lng": 6.23871
          },
          "source": "grid3",
          "verified": true,
          "metadata": {
            "facility_level": "Primary",
            "facility_level_option": "Unknown",
            "ownership": "Unknown",
            "ownership_type": "Unknown"
          }
        },
        {
          "type": "health_facility",
          "name": "Iluhafon Health Clinic",
          "slug": "iluhafon-health-clinic-health-facility",
          "coordinates": {
            "lat": 7.810086667,
            "lng": 6.694401667
          },
          "source": "grid3",
          "verified": true,
          "metadata": {
            "facility_level": "Primary",
            "facility_level_option": "Primary Health Center",
            "ownership": "Public",
            "ownership_type": "Unknown"
          }
        },
        {
          "type": "health_facility",
          "name": "Yusuf Akaaba Idoji Clinic",
          "slug": "yusuf-akaaba-idoji-clinic-health-facility",
          "coordinates": {
            "lat": 7.561889648,
            "lng": 6.238098145
          },
          "source": "grid3",
          "verified": true,
          "metadata": {
            "facility_level": "Primary",
            "facility_level_option": "Primary Health Center",
            "ownership": "Private",
            "ownership_type": "Unknown"
          }
        },
        {
          "type": "health_facility",
          "name": "Omeneke Clinic",
          "slug": "omeneke-clinic-health-facility",
          "coordinates": {
            "lat": 7.565673828,
            "lng": 6.236328125
          },
          "source": "grid3",
          "verified": true,
          "metadata": {
            "facility_level": "Primary",
            "facility_level_option": "Primary Health Center",
            "ownership": "Private",
            "ownership_type": "Unknown"
          }
        },
        {
          "type": "health_facility",
          "name": "Adavi Health Post",
          "slug": "adavi-health-post-health-facility",
          "coordinates": {
            "lat": 7.632080078,
            "lng": 6.453674317
          },
          "source": "grid3",
          "verified": true,
          "metadata": {
            "facility_level": "Primary",
            "facility_level_option": "Health Post",
            "ownership": "Public",
            "ownership_type": "Unknown"
          }
        },
        {
          "type": "health_facility",
          "name": "Noa Millennium Development Goals Programmes",
          "slug": "noa-millennium-development-goals-programmes-health-facility",
          "coordinates": {
            "lat": 7.563720703,
            "lng": 6.239074707
          },
          "source": "grid3",
          "verified": true,
          "metadata": {
            "facility_level": "Primary",
            "facility_level_option": "Primary Health Center",
            "ownership": "Public",
            "ownership_type": "Unknown"
          }
        },
        {
          "type": "health_facility",
          "name": "Jamma Idanuha Ogaminana Clinic",
          "slug": "jamma-idanuha-ogaminana-clinic-health-facility",
          "coordinates": {
            "lat": 7.57997,
            "lng": 6.22071
          },
          "source": "grid3",
          "verified": true,
          "metadata": {
            "facility_level": "Primary",
            "facility_level_option": "Primary Health Center",
            "ownership": "Public",
            "ownership_type": "Unknown"
          }
        },
        {
          "type": "health_facility",
          "name": "Lafia Ebogogo Clinic",
          "slug": "lafia-ebogogo-clinic-health-facility",
          "coordinates": {
            "lat": 7.56379,
            "lng": 6.23548
          },
          "source": "grid3",
          "verified": true,
          "metadata": {
            "facility_level": "Primary",
            "facility_level_option": "Primary Health Center",
            "ownership": "Public",
            "ownership_type": "Unknown"
          }
        },
        {
          "type": "health_facility",
          "name": "St Magret Ebogogo Clinic",
          "slug": "st-magret-ebogogo-clinic-health-facility",
          "coordinates": {
            "lat": 7.56968,
            "lng": 6.23285
          },
          "source": "grid3",
          "verified": true,
          "metadata": {
            "facility_level": "Primary",
            "facility_level_option": "Primary Health Center",
            "ownership": "Public",
            "ownership_type": "Unknown"
          }
        },
        {
          "type": "health_facility",
          "name": "Enimire Maternity Clinic",
          "slug": "enimire-maternity-clinic-health-facility",
          "coordinates": {
            "lat": 7.57367,
            "lng": 6.24502
          },
          "source": "grid3",
          "verified": true,
          "metadata": {
            "facility_level": "Primary",
            "facility_level_option": "Primary Health Clinic",
            "ownership": "Public",
            "ownership_type": "Unknown"
          }
        },
        {
          "type": "health_facility",
          "name": "Higer Lokoja Hospital",
          "slug": "higer-lokoja-hospital-health-facility",
          "coordinates": {
            "lat": 7.80269,
            "lng": 6.68048
          },
          "source": "grid3",
          "verified": true,
          "metadata": {
            "facility_level": "Primary",
            "facility_level_option": "Primary Health Center",
            "ownership": "Public",
            "ownership_type": "Unknown"
          }
        },
        {
          "type": "health_facility",
          "name": "Kuroko Basic Health Center",
          "slug": "kuroko-basic-health-center-health-facility",
          "coordinates": {
            "lat": 7.57829,
            "lng": 6.24459
          },
          "source": "grid3",
          "verified": true,
          "metadata": {
            "facility_level": "Primary",
            "facility_level_option": "Primary Health Center",
            "ownership": "Public",
            "ownership_type": "Unknown"
          }
        },
        {
          "type": "health_facility",
          "name": "Felele Support Programme Family Clinic",
          "slug": "felele-support-programme-family-clinic-health-facility-2",
          "coordinates": {
            "lat": 7.80198,
            "lng": 6.70012
          },
          "source": "grid3",
          "verified": true,
          "metadata": {
            "facility_level": "Primary",
            "facility_level_option": "Primary Health Center",
            "ownership": "Public",
            "ownership_type": "Unknown"
          }
        },
        {
          "type": "health_facility",
          "name": "Oniyeka Model Primary Health Clinic",
          "slug": "oniyeka-model-primary-health-clinic-health-facility",
          "coordinates": {
            "lat": 7.58776,
            "lng": 6.21237
          },
          "source": "grid3",
          "verified": true,
          "metadata": {
            "facility_level": "Primary",
            "facility_level_option": "Primary Health Center",
            "ownership": "Public",
            "ownership_type": "Unknown"
          }
        },
        {
          "type": "health_facility",
          "name": "Lafia Karaworo Clinic",
          "slug": "lafia-karaworo-clinic-health-facility",
          "coordinates": {
            "lat": 7.553283691,
            "lng": 6.243713378
          },
          "source": "grid3",
          "verified": true,
          "metadata": {
            "facility_level": "Primary",
            "facility_level_option": "Primary Health Center",
            "ownership": "Private",
            "ownership_type": "Unknown"
          }
        },
        {
          "type": "health_facility",
          "name": "Ovayi Maternity Home",
          "slug": "ovayi-maternity-home-health-facility",
          "coordinates": {
            "lat": 7.55871582,
            "lng": 6.227905274
          },
          "source": "grid3",
          "verified": true,
          "metadata": {
            "facility_level": "Primary",
            "facility_level_option": "Primary Health Clinic",
            "ownership": "Private",
            "ownership_type": "Unknown"
          }
        },
        {
          "type": "health_facility",
          "name": "Okunchi School Clinic",
          "slug": "okunchi-school-clinic-health-facility",
          "coordinates": {
            "lat": 7.56616,
            "lng": 6.22214
          },
          "source": "grid3",
          "verified": true,
          "metadata": {
            "facility_level": "Primary",
            "facility_level_option": "Unknown",
            "ownership": "Public",
            "ownership_type": "Unknown"
          }
        },
        {
          "type": "health_facility",
          "name": "Eika Ohizenyi Basic Health Center",
          "slug": "eika-ohizenyi-basic-health-center-health-facility",
          "coordinates": {
            "lat": 7.58392334,
            "lng": 6.267883301
          },
          "source": "grid3",
          "verified": true,
          "metadata": {
            "facility_level": "Primary",
            "facility_level_option": "Primary Health Center",
            "ownership": "Public",
            "ownership_type": "Unknown"
          }
        },
        {
          "type": "health_facility",
          "name": "Welfare Hospital Government Reserve Area Okene",
          "slug": "welfare-hospital-government-reserve-area-okene-health-facility",
          "coordinates": {
            "lat": 7.5599,
            "lng": 6.23203
          },
          "source": "grid3",
          "verified": true,
          "metadata": {
            "facility_level": "Primary",
            "facility_level_option": "Primary Health Center",
            "ownership": "Public",
            "ownership_type": "Unknown"
          }
        },
        {
          "type": "health_facility",
          "name": "Ozuri School Clinic",
          "slug": "ozuri-school-clinic-health-facility",
          "coordinates": {
            "lat": 7.58282,
            "lng": 6.21613
          },
          "source": "grid3",
          "verified": true,
          "metadata": {
            "facility_level": "Primary",
            "facility_level_option": "Primary Health Clinic",
            "ownership": "Public",
            "ownership_type": "Local Government"
          }
        },
        {
          "type": "health_facility",
          "name": "Adavi Evangelical Church Of West Africa (Ecwa) Hospital",
          "slug": "adavi-evangelical-church-of-west-africa-ecwa-hospital-health-facility",
          "coordinates": {
            "lat": 7.57323,
            "lng": 6.24854
          },
          "source": "grid3",
          "verified": true,
          "metadata": {
            "facility_level": "Secondary",
            "facility_level_option": "Unknown",
            "ownership": "Private",
            "ownership_type": "For Profit"
          }
        },
        {
          "type": "health_facility",
          "name": "Mdgs Zango Daji Primary Health Center",
          "slug": "mdgs-zango-daji-primary-health-center-health-facility",
          "coordinates": {
            "lat": 7.8234,
            "lng": 6.64003
          },
          "source": "grid3",
          "verified": true,
          "metadata": {
            "facility_level": "Primary",
            "facility_level_option": "Primary Health Clinic",
            "ownership": "Public",
            "ownership_type": "Local Government"
          }
        },
        {
          "type": "health_facility",
          "name": "Irewagere Primary Health Clinic",
          "slug": "irewagere-primary-health-clinic-health-facility-2",
          "coordinates": {
            "lat": 7.70074,
            "lng": 6.44196
          },
          "source": "grid3",
          "verified": true,
          "metadata": {
            "facility_level": "Primary",
            "facility_level_option": "Health Post",
            "ownership": "Public",
            "ownership_type": "Local Government"
          }
        },
        {
          "type": "health_facility",
          "name": "Egge Primary Health Clinic",
          "slug": "egge-primary-health-clinic-health-facility",
          "coordinates": {
            "lat": 7.56915,
            "lng": 6.19349
          },
          "source": "grid3",
          "verified": true,
          "metadata": {
            "facility_level": "Primary",
            "facility_level_option": "Primary Health Clinic",
            "ownership": "Public",
            "ownership_type": "Local Government"
          }
        },
        {
          "type": "health_facility",
          "name": "Obehitutu Basic Health Clinic",
          "slug": "obehitutu-basic-health-clinic-health-facility",
          "coordinates": {
            "lat": 7.57834,
            "lng": 6.24443
          },
          "source": "grid3",
          "verified": true,
          "metadata": {
            "facility_level": "Primary",
            "facility_level_option": "Primary Health Clinic",
            "ownership": "Public",
            "ownership_type": "Local Government"
          }
        },
        {
          "type": "health_facility",
          "name": "Behealthy Clinic and Maternity",
          "slug": "behealthy-clinic-and-maternity-health-facility",
          "coordinates": {
            "lat": 7.58746,
            "lng": 6.22013
          },
          "source": "grid3",
          "verified": true,
          "metadata": {
            "facility_level": "Primary",
            "facility_level_option": "Primary Health Clinic",
            "ownership": "Private",
            "ownership_type": "For Profit"
          }
        },
        {
          "type": "health_facility",
          "name": "Utohu Primary Health Clinic",
          "slug": "utohu-primary-health-clinic-health-facility",
          "coordinates": {
            "lat": 7.58572,
            "lng": 6.22161
          },
          "source": "grid3",
          "verified": true,
          "metadata": {
            "facility_level": "Primary",
            "facility_level_option": "Primary Health Clinic",
            "ownership": "Public",
            "ownership_type": "Local Government"
          }
        },
        {
          "type": "health_facility",
          "name": "Utoro Health Post",
          "slug": "utoro-health-post-health-facility",
          "coordinates": {
            "lat": 7.60124,
            "lng": 6.23939
          },
          "source": "grid3",
          "verified": true,
          "metadata": {
            "facility_level": "Primary",
            "facility_level_option": "Health Post",
            "ownership": "Public",
            "ownership_type": "Local Government"
          }
        },
        {
          "type": "health_facility",
          "name": "Adavi Eba Primary Health Center",
          "slug": "adavi-eba-primary-health-center-health-facility",
          "coordinates": {
            "lat": 7.55991,
            "lng": 6.17837
          },
          "source": "grid3",
          "verified": true,
          "metadata": {
            "facility_level": "Primary",
            "facility_level_option": "Primary Health Clinic",
            "ownership": "Public",
            "ownership_type": "Local Government"
          }
        },
        {
          "type": "health_facility",
          "name": "Ada Ohi Primary Health Care Center",
          "slug": "ada-ohi-primary-health-care-center-health-facility",
          "coordinates": {
            "lat": 7.56638,
            "lng": 6.22225
          },
          "source": "grid3",
          "verified": true,
          "metadata": {
            "facility_level": "Primary",
            "facility_level_option": "Health Post",
            "ownership": "Public",
            "ownership_type": "Local Government"
          }
        },
        {
          "type": "health_facility",
          "name": "Agape Clinic",
          "slug": "agape-clinic-health-facility-2",
          "coordinates": {
            "lat": 7.55839,
            "lng": 6.17858
          },
          "source": "grid3",
          "verified": true,
          "metadata": {
            "facility_level": "Secondary",
            "facility_level_option": "Unknown",
            "ownership": "Private",
            "ownership_type": "For Profit"
          }
        },
        {
          "type": "health_facility",
          "name": "Alheri Clinic",
          "slug": "alheri-clinic-health-facility-16",
          "coordinates": {
            "lat": 7.82364,
            "lng": 6.58231
          },
          "source": "grid3",
          "verified": true,
          "metadata": {
            "facility_level": "Primary",
            "facility_level_option": "Primary Health Clinic",
            "ownership": "Private",
            "ownership_type": "For Profit"
          }
        },
        {
          "type": "health_facility",
          "name": "Atami Primary Health Clinic",
          "slug": "atami-primary-health-clinic-health-facility",
          "coordinates": {
            "lat": 7.68029,
            "lng": 6.42375
          },
          "source": "grid3",
          "verified": true,
          "metadata": {
            "facility_level": "Primary",
            "facility_level_option": "Health Post",
            "ownership": "Public",
            "ownership_type": "Local Government"
          }
        },
        {
          "type": "health_facility",
          "name": "Rahamat Nursing and Maternity Home",
          "slug": "rahamat-nursing-and-maternity-home-health-facility",
          "coordinates": {
            "lat": 7.60116,
            "lng": 6.22097
          },
          "source": "grid3",
          "verified": true,
          "metadata": {
            "facility_level": "Primary",
            "facility_level_option": "Primary Health Clinic",
            "ownership": "Private",
            "ownership_type": "For Profit"
          }
        },
        {
          "type": "health_facility",
          "name": "Zariagi Primary Health Clinic",
          "slug": "zariagi-primary-health-clinic-health-facility",
          "coordinates": {
            "lat": 7.82639,
            "lng": 6.64003
          },
          "source": "grid3",
          "verified": true,
          "metadata": {
            "facility_level": "Primary",
            "facility_level_option": "Primary Health Clinic",
            "ownership": "Public",
            "ownership_type": "Local Government"
          }
        },
        {
          "type": "health_facility",
          "name": "Ohuoiza Maternity Home",
          "slug": "ohuoiza-maternity-home-health-facility",
          "coordinates": {
            "lat": 7.54794,
            "lng": 6.18238
          },
          "source": "grid3",
          "verified": true,
          "metadata": {
            "facility_level": "Primary",
            "facility_level_option": "Primary Health Clinic",
            "ownership": "Private",
            "ownership_type": "For Profit"
          }
        },
        {
          "type": "health_facility",
          "name": "Osoma Primary Health Clinic",
          "slug": "osoma-primary-health-clinic-health-facility",
          "coordinates": {
            "lat": 7.55211,
            "lng": 6.18452
          },
          "source": "grid3",
          "verified": true,
          "metadata": {
            "facility_level": "Primary",
            "facility_level_option": "Primary Health Clinic",
            "ownership": "Public",
            "ownership_type": "Local Government"
          }
        },
        {
          "type": "health_facility",
          "name": "Sab Yab Clinic",
          "slug": "sab-yab-clinic-health-facility",
          "coordinates": {
            "lat": 7.56292,
            "lng": 6.24373
          },
          "source": "grid3",
          "verified": true,
          "metadata": {
            "facility_level": "Primary",
            "facility_level_option": "Primary Health Clinic",
            "ownership": "Private",
            "ownership_type": "For Profit"
          }
        },
        {
          "type": "health_facility",
          "name": "Sarmu Maternity Home and  Clinic",
          "slug": "sarmu-maternity-home-and-clinic-health-facility",
          "coordinates": {
            "lat": 7.60216,
            "lng": 6.22198
          },
          "source": "grid3",
          "verified": true,
          "metadata": {
            "facility_level": "Primary",
            "facility_level_option": "Primary Health Clinic",
            "ownership": "Private",
            "ownership_type": "For Profit"
          }
        },
        {
          "type": "school",
          "name": "Al Ahzar Nursery and Primary School",
          "slug": "al-ahzar-nursery-and-primary-school-school",
          "coordinates": {
            "lat": 7.80596499968505,
            "lng": 6.64532499964906
          },
          "source": "grid3",
          "verified": true,
          "metadata": {
            "category": "Primary",
            "management": "Private",
            "education": "Integrated",
            "subtype": "Aggregate"
          }
        },
        {
          "type": "school",
          "name": "Achievers Nursery Primary School Oziokutu",
          "slug": "achievers-nursery-primary-school-oziokutu-school",
          "coordinates": {
            "lat": 7.59454400040534,
            "lng": 6.22456800011315
          },
          "source": "grid3",
          "verified": true,
          "metadata": {
            "category": "Primary",
            "management": "Private",
            "education": "Formal",
            "subtype": "Aggregate"
          }
        },
        {
          "type": "school",
          "name": "Local Education Authority Community Primary School Atami",
          "slug": "local-education-authority-community-primary-school-atami-school",
          "coordinates": {
            "lat": 7.63094299991957,
            "lng": 6.45379300024683
          },
          "source": "grid3",
          "verified": true,
          "metadata": {
            "category": "Primary",
            "management": "Public",
            "education": "Formal",
            "subtype": "Primary"
          }
        },
        {
          "type": "school",
          "name": "Local Education Authority Primary School Iresuare",
          "slug": "local-education-authority-primary-school-iresuare-school",
          "coordinates": {
            "lat": 7.72512500031854,
            "lng": 6.42777099993174
          },
          "source": "grid3",
          "verified": true,
          "metadata": {
            "category": "Primary",
            "management": "Public",
            "education": "Formal",
            "subtype": "Primary"
          }
        },
        {
          "type": "school",
          "name": "Success Nursery and Primary School",
          "slug": "success-nursery-and-primary-school-school-8",
          "coordinates": {
            "lat": 7.81322700002607,
            "lng": 6.64263299961328
          },
          "source": "grid3",
          "verified": true,
          "metadata": {
            "category": "Primary",
            "management": "Private",
            "education": "Integrated",
            "subtype": "Primary"
          }
        },
        {
          "type": "school",
          "name": "Our Savior Nursery and Primary School",
          "slug": "our-savior-nursery-and-primary-school-school",
          "coordinates": {
            "lat": 7.78771799998577,
            "lng": 6.56509000030331
          },
          "source": "grid3",
          "verified": true,
          "metadata": {
            "category": "Primary",
            "management": "Faith Based",
            "education": "Formal",
            "subtype": "Standard"
          }
        },
        {
          "type": "school",
          "name": "Local Education Authority Community Primary School Idatochi",
          "slug": "local-education-authority-community-primary-school-idatochi-school",
          "coordinates": {
            "lat": 7.5881470003838,
            "lng": 6.21699299972721
          },
          "source": "grid3",
          "verified": true,
          "metadata": {
            "category": "Primary",
            "management": "Public",
            "education": "Formal",
            "subtype": "Standard"
          }
        },
        {
          "type": "school",
          "name": "Royal Nursery and Primary School Idatochi",
          "slug": "royal-nursery-and-primary-school-idatochi-school",
          "coordinates": {
            "lat": 7.58945300035572,
            "lng": 6.21589500035401
          },
          "source": "grid3",
          "verified": true,
          "metadata": {
            "category": "Primary",
            "management": "Private",
            "education": "Formal",
            "subtype": "Standard"
          }
        },
        {
          "type": "school",
          "name": "Divine Favour Nursery and Primary School",
          "slug": "divine-favour-nursery-and-primary-school-school-6",
          "coordinates": {
            "lat": 7.81221300003,
            "lng": 6.64512200018021
          },
          "source": "grid3",
          "verified": true,
          "metadata": {
            "category": "Primary",
            "management": "Private",
            "education": "Formal",
            "subtype": "Standard"
          }
        },
        {
          "type": "school",
          "name": "Shettima Quintessence Primary School",
          "slug": "shettima-quintessence-primary-school-school",
          "coordinates": {
            "lat": 7.80491299973522,
            "lng": 6.66963200001686
          },
          "source": "grid3",
          "verified": true,
          "metadata": {
            "category": "Primary",
            "management": "Private",
            "education": "Formal",
            "subtype": "Standard"
          }
        },
        {
          "type": "school",
          "name": "Victory Daycare Nursery and Primary School Inozomi",
          "slug": "victory-daycare-nursery-and-primary-school-inozomi-school",
          "coordinates": {
            "lat": 7.56362099980936,
            "lng": 6.23946800014812
          },
          "source": "grid3",
          "verified": true,
          "metadata": {
            "category": "Primary",
            "management": "Private",
            "education": "Formal",
            "subtype": "Standard"
          }
        },
        {
          "type": "school",
          "name": "Mica Model Nursery and Primary School",
          "slug": "mica-model-nursery-and-primary-school-school",
          "coordinates": {
            "lat": 7.58930499982591,
            "lng": 6.22073799975891
          },
          "source": "grid3",
          "verified": true,
          "metadata": {
            "category": "Primary",
            "management": "Private",
            "education": "Formal",
            "subtype": "Pre Primary"
          }
        },
        {
          "type": "school",
          "name": "Ameco Islamic Model Nursery and Primary School Karaworo",
          "slug": "ameco-islamic-model-nursery-and-primary-school-karaworo-school",
          "coordinates": {
            "lat": 7.55499000018841,
            "lng": 6.2440170003843
          },
          "source": "grid3",
          "verified": true,
          "metadata": {
            "category": "Primary",
            "management": "Faith Based",
            "education": "Integrated",
            "subtype": "Standard"
          }
        },
        {
          "type": "school",
          "name": "Local Education Authority Primary School Inumopa Adavi Ebe",
          "slug": "local-education-authority-primary-school-inumopa-adavi-ebe-school",
          "coordinates": {
            "lat": 7.5524229996218,
            "lng": 6.18408600026874
          },
          "source": "grid3",
          "verified": true,
          "metadata": {
            "category": "Primary",
            "management": "Public",
            "education": "Formal",
            "subtype": "Primary"
          }
        },
        {
          "type": "school",
          "name": "Local Education Authority Catholic Nursery and Primary School Osoma",
          "slug": "local-education-authority-catholic-nursery-and-primary-school-osoma-school",
          "coordinates": {
            "lat": 7.54784499984692,
            "lng": 6.18586799970848
          },
          "source": "grid3",
          "verified": true,
          "metadata": {
            "category": "Primary",
            "management": "Public",
            "education": "Formal",
            "subtype": "Standard"
          }
        },
        {
          "type": "school",
          "name": "Local Education Authority Special Nursery and Primary School Adavi",
          "slug": "local-education-authority-special-nursery-and-primary-school-adavi-school",
          "coordinates": {
            "lat": 7.56161199979402,
            "lng": 6.17681200027363
          },
          "source": "grid3",
          "verified": true,
          "metadata": {
            "category": "Primary",
            "management": "Public",
            "education": "Formal",
            "subtype": "Standard"
          }
        },
        {
          "type": "school",
          "name": "Wisdom International Nursery and Primary School Adavi Eba",
          "slug": "wisdom-international-nursery-and-primary-school-adavi-eba-school",
          "coordinates": {
            "lat": 7.55872499975897,
            "lng": 6.17646499956015
          },
          "source": "grid3",
          "verified": true,
          "metadata": {
            "category": "Primary",
            "management": "Private",
            "education": "Formal",
            "subtype": "Standard"
          }
        },
        {
          "type": "school",
          "name": "Rahaman Primary School Nagazi",
          "slug": "rahaman-primary-school-nagazi-school",
          "coordinates": {
            "lat": 7.58625100018355,
            "lng": 6.23197399990022
          },
          "source": "grid3",
          "verified": true,
          "metadata": {
            "category": "Primary",
            "management": "Public",
            "education": "Formal",
            "subtype": "Primary"
          }
        },
        {
          "type": "school",
          "name": "Local Education Authority Primary School Ohiomata",
          "slug": "local-education-authority-primary-school-ohiomata-school",
          "coordinates": {
            "lat": 7.59768499956311,
            "lng": 6.21884999992761
          },
          "source": "grid3",
          "verified": true,
          "metadata": {
            "category": "Primary",
            "management": "Public",
            "education": "Formal",
            "subtype": "Standard"
          }
        },
        {
          "type": "school",
          "name": "Royal Academy Nursery and Primary School Idanuha",
          "slug": "royal-academy-nursery-and-primary-school-idanuha-school",
          "coordinates": {
            "lat": 7.58194400031539,
            "lng": 6.2210699997807
          },
          "source": "grid3",
          "verified": true,
          "metadata": {
            "category": "Primary",
            "management": "Private",
            "education": "Formal",
            "subtype": "Standard"
          }
        },
        {
          "type": "school",
          "name": "Samana Unity Nursery and Primary School Ogaminana",
          "slug": "samana-unity-nursery-and-primary-school-ogaminana-school",
          "coordinates": {
            "lat": 7.59447099973687,
            "lng": 6.22045600024427
          },
          "source": "grid3",
          "verified": true,
          "metadata": {
            "category": "Primary",
            "management": "Private",
            "education": "Formal",
            "subtype": "Standard"
          }
        },
        {
          "type": "school",
          "name": "Winners Primary School Otite",
          "slug": "winners-primary-school-otite-school",
          "coordinates": {
            "lat": 7.60415500025312,
            "lng": 6.2553539997873
          },
          "source": "grid3",
          "verified": true,
          "metadata": {
            "category": "Primary",
            "management": "Private",
            "education": "Formal",
            "subtype": "Standard"
          }
        },
        {
          "type": "school",
          "name": "Local Education Authority Model Nursery and Primary School",
          "slug": "local-education-authority-model-nursery-and-primary-school-school",
          "coordinates": {
            "lat": 7.55383499998533,
            "lng": 6.2274869998252
          },
          "source": "grid3",
          "verified": true,
          "metadata": {
            "category": "Primary",
            "management": "Public",
            "education": "Formal",
            "subtype": "Standard"
          }
        },
        {
          "type": "school",
          "name": "Home Economic Centre Primary School Obangede",
          "slug": "home-economic-centre-primary-school-obangede-school",
          "coordinates": {
            "lat": 7.59772899979356,
            "lng": 6.20121200043354
          },
          "source": "grid3",
          "verified": true,
          "metadata": {
            "category": "Primary",
            "management": "Public",
            "education": "Formal",
            "subtype": "Primary"
          }
        },
        {
          "type": "school",
          "name": "Marvelous Nursery and Primary School Eika Ohizenyi",
          "slug": "marvelous-nursery-and-primary-school-eika-ohizenyi-school",
          "coordinates": {
            "lat": 7.58363900023971,
            "lng": 6.26744299969471
          },
          "source": "grid3",
          "verified": true,
          "metadata": {
            "category": "Primary",
            "management": "Private",
            "education": "Formal",
            "subtype": "Standard"
          }
        },
        {
          "type": "school",
          "name": "Kings And Queens Academy Idotokiti",
          "slug": "kings-and-queens-academy-idotokiti-school",
          "coordinates": {
            "lat": 7.80594000033079,
            "lng": 6.67783000035428
          },
          "source": "grid3",
          "verified": true,
          "metadata": {
            "category": "Secondary",
            "management": "Public",
            "education": "Formal",
            "subtype": "Standard"
          }
        },
        {
          "type": "school",
          "name": "Universal Basic Education L G E A School Osisi",
          "slug": "universal-basic-education-l-g-e-a-school-osisi-school",
          "coordinates": {
            "lat": 7.57510000036478,
            "lng": 6.22960000013995
          },
          "source": "grid3",
          "verified": true,
          "metadata": {
            "category": "Secondary",
            "management": "Public",
            "education": "Formal",
            "subtype": "Standard"
          }
        },
        {
          "type": "school",
          "name": "Scintilate Internetional Model School Idotokiti",
          "slug": "scintilate-internetional-model-school-idotokiti-school",
          "coordinates": {
            "lat": 7.80278999985865,
            "lng": 6.68157000015543
          },
          "source": "grid3",
          "verified": true,
          "metadata": {
            "category": "Secondary",
            "management": "Public",
            "education": "Formal",
            "subtype": "Standard"
          }
        },
        {
          "type": "school",
          "name": "Adavi Local Government Science Secondary School Enyidudu",
          "slug": "adavi-local-government-science-secondary-school-enyidudu-school",
          "coordinates": {
            "lat": 7.56588399984679,
            "lng": 6.23751500001731
          },
          "source": "grid3",
          "verified": true,
          "metadata": {
            "category": "Secondary",
            "management": "Public",
            "education": "Formal",
            "subtype": "Standard"
          }
        },
        {
          "type": "school",
          "name": "Arigbede College",
          "slug": "arigbede-college-school",
          "coordinates": {
            "lat": 7.79149699978677,
            "lng": 6.7027920003506
          },
          "source": "grid3",
          "verified": true,
          "metadata": {
            "category": "Secondary",
            "management": "Private",
            "education": "Integrated",
            "subtype": "Aggregate"
          }
        },
        {
          "type": "school",
          "name": "Dewisdom Group of Schools Zariagi",
          "slug": "dewisdom-group-of-schools-zariagi-school",
          "coordinates": {
            "lat": 7.82380400035436,
            "lng": 6.5807290002432
          },
          "source": "grid3",
          "verified": true,
          "metadata": {
            "category": "Secondary",
            "management": "Private",
            "education": "Formal",
            "subtype": "Aggregate"
          }
        },
        {
          "type": "school",
          "name": "Effective Academy",
          "slug": "effective-academy-school",
          "coordinates": {
            "lat": 7.80397699973878,
            "lng": 6.68347099968696
          },
          "source": "grid3",
          "verified": true,
          "metadata": {
            "category": "Secondary",
            "management": "Private",
            "education": "Formal",
            "subtype": "Aggregate"
          }
        },
        {
          "type": "school",
          "name": "Government Day Secondary School Inoziomi",
          "slug": "government-day-secondary-school-inoziomi-school",
          "coordinates": {
            "lat": 7.55698300036522,
            "lng": 6.24620399961492
          },
          "source": "grid3",
          "verified": true,
          "metadata": {
            "category": "Secondary",
            "management": "Public",
            "education": "Formal",
            "subtype": "Standard"
          }
        },
        {
          "type": "school",
          "name": "Mica Comprehensive College Idatochi",
          "slug": "mica-comprehensive-college-idatochi-school",
          "coordinates": {
            "lat": 7.58877499966655,
            "lng": 6.21677899975111
          },
          "source": "grid3",
          "verified": true,
          "metadata": {
            "category": "Secondary",
            "management": "Private",
            "education": "Formal",
            "subtype": "Standard"
          }
        },
        {
          "type": "school",
          "name": "Moral Group of Schools",
          "slug": "moral-group-of-schools-school",
          "coordinates": {
            "lat": 7.58246199992141,
            "lng": 6.22565099969393
          },
          "source": "grid3",
          "verified": true,
          "metadata": {
            "category": "Secondary",
            "management": "Private",
            "education": "Integrated",
            "subtype": "Aggregate"
          }
        },
        {
          "type": "school",
          "name": "Local Education Authority Anglican School Osara Gada",
          "slug": "local-education-authority-anglican-school-osara-gada-school",
          "coordinates": {
            "lat": 7.69972800004723,
            "lng": 6.44085199972005
          },
          "source": "grid3",
          "verified": true,
          "metadata": {
            "category": "Primary",
            "management": "Public",
            "education": "Formal",
            "subtype": "Primary"
          }
        },
        {
          "type": "school",
          "name": "Local Education Authority Catholic School Osara",
          "slug": "local-education-authority-catholic-school-osara-school",
          "coordinates": {
            "lat": 7.67807199962311,
            "lng": 6.41567999993208
          },
          "source": "grid3",
          "verified": true,
          "metadata": {
            "category": "Primary",
            "management": "Public",
            "education": "Formal",
            "subtype": "Primary"
          }
        },
        {
          "type": "school",
          "name": "Local Education Authority Catholic School Uhucheba",
          "slug": "local-education-authority-catholic-school-uhucheba-school",
          "coordinates": {
            "lat": 7.56645300000599,
            "lng": 6.23798700019995
          },
          "source": "grid3",
          "verified": true,
          "metadata": {
            "category": "Primary",
            "management": "Public",
            "education": "Formal",
            "subtype": "Primary"
          }
        },
        {
          "type": "school",
          "name": "Local Education Authority School Aku",
          "slug": "local-education-authority-school-aku-school",
          "coordinates": {
            "lat": 7.72648500008273,
            "lng": 6.48459399971335
          },
          "source": "grid3",
          "verified": true,
          "metadata": {
            "category": "Primary",
            "management": "Public",
            "education": "Formal",
            "subtype": "Primary"
          }
        },
        {
          "type": "school",
          "name": "Local Education Authority School Ibeke",
          "slug": "local-education-authority-school-ibeke-school",
          "coordinates": {
            "lat": 7.56919100036441,
            "lng": 6.24543400007911
          },
          "source": "grid3",
          "verified": true,
          "metadata": {
            "category": "Primary",
            "management": "Public",
            "education": "Formal",
            "subtype": "Primary"
          }
        },
        {
          "type": "school",
          "name": "Local Education Authority School Ipaku",
          "slug": "local-education-authority-school-ipaku-school",
          "coordinates": {
            "lat": 7.57152199994039,
            "lng": 6.23340500024062
          },
          "source": "grid3",
          "verified": true,
          "metadata": {
            "category": "Primary",
            "management": "Public",
            "education": "Formal",
            "subtype": "Primary"
          }
        },
        {
          "type": "school",
          "name": "Army Children School",
          "slug": "army-children-school-school-4",
          "coordinates": {
            "lat": 7.79780500020064,
            "lng": 6.67653700008253
          },
          "source": "grid3",
          "verified": true,
          "metadata": {
            "category": "Primary",
            "management": "Public",
            "education": "Formal",
            "subtype": "Standard"
          }
        },
        {
          "type": "school",
          "name": "Catholic Nursery and Primary Idakatapka",
          "slug": "catholic-nursery-and-primary-idakatapka-school",
          "coordinates": {
            "lat": 7.57586299957779,
            "lng": 6.24776899983954
          },
          "source": "grid3",
          "verified": true,
          "metadata": {
            "category": "Primary",
            "management": "Public",
            "education": "Formal",
            "subtype": "Standard"
          }
        },
        {
          "type": "school",
          "name": "Local Education Authority School Irepeni",
          "slug": "local-education-authority-school-irepeni-school",
          "coordinates": {
            "lat": 7.78020399971484,
            "lng": 6.51965999980916
          },
          "source": "grid3",
          "verified": true,
          "metadata": {
            "category": "Primary",
            "management": "Public",
            "education": "Formal",
            "subtype": "Standard"
          }
        },
        {
          "type": "school",
          "name": "Local Education Authority School Zango Daji Adavi",
          "slug": "local-education-authority-school-zango-daji-adavi-school",
          "coordinates": {
            "lat": 7.80301300024979,
            "lng": 6.66644399959097
          },
          "source": "grid3",
          "verified": true,
          "metadata": {
            "category": "Primary",
            "management": "Public",
            "education": "Formal",
            "subtype": "Standard"
          }
        },
        {
          "type": "school",
          "name": "Local Education Authority Central School Ogaminana",
          "slug": "local-education-authority-central-school-ogaminana-school",
          "coordinates": {
            "lat": 7.59240099960647,
            "lng": 6.22154800024009
          },
          "source": "grid3",
          "verified": true,
          "metadata": {
            "category": "Primary",
            "management": "Public",
            "education": "Formal",
            "subtype": "Pre Primary"
          }
        },
        {
          "type": "school",
          "name": "Adavi Community Secondary School Ege",
          "slug": "adavi-community-secondary-school-ege-school",
          "coordinates": {
            "lat": 7.57610299985362,
            "lng": 6.19386399972387
          },
          "source": "grid3",
          "verified": true,
          "metadata": {
            "category": "Secondary",
            "management": "Public",
            "education": "Formal",
            "subtype": "Standard"
          }
        },
        {
          "type": "school",
          "name": "Nuru Islamic College Ohieka",
          "slug": "nuru-islamic-college-ohieka-school",
          "coordinates": {
            "lat": 7.55361000040125,
            "lng": 6.1753700003253
          },
          "source": "grid3",
          "verified": true,
          "metadata": {
            "category": "Secondary",
            "management": "Public",
            "education": "Formal",
            "subtype": "Standard"
          }
        },
        {
          "type": "school",
          "name": "Ayatulla Muslim Secondary School",
          "slug": "ayatulla-muslim-secondary-school-school",
          "coordinates": {
            "lat": 7.56152000004801,
            "lng": 6.1653810001331
          },
          "source": "grid3",
          "verified": true,
          "metadata": {
            "category": "Secondary",
            "management": "Faith Based",
            "education": "Integrated",
            "subtype": "Aggregate"
          }
        },
        {
          "type": "school",
          "name": "Community Secondary School Adavi Eba",
          "slug": "community-secondary-school-adavi-eba-school",
          "coordinates": {
            "lat": 7.56194199972356,
            "lng": 6.17206199976152
          },
          "source": "grid3",
          "verified": true,
          "metadata": {
            "category": "Secondary",
            "management": "Public",
            "education": "Formal",
            "subtype": "Standard"
          }
        },
        {
          "type": "school",
          "name": "Life Foundation Group of School Okengwe",
          "slug": "life-foundation-group-of-school-okengwe-school",
          "coordinates": {
            "lat": 7.54354300020935,
            "lng": 6.18004600012284
          },
          "source": "grid3",
          "verified": true,
          "metadata": {
            "category": "Secondary",
            "management": "Private",
            "education": "Formal",
            "subtype": "Aggregate"
          }
        },
        {
          "type": "school",
          "name": "New Gate College Inozi Okengwe",
          "slug": "new-gate-college-inozi-okengwe-school",
          "coordinates": {
            "lat": 7.54388599983906,
            "lng": 6.18511299996504
          },
          "source": "grid3",
          "verified": true,
          "metadata": {
            "category": "Secondary",
            "management": "Private",
            "education": "Formal",
            "subtype": "Standard"
          }
        },
        {
          "type": "school",
          "name": "Wisdom Dominion International College",
          "slug": "wisdom-dominion-international-college-school",
          "coordinates": {
            "lat": 7.55976900023921,
            "lng": 6.17186499967005
          },
          "source": "grid3",
          "verified": true,
          "metadata": {
            "category": "Secondary",
            "management": "Private",
            "education": "Formal",
            "subtype": "Aggregate"
          }
        },
        {
          "type": "school",
          "name": "Local Education Authority Anglican School Adavi Eba",
          "slug": "local-education-authority-anglican-school-adavi-eba-school",
          "coordinates": {
            "lat": 7.55939800021758,
            "lng": 6.17956100024003
          },
          "source": "grid3",
          "verified": true,
          "metadata": {
            "category": "Primary",
            "management": "Public",
            "education": "Formal",
            "subtype": "Standard"
          }
        },
        {
          "type": "school",
          "name": "Adavi Local Government Science Secondary School Nagazi Eba",
          "slug": "adavi-local-government-science-secondary-school-nagazi-eba-school",
          "coordinates": {
            "lat": 7.58553899972509,
            "lng": 6.23381900044654
          },
          "source": "grid3",
          "verified": true,
          "metadata": {
            "category": "Secondary",
            "management": "Public",
            "education": "Formal",
            "subtype": "Standard"
          }
        },
        {
          "type": "school",
          "name": "Adavi Local Government Science Secondary School Oniyeka Ozuri",
          "slug": "adavi-local-government-science-secondary-school-oniyeka-ozuri-school",
          "coordinates": {
            "lat": 7.58739800001774,
            "lng": 6.21542600030972
          },
          "source": "grid3",
          "verified": true,
          "metadata": {
            "category": "Secondary",
            "management": "Public",
            "education": "Formal",
            "subtype": "Standard"
          }
        },
        {
          "type": "school",
          "name": "Alfathu Model Academy",
          "slug": "alfathu-model-academy-school",
          "coordinates": {
            "lat": 7.59070499963605,
            "lng": 6.22532099976439
          },
          "source": "grid3",
          "verified": true,
          "metadata": {
            "category": "Secondary",
            "management": "Private",
            "education": "Integrated",
            "subtype": "Standard"
          }
        },
        {
          "type": "school",
          "name": "Ebira Community Secondary School Ogaminana",
          "slug": "ebira-community-secondary-school-ogaminana-school",
          "coordinates": {
            "lat": 7.59975000036229,
            "lng": 6.23057300004399
          },
          "source": "grid3",
          "verified": true,
          "metadata": {
            "category": "Secondary",
            "management": "Public",
            "education": "Formal",
            "subtype": "Standard"
          }
        },
        {
          "type": "school",
          "name": "Government Day Secondary School Haisso Oziokutu",
          "slug": "government-day-secondary-school-haisso-oziokutu-school",
          "coordinates": {
            "lat": 7.60640100040587,
            "lng": 6.21855699990567
          },
          "source": "grid3",
          "verified": true,
          "metadata": {
            "category": "Secondary",
            "management": "Private",
            "education": "Integrated",
            "subtype": "Aggregate"
          }
        },
        {
          "type": "school",
          "name": "Success Group of Schools Ozuri",
          "slug": "success-group-of-schools-ozuri-school",
          "coordinates": {
            "lat": 7.5795810001631,
            "lng": 6.2178630002773
          },
          "source": "grid3",
          "verified": true,
          "metadata": {
            "category": "Secondary",
            "management": "Private",
            "education": "Formal",
            "subtype": "Aggregate"
          }
        },
        {
          "type": "school",
          "name": "Local Education Authority School Kabba Junction",
          "slug": "local-education-authority-school-kabba-junction-school",
          "coordinates": {
            "lat": 7.59653899977508,
            "lng": 6.22929300037174
          },
          "source": "grid3",
          "verified": true,
          "metadata": {
            "category": "Primary",
            "management": "Public",
            "education": "Formal",
            "subtype": "Primary"
          }
        },
        {
          "type": "school",
          "name": "Local Education Authority School Oniyeka",
          "slug": "local-education-authority-school-oniyeka-school",
          "coordinates": {
            "lat": 7.58974500033156,
            "lng": 6.20842899959871
          },
          "source": "grid3",
          "verified": true,
          "metadata": {
            "category": "Primary",
            "management": "Public",
            "education": "Formal",
            "subtype": "Primary"
          }
        },
        {
          "type": "school",
          "name": "Local Education Authority School Uruvona",
          "slug": "local-education-authority-school-uruvona-school",
          "coordinates": {
            "lat": 7.5829699999656,
            "lng": 6.21669500037399
          },
          "source": "grid3",
          "verified": true,
          "metadata": {
            "category": "Primary",
            "management": "Public",
            "education": "Formal",
            "subtype": "Primary"
          }
        },
        {
          "type": "school",
          "name": "Local Education Authority Catholic School Nagazi Eba",
          "slug": "local-education-authority-catholic-school-nagazi-eba-school",
          "coordinates": {
            "lat": 7.5837459997781,
            "lng": 6.22667400010505
          },
          "source": "grid3",
          "verified": true,
          "metadata": {
            "category": "Primary",
            "management": "Public",
            "education": "Formal",
            "subtype": "Standard"
          }
        },
        {
          "type": "school",
          "name": "Prince of Peace Academy Oziokutu",
          "slug": "prince-of-peace-academy-oziokutu-school",
          "coordinates": {
            "lat": 7.61017800011467,
            "lng": 6.22009599983056
          },
          "source": "grid3",
          "verified": true,
          "metadata": {
            "category": "Primary",
            "management": "Private",
            "education": "Formal",
            "subtype": "Standard"
          }
        },
        {
          "type": "school",
          "name": "Alfathu Group of Schools Nursery and Primary",
          "slug": "alfathu-group-of-schools-nursery-and-primary-school",
          "coordinates": {
            "lat": 7.5918910003694,
            "lng": 6.22493800008868
          },
          "source": "grid3",
          "verified": true,
          "metadata": {
            "category": "Primary",
            "management": "Private",
            "education": "Integrated",
            "subtype": "Standard"
          }
        },
        {
          "type": "school",
          "name": "Kigos Academy Nagazi",
          "slug": "kigos-academy-nagazi-school",
          "coordinates": {
            "lat": 7.60445399965243,
            "lng": 6.24011000007647
          },
          "source": "grid3",
          "verified": true,
          "metadata": {
            "category": "Primary",
            "management": "Private",
            "education": "Formal",
            "subtype": "Standard"
          }
        },
        {
          "type": "school",
          "name": "Mikab Model Schools",
          "slug": "mikab-model-schools-school",
          "coordinates": {
            "lat": 7.59307600015734,
            "lng": 6.23868900019727
          },
          "source": "grid3",
          "verified": true,
          "metadata": {
            "category": "Primary",
            "management": "Private",
            "education": "Formal",
            "subtype": "Pre Primary"
          }
        },
        {
          "type": "school",
          "name": "Institute of Arabic and Islamic Studies",
          "slug": "institute-of-arabic-and-islamic-studies-school",
          "coordinates": {
            "lat": 7.55859099987481,
            "lng": 6.21608900030719
          },
          "source": "grid3",
          "verified": true,
          "metadata": {
            "category": "Secondary",
            "management": "Private",
            "education": "Integrated",
            "subtype": "Aggregate"
          }
        },
        {
          "type": "school",
          "name": "Local Education Authority Community School Okunchi",
          "slug": "local-education-authority-community-school-okunchi-school",
          "coordinates": {
            "lat": 7.56626000009896,
            "lng": 6.22220199982246
          },
          "source": "grid3",
          "verified": true,
          "metadata": {
            "category": "Primary",
            "management": "Public",
            "education": "Formal",
            "subtype": "Primary"
          }
        },
        {
          "type": "school",
          "name": "Local Education Authority Community School Anyoke",
          "slug": "local-education-authority-community-school-anyoke-school",
          "coordinates": {
            "lat": 7.56282099978938,
            "lng": 6.22752499977895
          },
          "source": "grid3",
          "verified": true,
          "metadata": {
            "category": "Primary",
            "management": "Public",
            "education": "Formal",
            "subtype": "Standard"
          }
        },
        {
          "type": "school",
          "name": "Mubarak Model Academy Ege",
          "slug": "mubarak-model-academy-ege-school",
          "coordinates": {
            "lat": 7.57282099958951,
            "lng": 6.19331999981819
          },
          "source": "grid3",
          "verified": true,
          "metadata": {
            "category": "Primary",
            "management": "Private",
            "education": "Formal",
            "subtype": "Standard"
          }
        },
        {
          "type": "school",
          "name": "Government Day Secondary School Okunchi",
          "slug": "government-day-secondary-school-okunchi-school",
          "coordinates": {
            "lat": 7.56974599987802,
            "lng": 6.22602399980781
          },
          "source": "grid3",
          "verified": true,
          "metadata": {
            "category": "Secondary",
            "management": "Public",
            "education": "Formal",
            "subtype": "Standard"
          }
        },
        {
          "type": "school",
          "name": "Local Education Authority Anglican School",
          "slug": "local-education-authority-anglican-school-school-2",
          "coordinates": {
            "lat": 7.59159400016301,
            "lng": 6.20333200017171
          },
          "source": "grid3",
          "verified": true,
          "metadata": {
            "category": "Primary",
            "management": "Public",
            "education": "Formal",
            "subtype": "Standard"
          }
        },
        {
          "type": "school",
          "name": "Local Education Authority Central School Obangede",
          "slug": "local-education-authority-central-school-obangede-school",
          "coordinates": {
            "lat": 7.59805999976925,
            "lng": 6.20207399971537
          },
          "source": "grid3",
          "verified": true,
          "metadata": {
            "category": "Primary",
            "management": "Public",
            "education": "Formal",
            "subtype": "Standard"
          }
        },
        {
          "type": "school",
          "name": "Unity International Secondary School Eika Ohizenyi",
          "slug": "unity-international-secondary-school-eika-ohizenyi-school",
          "coordinates": {
            "lat": 7.58395599956975,
            "lng": 6.2679159999235
          },
          "source": "grid3",
          "verified": true,
          "metadata": {
            "category": "Secondary",
            "management": "Private",
            "education": "Formal",
            "subtype": "Standard"
          }
        },
        {
          "type": "school",
          "name": "Okehi Community Science Secondary School",
          "slug": "okehi-community-science-secondary-school-school",
          "coordinates": {
            "lat": 7.57807099977686,
            "lng": 6.26453899977508
          },
          "source": "grid3",
          "verified": true,
          "metadata": {
            "category": "Secondary",
            "management": "Public",
            "education": "Formal",
            "subtype": "Standard"
          }
        },
        {
          "type": "school",
          "name": "Government Science Secondary School Ogaminana",
          "slug": "government-science-secondary-school-ogaminana-school",
          "coordinates": {
            "lat": 7.80666100030498,
            "lng": 6.64928199956466
          },
          "source": "grid3",
          "verified": true,
          "metadata": {
            "category": "Secondary",
            "management": "Public",
            "education": "Formal",
            "subtype": "Junior"
          }
        },
        {
          "type": "school",
          "name": "Shettima Quintessence Secondary School",
          "slug": "shettima-quintessence-secondary-school-school",
          "coordinates": {
            "lat": 7.80391599962371,
            "lng": 6.66957900027069
          },
          "source": "grid3",
          "verified": true,
          "metadata": {
            "category": "Secondary",
            "management": "Private",
            "education": "Formal",
            "subtype": "Junior"
          }
        },
        {
          "type": "school",
          "name": "Universal Basic Education Junior Secondary School Army Barrack",
          "slug": "universal-basic-education-junior-secondary-school-army-barrack-school",
          "coordinates": {
            "lat": 7.7983680000832,
            "lng": 6.67661400003612
          },
          "source": "grid3",
          "verified": true,
          "metadata": {
            "category": "Secondary",
            "management": "Public",
            "education": "Formal",
            "subtype": "Junior"
          }
        },
        {
          "type": "school",
          "name": "Universal Basic Education Junior Secondary School Ibeke",
          "slug": "universal-basic-education-junior-secondary-school-ibeke-school",
          "coordinates": {
            "lat": 7.56987500043095,
            "lng": 6.24537299996405
          },
          "source": "grid3",
          "verified": true,
          "metadata": {
            "category": "Secondary",
            "management": "Public",
            "education": "Formal",
            "subtype": "Junior"
          }
        },
        {
          "type": "school",
          "name": "Universal Basic Education Junior Secondary School Idakatapa Kuroko",
          "slug": "universal-basic-education-junior-secondary-school-idakatapa-kuroko-school",
          "coordinates": {
            "lat": 7.57625100038342,
            "lng": 6.24826999956088
          },
          "source": "grid3",
          "verified": true,
          "metadata": {
            "category": "Secondary",
            "management": "Public",
            "education": "Formal",
            "subtype": "Junior"
          }
        },
        {
          "type": "school",
          "name": "Universal Basic Education Junior Secondary School Kabawa",
          "slug": "universal-basic-education-junior-secondary-school-kabawa-school",
          "coordinates": {
            "lat": 7.80166300004748,
            "lng": 6.67509400008811
          },
          "source": "grid3",
          "verified": true,
          "metadata": {
            "category": "Secondary",
            "management": "Public",
            "education": "Formal",
            "subtype": "Junior"
          }
        },
        {
          "type": "school",
          "name": "Universal Basic Education Junior Secondary School Osara",
          "slug": "universal-basic-education-junior-secondary-school-osara-school",
          "coordinates": {
            "lat": 7.67890200012727,
            "lng": 6.41550600000193
          },
          "source": "grid3",
          "verified": true,
          "metadata": {
            "category": "Secondary",
            "management": "Private",
            "education": "Formal",
            "subtype": "Junior"
          }
        },
        {
          "type": "school",
          "name": "Universal Basic Education Junior Secondary School Osama",
          "slug": "universal-basic-education-junior-secondary-school-osama-school",
          "coordinates": {
            "lat": 7.54754300030925,
            "lng": 6.18648100009813
          },
          "source": "grid3",
          "verified": true,
          "metadata": {
            "category": "Secondary",
            "management": "Public",
            "education": "Formal",
            "subtype": "Junior"
          }
        },
        {
          "type": "school",
          "name": "Samana Unity College",
          "slug": "samana-unity-college-school",
          "coordinates": {
            "lat": 7.59868799995127,
            "lng": 6.21710600044162
          },
          "source": "grid3",
          "verified": true,
          "metadata": {
            "category": "Secondary",
            "management": "Private",
            "education": "Formal",
            "subtype": "Junior"
          }
        },
        {
          "type": "school",
          "name": "Universal Basic Education Junior Secondary School",
          "slug": "universal-basic-education-junior-secondary-school-school-13",
          "coordinates": {
            "lat": 7.59684200025816,
            "lng": 6.23028999958387
          },
          "source": "grid3",
          "verified": true,
          "metadata": {
            "category": "Secondary",
            "management": "Public",
            "education": "Formal",
            "subtype": "Junior"
          }
        },
        {
          "type": "school",
          "name": "Universal Basic Education Junior Secondary School Model Ogaminana",
          "slug": "universal-basic-education-junior-secondary-school-model-ogaminana-school",
          "coordinates": {
            "lat": 7.59217800011464,
            "lng": 6.2235289998635
          },
          "source": "grid3",
          "verified": true,
          "metadata": {
            "category": "Secondary",
            "management": "Public",
            "education": "Formal",
            "subtype": "Junior"
          }
        },
        {
          "type": "school",
          "name": "Universal Basic Education Junior Secondary School Okunchi",
          "slug": "universal-basic-education-junior-secondary-school-okunchi-school",
          "coordinates": {
            "lat": 7.56599799970797,
            "lng": 6.22297799963502
          },
          "source": "grid3",
          "verified": true,
          "metadata": {
            "category": "Secondary",
            "management": "Public",
            "education": "Formal",
            "subtype": "Junior"
          }
        },
        {
          "type": "school",
          "name": "Universal Basic Education Junior Secondary School Uhuodo",
          "slug": "universal-basic-education-junior-secondary-school-uhuodo-school",
          "coordinates": {
            "lat": 7.59126200014123,
            "lng": 6.20372300021631
          },
          "source": "grid3",
          "verified": true,
          "metadata": {
            "category": "Secondary",
            "management": "Public",
            "education": "Formal",
            "subtype": "Junior"
          }
        },
        {
          "type": "school",
          "name": "Osara Community Secondary School Osara",
          "slug": "osara-community-secondary-school-osara-school",
          "coordinates": {
            "lat": 7.68107799974996,
            "lng": 6.4134529997562
          },
          "source": "grid3",
          "verified": true,
          "metadata": {
            "category": "Secondary",
            "management": "Public",
            "education": "Formal",
            "subtype": "Senior"
          }
        },
        {
          "type": "church",
          "name": "Mountain Of Fire Miracle Church Uruvucheba",
          "slug": "mountain-of-fire-miracle-church-uruvucheba-church",
          "coordinates": {
            "lat": 7.58395999975426,
            "lng": 6.22451999969826
          },
          "source": "grid3",
          "verified": true
        },
        {
          "type": "church",
          "name": "St Leo's Catholic Church Osisi",
          "slug": "st-leo-s-catholic-church-osisi-church",
          "coordinates": {
            "lat": 7.5792199997033,
            "lng": 6.22293000011945
          },
          "source": "grid3",
          "verified": true
        },
        {
          "type": "church",
          "name": "Blessed Gospel Church Egge",
          "slug": "blessed-gospel-church-egge-church",
          "coordinates": {
            "lat": 7.57636000001406,
            "lng": 6.19050000017489
          },
          "source": "grid3",
          "verified": true
        },
        {
          "type": "church",
          "name": "Christ Apostolic Church Ebogogo",
          "slug": "christ-apostolic-church-ebogogo-church",
          "coordinates": {
            "lat": 7.56806000036875,
            "lng": 6.23331000035625
          },
          "source": "grid3",
          "verified": true
        },
        {
          "type": "church",
          "name": "E C W A Church Shagari",
          "slug": "e-c-w-a-church-shagari-church",
          "coordinates": {
            "lat": 7.83574000040073,
            "lng": 6.66010999977669
          },
          "source": "grid3",
          "verified": true
        },
        {
          "type": "church",
          "name": "Deeper Life Bible Church Idotokiti",
          "slug": "deeper-life-bible-church-idotokiti-church",
          "coordinates": {
            "lat": 7.80459000012843,
            "lng": 6.67519000001852
          },
          "source": "grid3",
          "verified": true
        },
        {
          "type": "church",
          "name": "Christ Apostolic Church Idotokiti",
          "slug": "christ-apostolic-church-idotokiti-church",
          "coordinates": {
            "lat": 7.80644000000603,
            "lng": 6.67523999962634
          },
          "source": "grid3",
          "verified": true
        },
        {
          "type": "church",
          "name": "Celestial Church Of Christ Idotokiti",
          "slug": "celestial-church-of-christ-idotokiti-church",
          "coordinates": {
            "lat": 7.80280999988162,
            "lng": 6.68325000028733
          },
          "source": "grid3",
          "verified": true
        },
        {
          "type": "church",
          "name": "St Micheal Catholic Church Osoma",
          "slug": "st-micheal-catholic-church-osoma-church",
          "coordinates": {
            "lat": 7.54949999972524,
            "lng": 6.18680000041974
          },
          "source": "grid3",
          "verified": true
        },
        {
          "type": "church",
          "name": "Gospel Faith Mission Oziokutu",
          "slug": "gospel-faith-mission-oziokutu-church",
          "coordinates": {
            "lat": 7.593640000086,
            "lng": 6.21716000023389
          },
          "source": "grid3",
          "verified": true
        },
        {
          "type": "church",
          "name": "Deeper Life Bible Church Nagazi",
          "slug": "deeper-life-bible-church-nagazi-church",
          "coordinates": {
            "lat": 7.58054999988263,
            "lng": 6.22925999974922
          },
          "source": "grid3",
          "verified": true
        },
        {
          "type": "church",
          "name": "Apostolic Church Assembly Nagazi Uvete",
          "slug": "apostolic-church-assembly-nagazi-uvete-church",
          "coordinates": {
            "lat": 7.58951999984816,
            "lng": 6.22908000044174
          },
          "source": "grid3",
          "verified": true
        },
        {
          "type": "church",
          "name": "Marlonde Mission Church Ovakere",
          "slug": "marlonde-mission-church-ovakere-church",
          "coordinates": {
            "lat": 7.60259999959038,
            "lng": 6.2543199997682
          },
          "source": "grid3",
          "verified": true
        },
        {
          "type": "church",
          "name": "Christ Apostolic Church Ovakere",
          "slug": "christ-apostolic-church-ovakere-church",
          "coordinates": {
            "lat": 7.60373000043921,
            "lng": 6.23752999980968
          },
          "source": "grid3",
          "verified": true
        },
        {
          "type": "church",
          "name": "The Redeem Church Of God",
          "slug": "the-redeem-church-of-god-church",
          "coordinates": {
            "lat": 7.56312999964979,
            "lng": 6.24444999966778
          },
          "source": "grid3",
          "verified": true
        },
        {
          "type": "mosque",
          "name": "Utokuha Mosque Igamiwana",
          "slug": "utokuha-mosque-igamiwana-mosque",
          "coordinates": {
            "lat": 7.58588000016192,
            "lng": 6.21819000006849
          },
          "source": "grid3",
          "verified": true
        },
        {
          "type": "mosque",
          "name": "Central Mosque Uruvucheba",
          "slug": "central-mosque-uruvucheba-mosque",
          "coordinates": {
            "lat": 7.58239000019842,
            "lng": 6.22414999972278
          },
          "source": "grid3",
          "verified": true
        },
        {
          "type": "mosque",
          "name": "Alhaji Salami Mosque Okunchi",
          "slug": "alhaji-salami-mosque-okunchi-mosque",
          "coordinates": {
            "lat": 7.57652000019789,
            "lng": 6.22061000015145
          },
          "source": "grid3",
          "verified": true
        },
        {
          "type": "mosque",
          "name": "Central Mosque Oziokutu",
          "slug": "central-mosque-oziokutu-mosque",
          "coordinates": {
            "lat": 7.5934199998332,
            "lng": 6.22116999989561
          },
          "source": "grid3",
          "verified": true
        },
        {
          "type": "mosque",
          "name": "Salami Dongo Mosque Anyoke 1",
          "slug": "salami-dongo-mosque-anyoke-1-mosque",
          "coordinates": {
            "lat": 7.57909999956536,
            "lng": 6.22014000006101
          },
          "source": "grid3",
          "verified": true
        },
        {
          "type": "mosque",
          "name": "Alhaji Abdulmaleek Mosque Ebogogo",
          "slug": "alhaji-abdulmaleek-mosque-ebogogo-mosque",
          "coordinates": {
            "lat": 7.5636599998092,
            "lng": 6.23541000007151
          },
          "source": "grid3",
          "verified": true
        },
        {
          "type": "mosque",
          "name": "Atuvonoh Mosque Ebogogo",
          "slug": "atuvonoh-mosque-ebogogo-mosque",
          "coordinates": {
            "lat": 7.56644000030582,
            "lng": 6.23571000041625
          },
          "source": "grid3",
          "verified": true
        },
        {
          "type": "mosque",
          "name": "Hajia Lari Mosque Inoziomi",
          "slug": "hajia-lari-mosque-inoziomi-mosque",
          "coordinates": {
            "lat": 7.55815000022238,
            "lng": 6.24401999962333
          },
          "source": "grid3",
          "verified": true
        },
        {
          "type": "mosque",
          "name": "Ateba Mosque Kuroko",
          "slug": "ateba-mosque-kuroko-mosque",
          "coordinates": {
            "lat": 7.57991000004654,
            "lng": 6.24825999999905
          },
          "source": "grid3",
          "verified": true
        },
        {
          "type": "mosque",
          "name": "Honourable H S Ogidi Mosque Kuroko",
          "slug": "honourable-h-s-ogidi-mosque-kuroko-mosque",
          "coordinates": {
            "lat": 7.56771000041624,
            "lng": 6.24335000020238
          },
          "source": "grid3",
          "verified": true
        },
        {
          "type": "mosque",
          "name": "Central Mosque Idotokiti",
          "slug": "central-mosque-idotokiti-mosque",
          "coordinates": {
            "lat": 7.79798000017689,
            "lng": 6.67631000040626
          },
          "source": "grid3",
          "verified": true
        },
        {
          "type": "mosque",
          "name": "Opetu Mosque Opetu",
          "slug": "opetu-mosque-opetu-mosque",
          "coordinates": {
            "lat": 7.56847000039028,
            "lng": 6.17679000015841
          },
          "source": "grid3",
          "verified": true
        },
        {
          "type": "mosque",
          "name": "Alhaji Idris Sanni Mosque Onyamije",
          "slug": "alhaji-idris-sanni-mosque-onyamije-mosque",
          "coordinates": {
            "lat": 7.56072000002803,
            "lng": 6.17482000014292
          },
          "source": "grid3",
          "verified": true
        },
        {
          "type": "mosque",
          "name": "Central Mosque Onyamije",
          "slug": "central-mosque-onyamije-mosque",
          "coordinates": {
            "lat": 7.5632299997647,
            "lng": 6.17960000023987
          },
          "source": "grid3",
          "verified": true
        },
        {
          "type": "mosque",
          "name": "Guhari Mosque Igamiwana",
          "slug": "guhari-mosque-igamiwana-mosque",
          "coordinates": {
            "lat": 7.59035000035226,
            "lng": 6.22399000043822
          },
          "source": "grid3",
          "verified": true
        },
        {
          "type": "mosque",
          "name": "Suberu Okino Mosque Uruvoba",
          "slug": "suberu-okino-mosque-uruvoba-mosque",
          "coordinates": {
            "lat": 7.58487000035029,
            "lng": 6.2221100000765
          },
          "source": "grid3",
          "verified": true
        },
        {
          "type": "mosque",
          "name": "Eid Prayer Ground Nagazi Uvete",
          "slug": "eid-prayer-ground-nagazi-uvete-mosque",
          "coordinates": {
            "lat": 7.60076999973575,
            "lng": 6.22664999989763
          },
          "source": "grid3",
          "verified": true
        },
        {
          "type": "mosque",
          "name": "Mosque Ovakere",
          "slug": "mosque-ovakere-mosque",
          "coordinates": {
            "lat": 7.59725999974921,
            "lng": 6.24583000035426
          },
          "source": "grid3",
          "verified": true
        },
        {
          "type": "mosque",
          "name": "Arube Mosque Inoziomi",
          "slug": "arube-mosque-inoziomi-mosque",
          "coordinates": {
            "lat": 7.56675000021238,
            "lng": 6.23951999984814
          },
          "source": "grid3",
          "verified": true
        },
        {
          "type": "mosque",
          "name": "Central Mosque Abugi",
          "slug": "central-mosque-abugi-mosque",
          "coordinates": {
            "lat": 7.56137999988715,
            "lng": 6.24561000010146
          },
          "source": "grid3",
          "verified": true
        },
        {
          "type": "mosque",
          "name": "Alhaji Ibrahim Mosque Abugi",
          "slug": "alhaji-ibrahim-mosque-abugi-mosque",
          "coordinates": {
            "lat": 7.56414999992262,
            "lng": 6.24419000026836
          },
          "source": "grid3",
          "verified": true
        },
        {
          "type": "mosque",
          "name": "Central Mosque Egge",
          "slug": "central-mosque-egge-mosque",
          "coordinates": {
            "lat": 7.57190999984664,
            "lng": 6.19358000011698
          },
          "source": "grid3",
          "verified": true
        },
        {
          "type": "mosque",
          "name": "Umoru Mosque Adochi",
          "slug": "umoru-mosque-adochi-mosque",
          "coordinates": {
            "lat": 7.56353999967132,
            "lng": 6.22592999996959
          },
          "source": "grid3",
          "verified": true
        },
        {
          "type": "mosque",
          "name": "Alhaji Salami Oni Cement Mosque Karaworo",
          "slug": "alhaji-salami-oni-cement-mosque-karaworo-mosque",
          "coordinates": {
            "lat": 7.55331999961834,
            "lng": 6.24470999996657
          },
          "source": "grid3",
          "verified": true
        },
        {
          "type": "mosque",
          "name": "Alhaji Bello Mosque Okunchi",
          "slug": "alhaji-bello-mosque-okunchi-mosque",
          "coordinates": {
            "lat": 7.57030999980668,
            "lng": 6.22227000026038
          },
          "source": "grid3",
          "verified": true
        },
        {
          "type": "mosque",
          "name": "Central Mosque Anyoke 1",
          "slug": "central-mosque-anyoke-1-mosque",
          "coordinates": {
            "lat": 7.57139999971025,
            "lng": 6.22340000020989
          },
          "source": "grid3",
          "verified": true
        }
      ]
    },
    {
      "name": "Ajaokuta",
      "slug": "kogi-ajaokuta",
      "markets": [],
      "facilities": [
        {
          "type": "health_facility",
          "name": "Larouk Clinic",
          "slug": "larouk-clinic-health-facility",
          "coordinates": {
            "lat": 7.551086425,
            "lng": 6.600097656
          },
          "source": "grid3",
          "verified": true,
          "metadata": {
            "facility_level": "Secondary",
            "facility_level_option": "Primary Health Center",
            "ownership": "Private",
            "ownership_type": "For Profit"
          }
        },
        {
          "type": "health_facility",
          "name": "Duro Soloye Clinic",
          "slug": "duro-soloye-clinic-health-facility",
          "coordinates": {
            "lat": 7.5614,
            "lng": 6.64154
          },
          "source": "grid3",
          "verified": true,
          "metadata": {
            "facility_level": "Secondary",
            "facility_level_option": "Primary Health Center",
            "ownership": "Private",
            "ownership_type": "For Profit"
          }
        },