{
  "name": "Zamfara",
  "slug": "zamfara",
  "lgas": [
    {
      "name": "Anka",
      "slug": "zamfara-anka",
      "markets": [],
      "facilities": [
        {
          "type": "market",
          "name": "Babbar Kasuwa Bagega",
          "slug": "babbar-kasuwa-bagega-market",
          "coordinates": {
            "lat": 11.866680000082,
            "lng": 6.00204999990763
          },
          "source": "grid3",
          "verified": true,
          "metadata": {
            "mrkt_days": "0"
          }
        },
        {
          "type": "market",
          "name": "Babbar Kasuwa Gima",
          "slug": "babbar-kasuwa-gima-market",
          "coordinates": {
            "lat": 12.11240000006,
            "lng": 5.85145999997906
          },
          "source": "grid3",
          "verified": true,
          "metadata": {
            "mrkt_days": "0"
          }
        },
        {
          "type": "health_facility",
          "name": "Hayin Bawa Primary Health Clinic",
          "slug": "hayin-bawa-primary-health-clinic-health-facility",
          "coordinates": {
            "lat": 11.67453,
            "lng": 6.23543
          },
          "source": "grid3",
          "verified": true,
          "metadata": {
            "facility_level": "Primary",
            "facility_level_option": "Primary Health Clinic",
            "ownership": "Public",
            "ownership_type": "Local Government"
          }
        },
        {
          "type": "health_facility",
          "name": "Birnin Doki Health Post",
          "slug": "birnin-doki-health-post-health-facility",
          "coordinates": {
            "lat": 12.09902167,
            "lng": 6.04255
          },
          "source": "grid3",
          "verified": true,
          "metadata": {
            "facility_level": "Primary",
            "facility_level_option": "Health Post",
            "ownership": "Public",
            "ownership_type": "Local Government"
          }
        },
        {
          "type": "health_facility",
          "name": "Dareta Primary Health Clinic",
          "slug": "dareta-primary-health-clinic-health-facility",
          "coordinates": {
            "lat": 12.0346895,
            "lng": 5.9557179
          },
          "source": "grid3",
          "verified": true,
          "metadata": {
            "facility_level": "Primary",
            "facility_level_option": "Primary Health Clinic",
            "ownership": "Public",
            "ownership_type": "Local Government"
          }
        },
        {
          "type": "health_facility",
          "name": "Kwanar Maje Primary Health Center",
          "slug": "kwanar-maje-primary-health-center-health-facility",
          "coordinates": {
            "lat": 12.06094634,
            "lng": 5.87121581
          },
          "source": "grid3",
          "verified": true,
          "metadata": {
            "facility_level": "Primary",
            "facility_level_option": "Primary Health Center",
            "ownership": "Public",
            "ownership_type": "Local Government"
          }
        },
        {
          "type": "health_facility",
          "name": "Inwala Health Clinic",
          "slug": "inwala-health-clinic-health-facility-2",
          "coordinates": {
            "lat": 12.12422,
            "lng": 5.95934
          },
          "source": "grid3",
          "verified": true,
          "metadata": {
            "facility_level": "Primary",
            "facility_level_option": "Primary Health Clinic",
            "ownership": "Public",
            "ownership_type": "Local Government"
          }
        },
        {
          "type": "health_facility",
          "name": "Wuya Primary Health Center",
          "slug": "wuya-primary-health-center-health-facility",
          "coordinates": {
            "lat": 12.0731711,
            "lng": 6.09553366
          },
          "source": "grid3",
          "verified": true,
          "metadata": {
            "facility_level": "Primary",
            "facility_level_option": "Primary Health Center",
            "ownership": "Public",
            "ownership_type": "Local Government"
          }
        },
        {
          "type": "health_facility",
          "name": "Duhuwa Primary Health Center",
          "slug": "duhuwa-primary-health-center-health-facility",
          "coordinates": {
            "lat": 11.719423,
            "lng": 6.02754499963
          },
          "source": "grid3",
          "verified": true,
          "metadata": {
            "facility_level": "Primary",
            "facility_level_option": "Primary Health Center",
            "ownership": "Public",
            "ownership_type": "Local Government"
          }
        },
        {
          "type": "health_facility",
          "name": "Matseri Health Post",
          "slug": "matseri-health-post-health-facility",
          "coordinates": {
            "lat": 12.0533719999,
            "lng": 5.74644699964
          },
          "source": "grid3",
          "verified": true,
          "metadata": {
            "facility_level": "Primary",
            "facility_level_option": "Health Post",
            "ownership": "Public",
            "ownership_type": "Local Government"
          }
        },
        {
          "type": "health_facility",
          "name": "Shabli Primary Health Clinic",
          "slug": "shabli-primary-health-clinic-health-facility",
          "coordinates": {
            "lat": 12.2115540004,
            "lng": 5.80218099951
          },
          "source": "grid3",
          "verified": true,
          "metadata": {
            "facility_level": "Primary",
            "facility_level_option": "Primary Health Clinic",
            "ownership": "Public",
            "ownership_type": "Local Government"
          }
        },
        {
          "type": "health_facility",
          "name": "Manya Primary Health Clinic",
          "slug": "manya-primary-health-clinic-health-facility",
          "coordinates": {
            "lat": 12.0629600004,
            "lng": 5.80855599984
          },
          "source": "grid3",
          "verified": true,
          "metadata": {
            "facility_level": "Primary",
            "facility_level_option": "Primary Health Clinic",
            "ownership": "Public",
            "ownership_type": "Local Government"
          }
        },
        {
          "type": "health_facility",
          "name": "Girkau Primary Health Clinic",
          "slug": "girkau-primary-health-clinic-health-facility",
          "coordinates": {
            "lat": 12.0946379999,
            "lng": 5.81554499959
          },
          "source": "grid3",
          "verified": true,
          "metadata": {
            "facility_level": "Primary",
            "facility_level_option": "Primary Health Clinic",
            "ownership": "Public",
            "ownership_type": "Local Government"
          }
        },
        {
          "type": "health_facility",
          "name": "Anka Psychiatric Hospital",
          "slug": "anka-psychiatric-hospital-health-facility",
          "coordinates": {
            "lat": 11.9978510002,
            "lng": 5.8313020003
          },
          "source": "grid3",
          "verified": true,
          "metadata": {
            "facility_level": "Secondary",
            "facility_level_option": "General Hospital",
            "ownership": "Public",
            "ownership_type": "State Government"
          }
        },
        {
          "type": "health_facility",
          "name": "Moda Primary Health Clinic",
          "slug": "moda-primary-health-clinic-health-facility",
          "coordinates": {
            "lat": 12.1269269999,
            "lng": 5.84296200022
          },
          "source": "grid3",
          "verified": true,
          "metadata": {
            "facility_level": "Primary",
            "facility_level_option": "Primary Health Clinic",
            "ownership": "Public",
            "ownership_type": "Local Government"
          }
        },
        {
          "type": "health_facility",
          "name": "Kadaddaba Primary Health Clinic",
          "slug": "kadaddaba-primary-health-clinic-health-facility",
          "coordinates": {
            "lat": 12.1421320002,
            "lng": 5.87319999976
          },
          "source": "grid3",
          "verified": true,
          "metadata": {
            "facility_level": "Primary",
            "facility_level_option": "Primary Health Clinic",
            "ownership": "Public",
            "ownership_type": "Local Government"
          }
        },
        {
          "type": "health_facility",
          "name": "Gargam Primary Health Clinic",
          "slug": "gargam-primary-health-clinic-health-facility",
          "coordinates": {
            "lat": 11.9880349995,
            "lng": 5.89918300042
          },
          "source": "grid3",
          "verified": true,
          "metadata": {
            "facility_level": "Primary",
            "facility_level_option": "Primary Health Clinic",
            "ownership": "Public",
            "ownership_type": "Local Government"
          }
        },
        {
          "type": "health_facility",
          "name": "Kasumka Primary Health Clinic",
          "slug": "kasumka-primary-health-clinic-health-facility",
          "coordinates": {
            "lat": 11.8966240004,
            "lng": 5.91389200041
          },
          "source": "grid3",
          "verified": true,
          "metadata": {
            "facility_level": "Primary",
            "facility_level_option": "Primary Health Clinic",
            "ownership": "Public",
            "ownership_type": "Local Government"
          }
        },
        {
          "type": "health_facility",
          "name": "Anka Orphans and Less Previlaged Clinic",
          "slug": "anka-orphans-and-less-previlaged-clinic-health-facility",
          "coordinates": {
            "lat": 12.1099500003,
            "lng": 5.93991000009
          },
          "source": "grid3",
          "verified": true,
          "metadata": {
            "facility_level": "Primary",
            "facility_level_option": "Unknown",
            "ownership": "Public",
            "ownership_type": "Local Government"
          }
        },
        {
          "type": "health_facility",
          "name": "Abare Primary Health Clinic",
          "slug": "abare-primary-health-clinic-health-facility",
          "coordinates": {
            "lat": 12.0803730002,
            "lng": 5.95520400048
          },
          "source": "grid3",
          "verified": true,
          "metadata": {
            "facility_level": "Primary",
            "facility_level_option": "Primary Health Clinic",
            "ownership": "Public",
            "ownership_type": "Local Government"
          }
        },
        {
          "type": "health_facility",
          "name": "Tungar Kudaku Primary Health Clinic",
          "slug": "tungar-kudaku-primary-health-clinic-health-facility",
          "coordinates": {
            "lat": 11.9437810004,
            "lng": 5.96933900009
          },
          "source": "grid3",
          "verified": true,
          "metadata": {
            "facility_level": "Primary",
            "facility_level_option": "Primary Health Clinic",
            "ownership": "Public",
            "ownership_type": "Local Government"
          }
        },
        {
          "type": "health_facility",
          "name": "Yarkurya Health Post",
          "slug": "yarkurya-health-post-health-facility",
          "coordinates": {
            "lat": 12.1438110004,
            "lng": 5.99066999958
          },
          "source": "grid3",
          "verified": true,
          "metadata": {
            "facility_level": "Primary",
            "facility_level_option": "Health Post",
            "ownership": "Public",
            "ownership_type": "Local Government"
          }
        },
        {
          "type": "health_facility",
          "name": "Sabon Birni Primary Health Center",
          "slug": "sabon-birni-primary-health-center-health-facility-2",
          "coordinates": {
            "lat": 11.6823909998,
            "lng": 6.02061399993
          },
          "source": "grid3",
          "verified": true,
          "metadata": {
            "facility_level": "Primary",
            "facility_level_option": "Primary Health Center",
            "ownership": "Public",
            "ownership_type": "Local Government"
          }
        },
        {
          "type": "health_facility",
          "name": "Kawaye Primary Health Clinic",
          "slug": "kawaye-primary-health-clinic-health-facility",
          "coordinates": {
            "lat": 11.8241920002,
            "lng": 6.0326480001
          },
          "source": "grid3",
          "verified": true,
          "metadata": {
            "facility_level": "Primary",
            "facility_level_option": "Primary Health Clinic",
            "ownership": "Public",
            "ownership_type": "Local Government"
          }
        },
        {
          "type": "health_facility",
          "name": "Tangaram Primary Health Center",
          "slug": "tangaram-primary-health-center-health-facility",
          "coordinates": {
            "lat": 11.9969569996,
            "lng": 6.04622800033
          },
          "source": "grid3",
          "verified": true,
          "metadata": {
            "facility_level": "Primary",
            "facility_level_option": "Primary Health Center",
            "ownership": "Public",
            "ownership_type": "Local Government"
          }
        },
        {
          "type": "health_facility",
          "name": "Tsabta Primary Health Clinic",
          "slug": "tsabta-primary-health-clinic-health-facility",
          "coordinates": {
            "lat": 12.0208419998,
            "lng": 6.06707600049
          },
          "source": "grid3",
          "verified": true,
          "metadata": {
            "facility_level": "Primary",
            "facility_level_option": "Primary Health Clinic",
            "ownership": "Public",
            "ownership_type": "Local Government"
          }
        },
        {
          "type": "health_facility",
          "name": "Yarsabaya Primary Health Center",
          "slug": "yarsabaya-primary-health-center-health-facility",
          "coordinates": {
            "lat": 12.0893480003,
            "lng": 6.09602200016
          },
          "source": "grid3",
          "verified": true,
          "metadata": {
            "facility_level": "Primary",
            "facility_level_option": "Primary Health Center",
            "ownership": "Public",
            "ownership_type": "Local Government"
          }
        },
        {
          "type": "health_facility",
          "name": "Barayar Zaki Primary Health Center",
          "slug": "barayar-zaki-primary-health-center-health-facility",
          "coordinates": {
            "lat": 12.23016,
            "lng": 5.77808
          },
          "source": "grid3",
          "verified": true,
          "metadata": {
            "facility_level": "Primary",
            "facility_level_option": "Primary Health Center",
            "ownership": "Public",
            "ownership_type": "Local Government"
          }
        },
        {
          "type": "health_facility",
          "name": "Rafin Gero Primary Health Center",
          "slug": "rafin-gero-primary-health-center-health-facility",
          "coordinates": {
            "lat": 12.2302320001,
            "lng": 5.77837000033
          },
          "source": "grid3",
          "verified": true,
          "metadata": {
            "facility_level": "Primary",
            "facility_level_option": "Primary Health Center",
            "ownership": "Public",
            "ownership_type": "Local Government"
          }
        },
        {
          "type": "health_facility",
          "name": "Waramu Primary Health Center",
          "slug": "waramu-primary-health-center-health-facility",
          "coordinates": {
            "lat": 12.1346920002,
            "lng": 5.82509300008
          },
          "source": "grid3",
          "verified": true,
          "metadata": {
            "facility_level": "Primary",
            "facility_level_option": "Primary Health Center",
            "ownership": "Public",
            "ownership_type": "Local Government"
          }
        },
        {
          "type": "health_facility",
          "name": "Gima Primary Health Center",
          "slug": "gima-primary-health-center-health-facility",
          "coordinates": {
            "lat": 12.1159720004,
            "lng": 5.84921200047
          },
          "source": "grid3",
          "verified": true,
          "metadata": {
            "facility_level": "Primary",
            "facility_level_option": "Primary Health Center",
            "ownership": "Public",
            "ownership_type": "Local Government"
          }
        },
        {
          "type": "health_facility",
          "name": "Galadanci Primary Health Center",
          "slug": "galadanci-primary-health-center-health-facility",
          "coordinates": {
            "lat": 12.1191539996,
            "lng": 5.92205799996
          },
          "source": "grid3",
          "verified": true,
          "metadata": {
            "facility_level": "Primary",
            "facility_level_option": "Primary Health Center",
            "ownership": "Public",
            "ownership_type": "Local Government"
          }
        },
        {
          "type": "health_facility",
          "name": "Bagega Primary Health Center",
          "slug": "bagega-primary-health-center-health-facility",
          "coordinates": {
            "lat": 11.8685680003,
            "lng": 5.99983399981
          },
          "source": "grid3",
          "verified": true,
          "metadata": {
            "facility_level": "Primary",
            "facility_level_option": "Primary Health Center",
            "ownership": "Public",
            "ownership_type": "Local Government"
          }
        },
        {
          "type": "health_facility",
          "name": "Yan Matankari Health Post",
          "slug": "yan-matankari-health-post-health-facility",
          "coordinates": {
            "lat": 12.0823469996,
            "lng": 6.06180799991
          },
          "source": "grid3",
          "verified": true,
          "metadata": {
            "facility_level": "Primary",
            "facility_level_option": "Health Post",
            "ownership": "Public",
            "ownership_type": "Local Government"
          }
        },
        {
          "type": "health_facility",
          "name": "Gobirawa Primary Health Center",
          "slug": "gobirawa-primary-health-center-health-facility",
          "coordinates": {
            "lat": 11.7948326679,
            "lng": 6.12843011376
          },
          "source": "grid3",
          "verified": true,
          "metadata": {
            "facility_level": "Primary",
            "facility_level_option": "Primary Health Center",
            "ownership": "Public",
            "ownership_type": "Local Government"
          }
        },
        {
          "type": "health_facility",
          "name": "Anka Women and Child Welfare Primary Health Clinic",
          "slug": "anka-women-and-child-welfare-primary-health-clinic-health-facility",
          "coordinates": {
            "lat": 12.1107488894,
            "lng": 5.92378018848
          },
          "source": "grid3",
          "verified": true,
          "metadata": {
            "facility_level": "Primary",
            "facility_level_option": "Primary Health Clinic",
            "ownership": "Public",
            "ownership_type": "Local Government"
          }
        },
        {
          "type": "health_facility",
          "name": "Anka General Hospital",
          "slug": "anka-general-hospital-health-facility",
          "coordinates": {
            "lat": 12.10953,
            "lng": 5.92749
          },
          "source": "grid3",
          "verified": true,
          "metadata": {
            "facility_level": "Secondary",
            "facility_level_option": "General Hospital",
            "ownership": "Public",
            "ownership_type": "State Government"
          }
        },
        {
          "type": "health_facility",
          "name": "Maiduma Babban Baye Primary Health Clinic",
          "slug": "maiduma-babban-baye-primary-health-clinic-health-facility",
          "coordinates": {
            "lat": 12.05883,
            "lng": 5.87071
          },
          "source": "grid3",
          "verified": true,
          "metadata": {
            "facility_level": "Primary",
            "facility_level_option": "Primary Health Clinic",
            "ownership": "Public",
            "ownership_type": "Local Government"
          }
        },
        {
          "type": "health_facility",
          "name": "Dutsin Dan Ajiya Primary Health Clinic",
          "slug": "dutsin-dan-ajiya-primary-health-clinic-health-facility",
          "coordinates": {
            "lat": 12.1839069996,
            "lng": 5.75834499973
          },
          "source": "grid3",
          "verified": true,
          "metadata": {
            "facility_level": "Primary",
            "facility_level_option": "Primary Health Clinic",
            "ownership": "Public",
            "ownership_type": "Local Government"
          }
        },
        {
          "type": "health_facility",
          "name": "Makakari Primary Health Clinic",
          "slug": "makakari-primary-health-clinic-health-facility",
          "coordinates": {
            "lat": 11.9215240003,
            "lng": 5.89854199998
          },
          "source": "grid3",
          "verified": true,
          "metadata": {
            "facility_level": "Primary",
            "facility_level_option": "Primary Health Clinic",
            "ownership": "Public",
            "ownership_type": "Local Government"
          }
        },
        {
          "type": "health_facility",
          "name": "Tungar Daji Primary Health Clinic",
          "slug": "tungar-daji-primary-health-clinic-health-facility",
          "coordinates": {
            "lat": 11.9049820001,
            "lng": 6.09098899974
          },
          "source": "grid3",
          "verified": true,
          "metadata": {
            "facility_level": "Primary",
            "facility_level_option": "Primary Health Clinic",
            "ownership": "Public",
            "ownership_type": "Local Government"
          }
        },
        {
          "type": "health_facility",
          "name": "Baudi Primary Health Clinic",
          "slug": "baudi-primary-health-clinic-health-facility",
          "coordinates": {
            "lat": 11.7247949996,
            "lng": 6.10391199952
          },
          "source": "grid3",
          "verified": true,
          "metadata": {
            "facility_level": "Primary",
            "facility_level_option": "Primary Health Clinic",
            "ownership": "Public",
            "ownership_type": "Local Government"
          }
        },
        {
          "type": "health_facility",
          "name": "Bawa Daji Health Post",
          "slug": "bawa-daji-health-post-health-facility",
          "coordinates": {
            "lat": 12.1076,
            "lng": 5.92829
          },
          "source": "grid3",
          "verified": true,
          "metadata": {
            "facility_level": "Primary",
            "facility_level_option": "Health Post",
            "ownership": "Public",
            "ownership_type": "Unknown"
          }
        },
        {
          "type": "health_facility",
          "name": "Shamlin Kware Health Post",
          "slug": "shamlin-kware-health-post-health-facility",
          "coordinates": {
            "lat": 12.21289063,
            "lng": 5.802124023
          },
          "source": "grid3",
          "verified": true,
          "metadata": {
            "facility_level": "Primary",
            "facility_level_option": "Health Post",
            "ownership": "Public",
            "ownership_type": "Unknown"
          }
        },
        {
          "type": "health_facility",
          "name": "Tangaram Health Post",
          "slug": "tangaram-health-post-health-facility",
          "coordinates": {
            "lat": 11.99310303,
            "lng": 6.046875
          },
          "source": "grid3",
          "verified": true,
          "metadata": {
            "facility_level": "Primary",
            "facility_level_option": "Health Post",
            "ownership": "Public",
            "ownership_type": "Unknown"
          }
        },
        {
          "type": "health_facility",
          "name": "Dangwai Babba Health Post",
          "slug": "dangwai-babba-health-post-health-facility",
          "coordinates": {
            "lat": 12.1416924675,
            "lng": 5.98227600629
          },
          "source": "grid3",
          "verified": true,
          "metadata": {
            "facility_level": "Primary",
            "facility_level_option": "Health Post",
            "ownership": "Public",
            "ownership_type": "Unknown"
          }
        },
        {
          "type": "health_facility",
          "name": "Yarkurya Health Post",
          "slug": "yarkurya-health-post-health-facility-2",
          "coordinates": {
            "lat": 12.1302700001,
            "lng": 5.95599000002
          },
          "source": "grid3",
          "verified": true,
          "metadata": {
            "facility_level": "Primary",
            "facility_level_option": "Health Post",
            "ownership": "Public",
            "ownership_type": "Unknown"
          }
        },
        {
          "type": "health_facility",
          "name": "Mai Duma Health Post",
          "slug": "mai-duma-health-post-health-facility",
          "coordinates": {
            "lat": 12.0970419996,
            "lng": 5.73758799962
          },
          "source": "grid3",
          "verified": true,
          "metadata": {
            "facility_level": "Primary",
            "facility_level_option": "Health Post",
            "ownership": "Public",
            "ownership_type": "Unknown"
          }
        },
        {
          "type": "health_facility",
          "name": "Wanun Gwadebe Health Post",
          "slug": "wanun-gwadebe-health-post-health-facility",
          "coordinates": {
            "lat": 12.2089699996,
            "lng": 5.8376289996
          },
          "source": "grid3",
          "verified": true,
          "metadata": {
            "facility_level": "Primary",
            "facility_level_option": "Health Post",
            "ownership": "Public",
            "ownership_type": "Unknown"
          }
        },
        {
          "type": "health_facility",
          "name": "Matseri Health Center",
          "slug": "matseri-health-center-health-facility",
          "coordinates": {
            "lat": 12.1131220005,
            "lng": 5.84953399968
          },
          "source": "grid3",
          "verified": true,
          "metadata": {
            "facility_level": "Primary",
            "facility_level_option": "Primary Health Center",
            "ownership": "Public",
            "ownership_type": "Unknown"
          }
        },
        {
          "type": "health_facility",
          "name": "Inwala Hospital",
          "slug": "inwala-hospital-health-facility",
          "coordinates": {
            "lat": 12.2746570003,
            "lng": 5.85400199972
          },
          "source": "grid3",
          "verified": true,
          "metadata": {
            "facility_level": "Primary",
            "facility_level_option": "Primary Health Center",
            "ownership": "Public",
            "ownership_type": "Unknown"
          }
        },
        {
          "type": "health_facility",
          "name": "Dareta Health Post",
          "slug": "dareta-health-post-health-facility",
          "coordinates": {
            "lat": 12.0865400004,
            "lng": 5.8947400004
          },
          "source": "grid3",
          "verified": true,
          "metadata": {
            "facility_level": "Primary",
            "facility_level_option": "Health Post",
            "ownership": "Public",
            "ownership_type": "Unknown"
          }
        },
        {
          "type": "health_facility",
          "name": "Gargam Health Center",
          "slug": "gargam-health-center-health-facility",
          "coordinates": {
            "lat": 12.10359,
            "lng": 5.9110700005
          },
          "source": "grid3",
          "verified": true,
          "metadata": {
            "facility_level": "Primary",
            "facility_level_option": "Primary Health Center",
            "ownership": "Public",
            "ownership_type": "Unknown"
          }
        },
        {
          "type": "health_facility",
          "name": "Duza Primary Health Center",
          "slug": "duza-primary-health-center-health-facility",
          "coordinates": {
            "lat": 11.8993370002,
            "lng": 6.07949099993
          },
          "source": "grid3",
          "verified": true,
          "metadata": {
            "facility_level": "Primary",
            "facility_level_option": "Primary Health Center",
            "ownership": "Public",
            "ownership_type": "Unknown"
          }
        },
        {
          "type": "health_facility",
          "name": "Dandaura Health Post",
          "slug": "dandaura-health-post-health-facility",
          "coordinates": {
            "lat": 12.0361880002,
            "lng": 6.15861499969
          },
          "source": "grid3",
          "verified": true,
          "metadata": {
            "facility_level": "Primary",
            "facility_level_option": "Health Post",
            "ownership": "Public",
            "ownership_type": "Unknown"
          }
        },
        {
          "type": "health_facility",
          "name": "Dan Hanyi Health Post",
          "slug": "dan-hanyi-health-post-health-facility",
          "coordinates": {
            "lat": 11.6572489998,
            "lng": 6.24375399954
          },
          "source": "grid3",
          "verified": true,
          "metadata": {
            "facility_level": "Primary",
            "facility_level_option": "Health Post",
            "ownership": "Public",
            "ownership_type": "Unknown"
          }
        },
        {
          "type": "health_facility",
          "name": "Jankuka Clinic",
          "slug": "jankuka-clinic-health-facility",
          "coordinates": {
            "lat": 11.9613020003,
            "lng": 6.05782700021
          },
          "source": "grid3",
          "verified": true,
          "metadata": {
            "facility_level": "Primary",
            "facility_level_option": "Primary Health Center",
            "ownership": "Public",
            "ownership_type": "Unknown"
          }
        },
        {
          "type": "health_facility",
          "name": "Gobirawa Health Post",
          "slug": "gobirawa-health-post-health-facility",
          "coordinates": {
            "lat": 12.1088594479,
            "lng": 5.92827013017
          },
          "source": "grid3",
          "verified": true,
          "metadata": {
            "facility_level": "Primary",
            "facility_level_option": "Health Post",
            "ownership": "Public",
            "ownership_type": "Unknown"
          }
        },
        {
          "type": "health_facility",
          "name": "Barayar Zaki Health Post",
          "slug": "barayar-zaki-health-post-health-facility-2",
          "coordinates": {
            "lat": 12.137056,
            "lng": 5.731301
          },
          "source": "grid3",
          "verified": true,
          "metadata": {
            "facility_level": "Primary",
            "facility_level_option": "Health Post",
            "ownership": "Public",
            "ownership_type": "Unknown"
          }
        },
        {
          "type": "health_facility",
          "name": "Bardi Primary Health Clinic",
          "slug": "bardi-primary-health-clinic-health-facility",
          "coordinates": {
            "lat": 12.12827,
            "lng": 5.76617
          },
          "source": "grid3",
          "verified": true,
          "metadata": {
            "facility_level": "Primary",
            "facility_level_option": "Primary Health Clinic",
            "ownership": "Public",
            "ownership_type": "Local Government"
          }
        },
        {
          "type": "health_facility",
          "name": "Gadar Manya Primary Health Center",
          "slug": "gadar-manya-primary-health-center-health-facility",
          "coordinates": {
            "lat": 12.00652,
            "lng": 5.84376
          },
          "source": "grid3",
          "verified": true,
          "metadata": {
            "facility_level": "Primary",
            "facility_level_option": "Primary Health Center",
            "ownership": "Public",
            "ownership_type": "Local Government"
          }
        },
        {
          "type": "health_facility",
          "name": "Kirsa Primary Health Clinic",
          "slug": "kirsa-primary-health-clinic-health-facility",
          "coordinates": {
            "lat": 11.85653,
            "lng": 6.00714
          },
          "source": "grid3",
          "verified": true,
          "metadata": {
            "facility_level": "Primary",
            "facility_level_option": "Primary Health Clinic",
            "ownership": "Public",
            "ownership_type": "Local Government"
          }
        },
        {
          "type": "health_facility",
          "name": "Wanu Primary Health Clinic",
          "slug": "wanu-primary-health-clinic-health-facility",
          "coordinates": {
            "lat": 12.22764,
            "lng": 5.82957
          },
          "source": "grid3",
          "verified": true,
          "metadata": {
            "facility_level": "Primary",
            "facility_level_option": "Primary Health Clinic",
            "ownership": "Public",
            "ownership_type": "Local Government"
          }
        },
        {
          "type": "school",
          "name": "Tungar Dutsi Primary School",
          "slug": "tungar-dutsi-primary-school-school",
          "coordinates": {
            "lat": 12.2273647798607,
            "lng": 5.83080053291832
          },
          "source": "grid3",
          "verified": true,
          "metadata": {
            "category": "Primary",
            "management": "Public",
            "education": "Formal",
            "subtype": "Primary"
          }
        },
        {
          "type": "school",
          "name": "F Kasa Primary School",
          "slug": "f-kasa-primary-school-school",
          "coordinates": {
            "lat": 11.6283631310537,
            "lng": 6.14488720887766
          },
          "source": "grid3",
          "verified": true,
          "metadata": {
            "category": "Primary",
            "management": "Public",
            "education": "Formal",
            "subtype": "Primary"
          }
        },
        {
          "type": "school",
          "name": "Akuzo Primary School",
          "slug": "akuzo-primary-school-school",
          "coordinates": {
            "lat": 11.6472405213331,
            "lng": 6.18928849736631
          },
          "source": "grid3",
          "verified": true,
          "metadata": {
            "category": "Primary",
            "management": "Public",
            "education": "Formal",
            "subtype": "Primary"
          }
        },
        {
          "type": "school",
          "name": "Zanoka Primary School",
          "slug": "zanoka-primary-school-school",
          "coordinates": {
            "lat": 11.6494201722032,
            "lng": 6.1663824321036
          },
          "source": "grid3",
          "verified": true,
          "metadata": {
            "category": "Primary",
            "management": "Public",
            "education": "Formal",
            "subtype": "Primary"
          }
        },
        {
          "type": "school",
          "name": "Primary School Hayin Bawa",
          "slug": "primary-school-hayin-bawa-school",
          "coordinates": {
            "lat": 11.6567570006351,
            "lng": 6.24595284504778
          },
          "source": "grid3",
          "verified": true,
          "metadata": {
            "category": "Primary",
            "management": "Public",
            "education": "Formal",
            "subtype": "Primary"
          }
        },
        {
          "type": "school",
          "name": "Doka Primary School",
          "slug": "doka-primary-school-school-4",
          "coordinates": {
            "lat": 11.6976338613137,
            "lng": 6.14943623519417
          },
          "source": "grid3",
          "verified": true,
          "metadata": {
            "category": "Primary",
            "management": "Public",
            "education": "Formal",
            "subtype": "Primary"
          }
        },
        {
          "type": "school",
          "name": "Primary School Kulungu",
          "slug": "primary-school-kulungu-school",
          "coordinates": {
            "lat": 11.6994041210035,
            "lng": 6.08392596161389
          },
          "source": "grid3",
          "verified": true,
          "metadata": {
            "category": "Primary",
            "management": "Private",
            "education": "Formal",
            "subtype": "Primary"
          }
        },
        {
          "type": "school",
          "name": "Baude Primary School",
          "slug": "baude-primary-school-school",
          "coordinates": {
            "lat": 11.7199444809531,
            "lng": 6.10351681734727
          },
          "source": "grid3",
          "verified": true,
          "metadata": {
            "category": "Primary",
            "management": "Public",
            "education": "Formal",
            "subtype": "Primary"
          }
        },
        {
          "type": "school",
          "name": "D Saulawa Primary School",
          "slug": "d-saulawa-primary-school-school",
          "coordinates": {
            "lat": 11.7213124010465,
            "lng": 6.02438092174219
          },
          "source": "grid3",
          "verified": true,
          "metadata": {
            "category": "Primary",
            "management": "Public",
            "education": "Formal",
            "subtype": "Primary"
          }
        },
        {
          "type": "school",
          "name": "Bawa Daji Primary School",
          "slug": "bawa-daji-primary-school-school",
          "coordinates": {
            "lat": 11.7390395296506,
            "lng": 6.18216717977157
          },
          "source": "grid3",
          "verified": true,
          "metadata": {
            "category": "Primary",
            "management": "Public",
            "education": "Formal",
            "subtype": "Primary"
          }
        },
        {
          "type": "school",
          "name": "Gobirawa Primary School",
          "slug": "gobirawa-primary-school-school-5",
          "coordinates": {
            "lat": 11.79545716002,
            "lng": 6.13063653015178
          },
          "source": "grid3",
          "verified": true,
          "metadata": {
            "category": "Primary",
            "management": "Public",
            "education": "Formal",
            "subtype": "Primary"
          }
        },
        {
          "type": "school",
          "name": "Kawai Model Primary School",
          "slug": "kawai-model-primary-school-school",
          "coordinates": {
            "lat": 11.8228876614365,
            "lng": 6.03329122111302
          },
          "source": "grid3",
          "verified": true,
          "metadata": {
            "category": "Primary",
            "management": "Public",
            "education": "Formal",
            "subtype": "Primary"
          }
        },
        {
          "type": "school",
          "name": "Model Primary School Tubuki",
          "slug": "model-primary-school-tubuki-school",
          "coordinates": {
            "lat": 11.8536096806423,
            "lng": 6.02769613307015
          },
          "source": "grid3",
          "verified": true,
          "metadata": {
            "category": "Primary",
            "management": "Public",
            "education": "Formal",
            "subtype": "Primary"
          }
        },
        {
          "type": "school",
          "name": "Model Primary School",
          "slug": "model-primary-school-school-13",
          "coordinates": {
            "lat": 11.8650519807643,
            "lng": 6.00638866400567
          },
          "source": "grid3",
          "verified": true,
          "metadata": {
            "category": "Primary",
            "management": "Public",
            "education": "Formal",
            "subtype": "Primary"
          }
        },
        {
          "type": "school",
          "name": "Mallamawa Primary School",
          "slug": "mallamawa-primary-school-school-4",
          "coordinates": {
            "lat": 11.8696010106781,
            "lng": 6.02792680287968
          },
          "source": "grid3",
          "verified": true,
          "metadata": {
            "category": "Primary",
            "management": "Public",
            "education": "Formal",
            "subtype": "Primary"
          }
        },
        {
          "type": "school",
          "name": "Primary School Sunke",
          "slug": "primary-school-sunke-school",
          "coordinates": {
            "lat": 11.8964982006315,
            "lng": 5.91313362091989
          },
          "source": "grid3",
          "verified": true,
          "metadata": {
            "category": "Primary",
            "management": "Public",
            "education": "Formal",
            "subtype": "Primary"
          }
        },
        {
          "type": "school",
          "name": "Kasumbka Primary School",
          "slug": "kasumbka-primary-school-school",
          "coordinates": {
            "lat": 11.8965947608396,
            "lng": 5.91296732368306
          },
          "source": "grid3",
          "verified": true,
          "metadata": {
            "category": "Primary",
            "management": "Public",
            "education": "Formal",
            "subtype": "Primary"
          }
        },
        {
          "type": "school",
          "name": "Tunga Mata Primary School",
          "slug": "tunga-mata-primary-school-school",
          "coordinates": {
            "lat": 11.9012993608769,
            "lng": 6.02437019283019
          },
          "source": "grid3",
          "verified": true,
          "metadata": {
            "category": "Primary",
            "management": "Public",
            "education": "Formal",
            "subtype": "Primary"
          }
        },
        {
          "type": "school",
          "name": "Tungar Daji Primary School",
          "slug": "tungar-daji-primary-school-school",
          "coordinates": {
            "lat": 11.9049418004238,
            "lng": 6.09029352682484
          },
          "source": "grid3",
          "verified": true,
          "metadata": {
            "category": "Primary",
            "management": "Public",
            "education": "Formal",
            "subtype": "Primary"
          }
        },
        {
          "type": "school",
          "name": "Primary School Makakari",
          "slug": "primary-school-makakari-school",
          "coordinates": {
            "lat": 11.923937199742,
            "lng": 5.89833855557993
          },
          "source": "grid3",
          "verified": true,
          "metadata": {
            "category": "Primary",
            "management": "Public",
            "education": "Formal",
            "subtype": "Primary"
          }
        },
        {
          "type": "school",
          "name": "Kirsa Primary School",
          "slug": "kirsa-primary-school-school",
          "coordinates": {
            "lat": 11.9323110598076,
            "lng": 5.90443253533329
          },
          "source": "grid3",
          "verified": true,
          "metadata": {
            "category": "Primary",
            "management": "Public",
            "education": "Formal",
            "subtype": "Primary"
          }
        },
        {
          "type": "school",
          "name": "Tuntuja Primary School",
          "slug": "tuntuja-primary-school-school",
          "coordinates": {
            "lat": 11.9485330605523,
            "lng": 6.07361018736032
          },
          "source": "grid3",
          "verified": true,
          "metadata": {
            "category": "Primary",
            "management": "Public",
            "education": "Formal",
            "subtype": "Primary"
          }
        },
        {
          "type": "school",
          "name": "Jarkuka Primary School",
          "slug": "jarkuka-primary-school-school",
          "coordinates": {
            "lat": 11.9605869095583,
            "lng": 6.05765104316117
          },
          "source": "grid3",
          "verified": true,
          "metadata": {
            "category": "Primary",
            "management": "Public",
            "education": "Formal",
            "subtype": "Primary"
          }
        },
        {
          "type": "school",
          "name": "Primary School Tamani",
          "slug": "primary-school-tamani-school",
          "coordinates": {
            "lat": 11.9727051302376,
            "lng": 5.92962920712228
          },
          "source": "grid3",
          "verified": true,
          "metadata": {
            "category": "Primary",
            "management": "Public",
            "education": "Formal",
            "subtype": "Primary"
          }
        },
        {
          "type": "school",
          "name": "Gargam Primary School",
          "slug": "gargam-primary-school-school",
          "coordinates": {
            "lat": 11.9900536505556,
            "lng": 5.89806497102165
          },
          "source": "grid3",
          "verified": true,
          "metadata": {
            "category": "Primary",
            "management": "Public",
            "education": "Formal",
            "subtype": "Primary"
          }
        },
        {
          "type": "school",
          "name": "Tangaram Primary School",
          "slug": "tangaram-primary-school-school",
          "coordinates": {
            "lat": 11.9982880410603,
            "lng": 6.04615509488178
          },
          "source": "grid3",
          "verified": true,
          "metadata": {
            "category": "Primary",
            "management": "Public",
            "education": "Formal",
            "subtype": "Primary"
          }
        },
        {
          "type": "school",
          "name": "Staff Primary School",
          "slug": "staff-primary-school-school",
          "coordinates": {
            "lat": 12.020191966586,
            "lng": 6.06697243612905
          },
          "source": "grid3",
          "verified": true,
          "metadata": {
            "category": "Primary",
            "management": "Public",
            "education": "Formal",
            "subtype": "Primary"
          }
        },
        {
          "type": "school",
          "name": "Tarin Jaya Primary School",
          "slug": "tarin-jaya-primary-school-school",
          "coordinates": {
            "lat": 12.020871631021,
            "lng": 5.88678118990003
          },
          "source": "grid3",
          "verified": true,
          "metadata": {
            "category": "Primary",
            "management": "Public",
            "education": "Formal",
            "subtype": "Primary"
          }
        },
        {
          "type": "school",
          "name": "Primary School Dareta",
          "slug": "primary-school-dareta-school",
          "coordinates": {
            "lat": 12.0324852510935,
            "lng": 5.95378995973891
          },
          "source": "grid3",
          "verified": true,
          "metadata": {
            "category": "Primary",
            "management": "Public",
            "education": "Formal",
            "subtype": "Primary"
          }
        },
        {
          "type": "school",
          "name": "Dandaura Primary School",
          "slug": "dandaura-primary-school-school-2",
          "coordinates": {
            "lat": 12.0361661897179,
            "lng": 6.15876495763672
          },
          "source": "grid3",
          "verified": true,
          "metadata": {
            "category": "Primary",
            "management": "Public",
            "education": "Formal",
            "subtype": "Primary"
          }
        },
        {
          "type": "school",
          "name": "Tunga Adaka Primary School",
          "slug": "tunga-adaka-primary-school-school",
          "coordinates": {
            "lat": 12.0429027206841,
            "lng": 5.9200458002735
          },
          "source": "grid3",
          "verified": true,
          "metadata": {
            "category": "Primary",
            "management": "Public",
            "education": "Formal",
            "subtype": "Primary"
          }
        },
        {
          "type": "school",
          "name": "Doka Primary School",
          "slug": "doka-primary-school-school-5",
          "coordinates": {
            "lat": 12.0489335113725,
            "lng": 6.11951351183916
          },
          "source": "grid3",
          "verified": true,
          "metadata": {
            "category": "Primary",
            "management": "Public",
            "education": "Formal",
            "subtype": "Primary"
          }
        },
        {
          "type": "school",
          "name": "Matseri Primary School",
          "slug": "matseri-primary-school-school-4",
          "coordinates": {
            "lat": 12.0532777809449,
            "lng": 5.74638799021363
          },
          "source": "grid3",
          "verified": true,
          "metadata": {
            "category": "Primary",
            "management": "Public",
            "education": "Formal",
            "subtype": "Primary"
          }
        },
        {
          "type": "school",
          "name": "Inwala Primary School",
          "slug": "inwala-primary-school-school-3",
          "coordinates": {
            "lat": 12.0593404813782,
            "lng": 5.87291121488073
          },
          "source": "grid3",
          "verified": true,
          "metadata": {
            "category": "Primary",
            "management": "Public",
            "education": "Formal",
            "subtype": "Primary"
          }
        },
        {
          "type": "school",
          "name": "Model Primary School Gigib",
          "slug": "model-primary-school-gigib-school",
          "coordinates": {
            "lat": 12.0601666309853,
            "lng": 5.93383171026528
          },
          "source": "grid3",
          "verified": true,
          "metadata": {
            "category": "Primary",
            "management": "Public",
            "education": "Formal",
            "subtype": "Primary"
          }
        },
        {
          "type": "school",
          "name": "Mayangali Primary School",
          "slug": "mayangali-primary-school-school",
          "coordinates": {
            "lat": 12.0637049200461,
            "lng": 5.80864689983463
          },
          "source": "grid3",
          "verified": true,
          "metadata": {
            "category": "Primary",
            "management": "Public",
            "education": "Formal",
            "subtype": "Primary"
          }
        },
        {
          "type": "school",
          "name": "Sabon Garin Wuya Primary School",
          "slug": "sabon-garin-wuya-primary-school-school",
          "coordinates": {
            "lat": 12.0669847709305,
            "lng": 6.09962225016676
          },
          "source": "grid3",
          "verified": true,
          "metadata": {
            "category": "Primary",
            "management": "Public",
            "education": "Formal",
            "subtype": "Primary"
          }
        },
        {
          "type": "school",
          "name": "Wuya Model Primary School",
          "slug": "wuya-model-primary-school-school",
          "coordinates": {
            "lat": 12.0718342103805,
            "lng": 6.09445095055099
          },
          "source": "grid3",
          "verified": true,
          "metadata": {
            "category": "Primary",
            "management": "Public",
            "education": "Formal",
            "subtype": "Primary"
          }
        },
        {
          "type": "school",
          "name": "Model Primary School Tungar Liman",
          "slug": "model-primary-school-tungar-liman-school",
          "coordinates": {
            "lat": 12.0718427107726,
            "lng": 5.92484724020801
          },
          "source": "grid3",
          "verified": true,
          "metadata": {
            "category": "Primary",
            "management": "Public",
            "education": "Formal",
            "subtype": "Primary"
          }
        },
        {
          "type": "school",
          "name": "Primary School Abare",
          "slug": "primary-school-abare-school",
          "coordinates": {
            "lat": 12.0781648809046,
            "lng": 5.95502222969219
          },
          "source": "grid3",
          "verified": true,
          "metadata": {
            "category": "Primary",
            "management": "Public",
            "education": "Formal",
            "subtype": "Primary"
          }
        },
        {
          "type": "school",
          "name": "UBE Primary School",
          "slug": "ube-primary-school-school-4",
          "coordinates": {
            "lat": 12.0878982110337,
            "lng": 6.0916175096404
          },
          "source": "grid3",
          "verified": true,
          "metadata": {
            "category": "Primary",
            "management": "Public",
            "education": "Formal",
            "subtype": "Primary"
          }
        },
        {
          "type": "school",
          "name": "Birnin Doki Primary School",
          "slug": "birnin-doki-primary-school-school",
          "coordinates": {
            "lat": 12.09337457058,
            "lng": 6.04283197041917
          },
          "source": "grid3",
          "verified": true,
          "metadata": {
            "category": "Primary",
            "management": "Public",
            "education": "Formal",
            "subtype": "Primary"
          }
        },
        {
          "type": "school",
          "name": "Girkau Primary School",
          "slug": "girkau-primary-school-school",
          "coordinates": {
            "lat": 12.0940375310073,
            "lng": 5.8169013263352
          },
          "source": "grid3",
          "verified": true,
          "metadata": {
            "category": "Primary",
            "management": "Public",
            "education": "Formal",
            "subtype": "Primary"
          }
        },
        {
          "type": "school",
          "name": "Maiduma Primary School",
          "slug": "maiduma-primary-school-school",
          "coordinates": {
            "lat": 12.0967387203157,
            "lng": 5.73765698957845
          },
          "source": "grid3",
          "verified": true,
          "metadata": {
            "category": "Primary",
            "management": "Public",
            "education": "Formal",
            "subtype": "Primary"
          }
        },
        {
          "type": "school",
          "name": "Baba Baye Primary School",
          "slug": "baba-baye-primary-school-school",
          "coordinates": {
            "lat": 12.0972850800425,
            "lng": 5.73081640974954
          },
          "source": "grid3",
          "verified": true,
          "metadata": {
            "category": "Primary",
            "management": "Public",
            "education": "Formal",
            "subtype": "Primary"
          }
        },
        {
          "type": "school",
          "name": "Kanfani Nomadic Primary School",
          "slug": "kanfani-nomadic-primary-school-school",
          "coordinates": {
            "lat": 12.1019929599072,
            "lng": 5.98885774588831
          },
          "source": "grid3",
          "verified": true,
          "metadata": {
            "category": "Primary",
            "management": "Public",
            "education": "Formal",
            "subtype": "Primary"
          }
        },
        {
          "type": "school",
          "name": "Secretarait Primary School",
          "slug": "secretarait-primary-school-school",
          "coordinates": {
            "lat": 12.1053105814182,
            "lng": 5.93284033001726
          },
          "source": "grid3",
          "verified": true,
          "metadata": {
            "category": "Primary",
            "management": "Public",
            "education": "Formal",
            "subtype": "Primary"
          }
        },
        {
          "type": "school",
          "name": "Focal Primary School",
          "slug": "focal-primary-school-school",
          "coordinates": {
            "lat": 12.1093668503,
            "lng": 5.92372424957449
          },
          "source": "grid3",
          "verified": true,
          "metadata": {
            "category": "Primary",
            "management": "Public",
            "education": "Formal",
            "subtype": "Primary"
          }
        },
        {
          "type": "school",
          "name": "Nizamiya Islamiya Model Primary School",
          "slug": "nizamiya-islamiya-model-primary-school-school",
          "coordinates": {
            "lat": 12.1102662406945,
            "lng": 5.93723890964799
          },
          "source": "grid3",
          "verified": true,
          "metadata": {
            "category": "Primary",
            "management": "Public",
            "education": "Formal",
            "subtype": "Primary"
          }
        },
        {
          "type": "school",
          "name": "CFI Primary School",
          "slug": "cfi-primary-school-school",
          "coordinates": {
            "lat": 12.1122713502427,
            "lng": 5.93205357970896
          },
          "source": "grid3",
          "verified": true,
          "metadata": {
            "category": "Primary",
            "management": "Public",
            "education": "Formal",
            "subtype": "Primary"
          }
        },
        {
          "type": "school",
          "name": "Gima Primary School",
          "slug": "gima-primary-school-school",
          "coordinates": {
            "lat": 12.1130490299888,
            "lng": 5.84964573376362
          },
          "source": "grid3",
          "verified": true,
          "metadata": {
            "category": "Primary",
            "management": "Public",
            "education": "Formal",
            "subtype": "Primary"
          }
        },
        {
          "type": "school",
          "name": "Abu Anka 1 Nizamiya Primary School",
          "slug": "abu-anka-1-nizamiya-primary-school-school",
          "coordinates": {
            "lat": 12.1187812295701,
            "lng": 5.92358912014186
          },
          "source": "grid3",
          "verified": true,
          "metadata": {
            "category": "Primary",
            "management": "Public",
            "education": "Formal",
            "subtype": "Primary"
          }
        },
        {
          "type": "school",
          "name": "Tumba Primary School",
          "slug": "tumba-primary-school-school",
          "coordinates": {
            "lat": 12.1269536010279,
            "lng": 5.74909508177268
          },
          "source": "grid3",
          "verified": true,
          "metadata": {
            "category": "Primary",
            "management": "Public",
            "education": "Formal",
            "subtype": "Primary"
          }
        },
        {
          "type": "school",
          "name": "Moda Primary School",
          "slug": "moda-primary-school-school-2",
          "coordinates": {
            "lat": 12.1272690103566,
            "lng": 5.84377296025394
          },
          "source": "grid3",
          "verified": true,
          "metadata": {
            "category": "Primary",
            "management": "Public",
            "education": "Formal",
            "subtype": "Primary"
          }
        },
        {
          "type": "school",
          "name": "Model Primary School",
          "slug": "model-primary-school-school-15",
          "coordinates": {
            "lat": 12.1303414209199,
            "lng": 5.95609877034201
          },
          "source": "grid3",
          "verified": true,
          "metadata": {
            "category": "Primary",
            "management": "Public",
            "education": "Formal",
            "subtype": "Primary"
          }
        },
        {
          "type": "school",
          "name": "Model Primary School",
          "slug": "model-primary-school-school-16",
          "coordinates": {
            "lat": 12.1326599208188,
            "lng": 5.76423761007771
          },
          "source": "grid3",
          "verified": true,
          "metadata": {
            "category": "Primary",
            "management": "Public",
            "education": "Formal",
            "subtype": "Primary"
          }
        },
        {
          "type": "school",
          "name": "Waramu Model Primary School",
          "slug": "waramu-model-primary-school-school",
          "coordinates": {
            "lat": 12.1343146706856,
            "lng": 5.82044413988518
          },
          "source": "grid3",
          "verified": true,
          "metadata": {
            "category": "Primary",
            "management": "Public",
            "education": "Formal",
            "subtype": "Primary"
          }
        },
        {
          "type": "school",
          "name": "Mallamawa Model Primary School",
          "slug": "mallamawa-model-primary-school-school",
          "coordinates": {
            "lat": 12.1348929410564,
            "lng": 5.78741312031929
          },
          "source": "grid3",
          "verified": true,
          "metadata": {
            "category": "Primary",
            "management": "Public",
            "education": "Formal",
            "subtype": "Primary"
          }
        },
        {
          "type": "school",
          "name": "Birni Tudu Primary School",
          "slug": "birni-tudu-primary-school-school",
          "coordinates": {
            "lat": 12.1356278697305,
            "lng": 5.86736440694187
          },
          "source": "grid3",
          "verified": true,
          "metadata": {
            "category": "Primary",
            "management": "Public",
            "education": "Formal",
            "subtype": "Primary"
          }
        },
        {
          "type": "school",
          "name": "Bardi Primary School",
          "slug": "bardi-primary-school-school",
          "coordinates": {
            "lat": 12.1365827312081,
            "lng": 5.7317411898041
          },
          "source": "grid3",
          "verified": true,
          "metadata": {
            "category": "Primary",
            "management": "Public",
            "education": "Formal",
            "subtype": "Primary"
          }
        },
        {
          "type": "school",
          "name": "Kada Daba Primary School",
          "slug": "kada-daba-primary-school-school",
          "coordinates": {
            "lat": 12.142066481383,
            "lng": 5.87447552982189
          },
          "source": "grid3",
          "verified": true,
          "metadata": {
            "category": "Primary",
            "management": "Public",
            "education": "Formal",
            "subtype": "Primary"
          }
        },
        {
          "type": "school",
          "name": "Rafin Yakurya Primary School",
          "slug": "rafin-yakurya-primary-school-school",
          "coordinates": {
            "lat": 12.1446449411112,
            "lng": 5.98912492007906
          },
          "source": "grid3",
          "verified": true,
          "metadata": {
            "category": "Primary",
            "management": "Public",
            "education": "Formal",
            "subtype": "Primary"
          }
        },
        {
          "type": "school",
          "name": "Jargaba Primary School",
          "slug": "jargaba-primary-school-school-3",
          "coordinates": {
            "lat": 12.1452142632277,
            "lng": 6.03458249378713
          },
          "source": "grid3",
          "verified": true,
          "metadata": {
            "category": "Primary",
            "management": "Public",
            "education": "Formal",
            "subtype": "Primary"
          }
        },
        {
          "type": "school",
          "name": "Baban Baye Primary School",
          "slug": "baban-baye-primary-school-school",
          "coordinates": {
            "lat": 12.1702936400395,
            "lng": 5.87001113960247
          },
          "source": "grid3",
          "verified": true,
          "metadata": {
            "category": "Primary",
            "management": "Public",
            "education": "Formal",
            "subtype": "Primary"
          }
        },
        {
          "type": "school",
          "name": "Dutsen Dan Ajiya Primary School",
          "slug": "dutsen-dan-ajiya-primary-school-school",
          "coordinates": {
            "lat": 12.1842294903987,
            "lng": 5.76264023785671
          },
          "source": "grid3",
          "verified": true,
          "metadata": {
            "category": "Primary",
            "management": "Public",
            "education": "Formal",
            "subtype": "Primary"
          }
        },
        {
          "type": "school",
          "name": "Shabli Kware Primary School",
          "slug": "shabli-kware-primary-school-school",
          "coordinates": {
            "lat": 12.2097426713872,
            "lng": 5.80119430976964
          },
          "source": "grid3",
          "verified": true,
          "metadata": {
            "category": "Primary",
            "management": "Public",
            "education": "Formal",
            "subtype": "Primary"
          }
        },
        {
          "type": "school",
          "name": "Nwanu Mai Kudi Primary School",
          "slug": "nwanu-mai-kudi-primary-school-school",
          "coordinates": {
            "lat": 12.2098891008014,
            "lng": 5.83616588015127
          },
          "source": "grid3",
          "verified": true,
          "metadata": {
            "category": "Primary",
            "management": "Public",
            "education": "Formal",
            "subtype": "Primary"
          }
        },
        {
          "type": "school",
          "name": "Primary School Tunga Nagodai",
          "slug": "primary-school-tunga-nagodai-school",
          "coordinates": {
            "lat": 12.228550311148,
            "lng": 5.76880931909483
          },
          "source": "grid3",
          "verified": true,
          "metadata": {
            "category": "Primary",
            "management": "Public",
            "education": "Formal",
            "subtype": "Primary"
          }
        },
        {
          "type": "school",
          "name": "Rafin Gero Model Primary School",
          "slug": "rafin-gero-model-primary-school-school",
          "coordinates": {
            "lat": 12.229521269591,
            "lng": 5.77829897431826
          },
          "source": "grid3",
          "verified": true,
          "metadata": {
            "category": "Primary",
            "management": "Public",
            "education": "Formal",
            "subtype": "Primary"
          }
        },
        {
          "type": "school",
          "name": "Shabli Primary School",
          "slug": "shabli-primary-school-school",
          "coordinates": {
            "lat": 12.2315007412662,
            "lng": 5.80487430140795
          },
          "source": "grid3",
          "verified": true,
          "metadata": {
            "category": "Primary",
            "management": "Public",
            "education": "Formal",
            "subtype": "Primary"
          }
        },
        {
          "type": "school",
          "name": "Tungar Tsaka Primary School",
          "slug": "tungar-tsaka-primary-school-school",
          "coordinates": {
            "lat": 12.2322785900849,
            "lng": 5.78713953486169
          },
          "source": "grid3",
          "verified": true,
          "metadata": {
            "category": "Primary",
            "management": "Public",
            "education": "Formal",
            "subtype": "Primary"
          }
        },
        {
          "type": "school",
          "name": "Primary School Lallaho",
          "slug": "primary-school-lallaho-school",
          "coordinates": {
            "lat": 12.2426909209493,
            "lng": 5.86453735841241
          },
          "source": "grid3",
          "verified": true,
          "metadata": {
            "category": "Primary",
            "management": "Public",
            "education": "Formal",
            "subtype": "Primary"
          }
        },
        {
          "type": "school",
          "name": "Tsangaya Nursery and Primary School",
          "slug": "tsangaya-nursery-and-primary-school-school",
          "coordinates": {
            "lat": 12.1128661600453,
            "lng": 5.92308278024615
          },
          "source": "grid3",
          "verified": true,
          "metadata": {
            "category": "Primary",
            "management": "Public",
            "education": "Religious",
            "subtype": "Standard"
          }
        },
        {
          "type": "school",
          "name": "Anked Community Primary School",
          "slug": "anked-community-primary-school-school",
          "coordinates": {
            "lat": 12.1129309606953,
            "lng": 5.92652235971917
          },
          "source": "grid3",
          "verified": true,
          "metadata": {
            "category": "Primary",
            "management": "Public",
            "education": "Formal",
            "subtype": "Standard"
          }
        },
        {
          "type": "school",
          "name": "Anka Township Model Primary School",
          "slug": "anka-township-model-primary-school-school",
          "coordinates": {
            "lat": 12.1157252109498,
            "lng": 5.92304615985245
          },
          "source": "grid3",
          "verified": true,
          "metadata": {
            "category": "Primary",
            "management": "Public",
            "education": "Formal",
            "subtype": "Standard"
          }
        },
        {
          "type": "school",
          "name": "Model Primary School Chiaja",
          "slug": "model-primary-school-chiaja-school",
          "coordinates": {
            "lat": 12.1160042696814,
            "lng": 5.92320353041862
          },
          "source": "grid3",
          "verified": true,
          "metadata": {
            "category": "Primary",
            "management": "Public",
            "education": "Formal",
            "subtype": "Standard"
          }
        },
        {
          "type": "school",
          "name": "Ahmad Barmo Primary School",
          "slug": "ahmad-barmo-primary-school-school",
          "coordinates": {
            "lat": 12.1175978413673,
            "lng": 5.92421644043645
          },
          "source": "grid3",
          "verified": true,
          "metadata": {
            "category": "Primary",
            "management": "Public",
            "education": "Formal",
            "subtype": "Standard"
          }
        },
        {
          "type": "school",
          "name": "Olubanjo Nursery and Primary School",
          "slug": "olubanjo-nursery-and-primary-school-school",
          "coordinates": {
            "lat": 12.1065902600325,
            "lng": 5.92568811981096
          },
          "source": "grid3",
          "verified": true,
          "metadata": {
            "category": "Primary",
            "management": "Private",
            "education": "Formal",
            "subtype": "Standard"
          }
        },
        {
          "type": "school",
          "name": "Bright Future Nursery and Primary School",
          "slug": "bright-future-nursery-and-primary-school-school-6",
          "coordinates": {
            "lat": 12.1088908499328,
            "lng": 5.92719881986972
          },
          "source": "grid3",
          "verified": true,
          "metadata": {
            "category": "Primary",
            "management": "Private",
            "education": "Formal",
            "subtype": "Standard"
          }
        },
        {
          "type": "school",
          "name": "Kwanar Maje Primary School",
          "slug": "kwanar-maje-primary-school-school-2",
          "coordinates": {
            "lat": 12.0593537769553,
            "lng": 5.87333093927145
          },
          "source": "grid3",
          "verified": true,
          "metadata": {
            "category": "Primary",
            "management": "Public",
            "education": "Formal",
            "subtype": "Primary"
          }
        },
        {
          "type": "school",
          "name": "Primary School Lallaho Lallaho",
          "slug": "primary-school-lallaho-lallaho-school",
          "coordinates": {
            "lat": 12.277500000025,
            "lng": 5.85472000012794
          },
          "source": "grid3",
          "verified": true,
          "metadata": {
            "category": "Primary",
            "management": "Public",
            "education": "Formal",
            "subtype": "Primary"
          }
        },
        {
          "type": "school",
          "name": "Primary School Manya Manya Galli",
          "slug": "primary-school-manya-manya-galli-school",
          "coordinates": {
            "lat": 12.0678699997007,
            "lng": 5.80082999980471
          },
          "source": "grid3",
          "verified": true,
          "metadata": {
            "category": "Primary",
            "management": "Public",
            "education": "Formal",
            "subtype": "Primary"
          }
        },
        {
          "type": "school",
          "name": "Primary School Guwa Guwa",
          "slug": "primary-school-guwa-guwa-school",
          "coordinates": {
            "lat": 12.0618099999316,
            "lng": 5.91163999988612
          },
          "source": "grid3",
          "verified": true,
          "metadata": {
            "category": "Primary",
            "management": "Public",
            "education": "Formal",
            "subtype": "Primary"
          }
        },
        {
          "type": "school",
          "name": "Primary School Tungar Kudaku",
          "slug": "primary-school-tungar-kudaku-school",
          "coordinates": {
            "lat": 11.9454700002404,
            "lng": 5.96764000038576
          },
          "source": "grid3",
          "verified": true,
          "metadata": {
            "category": "Primary",
            "management": "Public",
            "education": "Formal",
            "subtype": "Primary"
          }
        },
        {
          "type": "school",
          "name": "Indalumu Primary School Indalumu",
          "slug": "indalumu-primary-school-indalumu-school",
          "coordinates": {
            "lat": 12.0023499999526,
            "lng": 6.14902999973475
          },
          "source": "grid3",
          "verified": true,
          "metadata": {
            "category": "Primary",
            "management": "Public",
            "education": "Formal",
            "subtype": "Primary"
          }
        },
        {
          "type": "school",
          "name": "Primary School Dawon Jiya",
          "slug": "primary-school-dawon-jiya-school",
          "coordinates": {
            "lat": 11.8207000003048,
            "lng": 6.1111100002264
          },
          "source": "grid3",
          "verified": true,
          "metadata": {
            "category": "Primary",
            "management": "Public",
            "education": "Formal",
            "subtype": "Primary"
          }
        },
        {
          "type": "school",
          "name": "Gidan Kare Primary School Gidan Kare",
          "slug": "gidan-kare-primary-school-gidan-kare-school",
          "coordinates": {
            "lat": 12.0892099999416,
            "lng": 5.9999999998002
          },
          "source": "grid3",
          "verified": true,
          "metadata": {
            "category": "Primary",
            "management": "Public",
            "education": "Formal",
            "subtype": "Primary"
          }
        },
        {
          "type": "school",
          "name": "Primary School Tsabta",
          "slug": "primary-school-tsabta-school",
          "coordinates": {
            "lat": 12.0222399998761,
            "lng": 6.06688000021188
          },
          "source": "grid3",
          "verified": true,
          "metadata": {
            "category": "Primary",
            "management": "Public",
            "education": "Formal",
            "subtype": "Primary"
          }
        },
        {
          "type": "school",
          "name": "Government Day Secondary School",
          "slug": "government-day-secondary-school-school-30",
          "coordinates": {
            "lat": 11.8668544307874,
            "lng": 5.99963486155968
          },
          "source": "grid3",
          "verified": true,
          "metadata": {
            "category": "Secondary",
            "management": "Public",
            "education": "Formal",
            "subtype": "Standard"
          }
        },
        {
          "type": "school",
          "name": "Government Day Secondary School Wuya",
          "slug": "government-day-secondary-school-wuya-school",
          "coordinates": {
            "lat": 12.072295550899,
            "lng": 6.09456360322775
          },
          "source": "grid3",
          "verified": true,
          "metadata": {
            "category": "Secondary",
            "management": "Public",
            "education": "Formal",
            "subtype": "Standard"
          }
        },
        {
          "type": "school",
          "name": "Federal Government College Anka",
          "slug": "federal-government-college-anka-school",
          "coordinates": {
            "lat": 12.1031754343988,
            "lng": 5.91116593396072
          },
          "source": "grid3",
          "verified": true,
          "metadata": {
            "category": "Secondary",
            "management": "Public",
            "education": "Formal",
            "subtype": "Standard"
          }
        },
        {
          "type": "school",
          "name": "Government Girls Day Secondary School",
          "slug": "government-girls-day-secondary-school-school-6",
          "coordinates": {
            "lat": 12.105524320591,
            "lng": 5.93024133966617
          },
          "source": "grid3",
          "verified": true,
          "metadata": {
            "category": "Secondary",
            "management": "Public",
            "education": "Formal",
            "subtype": "Aggregate"
          }
        },
        {
          "type": "school",
          "name": "Government Secondary School",
          "slug": "government-secondary-school-school-24",
          "coordinates": {
            "lat": 12.1110292210218,
            "lng": 5.94849256977631
          },
          "source": "grid3",
          "verified": true,
          "metadata": {
            "category": "Secondary",
            "management": "Public",
            "education": "Formal",
            "subtype": "Standard"
          }
        },
        {
          "type": "school",
          "name": "Government Day Secondary School Waramu",
          "slug": "government-day-secondary-school-waramu-school",
          "coordinates": {
            "lat": 12.1344208707267,
            "lng": 5.8221262687124
          },
          "source": "grid3",
          "verified": true,
          "metadata": {
            "category": "Secondary",
            "management": "Public",
            "education": "Formal",
            "subtype": "Standard"
          }
        },
        {
          "type": "school",
          "name": "Anka JNI",
          "slug": "anka-jni-school",
          "coordinates": {
            "lat": 12.1134460312094,
            "lng": 5.92340265021221
          },
          "source": "grid3",
          "verified": true,
          "metadata": {
            "category": "Primary",
            "management": "Public",
            "education": "Formal",
            "subtype": "Standard"
          }
        },
        {
          "type": "school",
          "name": "Federal Government College Staff School",
          "slug": "federal-government-college-staff-school-school",
          "coordinates": {
            "lat": 12.1030103548441,
            "lng": 5.91131493004002
          },
          "source": "grid3",
          "verified": true,
          "metadata": {
            "category": "Primary",
            "management": "Private",
            "education": "Formal",
            "subtype": "Standard"
          }
        },
        {
          "type": "school",
          "name": "Yarmatankari Primary School",
          "slug": "yarmatankari-primary-school-school",
          "coordinates": {
            "lat": 12.0835500995575,
            "lng": 6.06064438802815
          },
          "source": "grid3",
          "verified": true,
          "metadata": {
            "category": "Primary",
            "management": "Public",
            "education": "Formal",
            "subtype": "Primary"
          }
        },
        {
          "type": "school",
          "name": "Government Day Junior Secondary School",
          "slug": "government-day-junior-secondary-school-school-26",
          "coordinates": {
            "lat": 11.6833055000488,
            "lng": 6.02015912544334
          },
          "source": "grid3",
          "verified": true,
          "metadata": {
            "category": "Secondary",
            "management": "Public",
            "education": "Religious",
            "subtype": "Junior"
          }
        },
        {
          "type": "school",
          "name": "Kulliya Secondary School",
          "slug": "kulliya-secondary-school-school",
          "coordinates": {
            "lat": 12.1130156111815,
            "lng": 5.92292971023801
          },
          "source": "grid3",
          "verified": true,
          "metadata": {
            "category": "Secondary",
            "management": "Private",
            "education": "Formal",
            "subtype": "Junior"
          }
        },
        {
          "type": "school",
          "name": "Junior Secondary School Bayar Zaki",
          "slug": "junior-secondary-school-bayar-zaki-school",
          "coordinates": {
            "lat": 12.1323770309752,
            "lng": 5.76431930089507
          },
          "source": "grid3",
          "verified": true,
          "metadata": {
            "category": "Secondary",
            "management": "Public",
            "education": "Formal",
            "subtype": "Junior"
          }
        },
        {
          "type": "mosque",
          "name": "Tungar Tsaka Juma'at Mosque",
          "slug": "tungar-tsaka-juma-at-mosque-mosque",
          "coordinates": {
            "lat": 12.2324494936493,
            "lng": 5.78696455197252
          },
          "source": "grid3",
          "verified": true
        },
        {
          "type": "mosque",
          "name": "Kwanar Maje Juma'at Mosque",
          "slug": "kwanar-maje-juma-at-mosque-mosque",
          "coordinates": {
            "lat": 12.0582225287467,
            "lng": 5.87203684992073
          },
          "source": "grid3",
          "verified": true
        },
        {
          "type": "mosque",
          "name": "Tarin Jaya Juma'at Mosque",
          "slug": "tarin-jaya-juma-at-mosque-mosque",
          "coordinates": {
            "lat": 12.0197907007803,
            "lng": 5.88829264359066
          },
          "source": "grid3",
          "verified": true
        },
        {
          "type": "mosque",
          "name": "Gar Gam Juma'at Mosque",
          "slug": "gar-gam-juma-at-mosque-mosque",
          "coordinates": {
            "lat": 11.9882398852625,
            "lng": 5.89916719630912
          },
          "source": "grid3",
          "verified": true
        },
        {
          "type": "mosque",
          "name": "Farar Kasa Juma'at Mosque",
          "slug": "farar-kasa-juma-at-mosque-mosque",
          "coordinates": {
            "lat": 11.6252968502695,
            "lng": 6.14506393105563
          },
          "source": "grid3",
          "verified": true
        },
        {
          "type": "mosque",
          "name": "Abare Juma'at Mosque",
          "slug": "abare-juma-at-mosque-mosque",
          "coordinates": {
            "lat": 12.077890896148,
            "lng": 5.95618455217539
          },
          "source": "grid3",
          "verified": true
        },
        {
          "type": "mosque",
          "name": "Tungar Dutsi Jumu'at Mosque",
          "slug": "tungar-dutsi-jumu-at-mosque-mosque",
          "coordinates": {
            "lat": 12.2251600001339,
            "lng": 5.83017999980717
          },
          "source": "grid3",
          "verified": true
        },
        {
          "type": "mosque",
          "name": "Inwala Juma'at Mosque Anka",
          "slug": "inwala-juma-at-mosque-anka-mosque",
          "coordinates": {
            "lat": 12.2781700003453,
            "lng": 5.8560999999151
          },
          "source": "grid3",
          "verified": true
        },
        {
          "type": "mosque",
          "name": "Moda Juma'at Mosque",
          "slug": "moda-juma-at-mosque-mosque",
          "coordinates": {
            "lat": 12.1258899998237,
            "lng": 5.8414800002019
          },
          "source": "grid3",
          "verified": true
        },
        {
          "type": "mosque",
          "name": "Waramu Juma'at Mosque",
          "slug": "waramu-juma-at-mosque-mosque",
          "coordinates": {
            "lat": 12.1341399998611,
            "lng": 5.82057000000555
          },
          "source": "grid3",
          "verified": true
        },
        {
          "type": "mosque",
          "name": "Ruwan Zabo Juma'at Mosque",
          "slug": "ruwan-zabo-juma-at-mosque-mosque",
          "coordinates": {
            "lat": 12.0795899996788,
            "lng": 6.11002000032278
          },
          "source": "grid3",
          "verified": true
        },
        {
          "type": "mosque",
          "name": "Birnin Doki ll Juma'at Mosque",
          "slug": "birnin-doki-ll-juma-at-mosque-mosque",
          "coordinates": {
            "lat": 12.0985699999056,
            "lng": 6.04278999995859
          },
          "source": "grid3",
          "verified": true
        },
        {
          "type": "mosque",
          "name": "Yar Sabaya Juma'at Mosque",
          "slug": "yar-sabaya-juma-at-mosque-mosque",
          "coordinates": {
            "lat": 12.0861700000455,
            "lng": 6.09254000002102
          },
          "source": "grid3",
          "verified": true
        },
        {
          "type": "mosque",
          "name": "Yar Tasha Juma'at Mosque",
          "slug": "yar-tasha-juma-at-mosque-mosque",
          "coordinates": {
            "lat": 12.1111000003648,
            "lng": 6.09420999969177
          },
          "source": "grid3",
          "verified": true
        },
        {
          "type": "mosque",
          "name": "Hiya Hiya Juma'at Mosque",
          "slug": "hiya-hiya-juma-at-mosque-mosque",
          "coordinates": {
            "lat": 12.1521500003223,
            "lng": 5.97411000017644
          },
          "source": "grid3",
          "verified": true
        },
        {
          "type": "mosque",
          "name": "H Salawat Mosque",
          "slug": "h-salawat-mosque-mosque",
          "coordinates": {
            "lat": 12.1134899999636,
            "lng": 5.85170999981671
          },
          "source": "grid3",
          "verified": true
        },
        {
          "type": "mosque",
          "name": "Sabon Garin Girkau Juma'at Mosque",
          "slug": "sabon-garin-girkau-juma-at-mosque-mosque",
          "coordinates": {
            "lat": 12.0926599998592,
            "lng": 5.81660000038977
          },
          "source": "grid3",
          "verified": true
        },
        {
          "type": "mosque",
          "name": "Makakari Juma'at Mosque",
          "slug": "makakari-juma-at-mosque-mosque",
          "coordinates": {
            "lat": 11.923040000096,
            "lng": 5.89952000034776
          },
          "source": "grid3",
          "verified": true
        },
        {
          "type": "mosque",
          "name": "Gobirawa Juma'at Mosque",
          "slug": "gobirawa-juma-at-mosque-mosque",
          "coordinates": {
            "lat": 11.7972699999106,
            "lng": 6.13163000042425
          },
          "source": "grid3",
          "verified": true
        },
        {
          "type": "mosque",
          "name": "Dogon Ruwa Juma'at Mosque",
          "slug": "dogon-ruwa-juma-at-mosque-mosque",
          "coordinates": {
            "lat": 11.7019900001384,
            "lng": 6.21115000007251
          },
          "source": "grid3",
          "verified": true
        },
        {
          "type": "mosque",
          "name": "Tungar Turke Juma'at Mosque",
          "slug": "tungar-turke-juma-at-mosque-mosque",
          "coordinates": {
            "lat": 11.7103400002908,
            "lng": 6.14118999971873
          },
          "source": "grid3",
          "verified": true
        },
        {
          "type": "mosque",
          "name": "Duhuwar Maikal Juma'at Mosque",
          "slug": "duhuwar-maikal-juma-at-mosque-mosque",
          "coordinates": {
            "lat": 11.698420000083,
            "lng": 6.08225999989912
          },
          "source": "grid3",
          "verified": true
        },
        {
          "type": "mosque",
          "name": "Sabon Birnin Juma'at Mosque",
          "slug": "sabon-birnin-juma-at-mosque-mosque",
          "coordinates": {
            "lat": 11.6769399996813,
            "lng": 6.02027999972228
          },
          "source": "grid3",
          "verified": true
        },
        {
          "type": "mosque",
          "name": "Matankari Juma'at Mosque Anka",
          "slug": "matankari-juma-at-mosque-anka-mosque",
          "coordinates": {
            "lat": 11.6566700002204,
            "lng": 6.07866000025888
          },
          "source": "grid3",
          "verified": true
        },
        {
          "type": "mosque",
          "name": "Kawayen Malam Sani Juma'at Mosque",
          "slug": "kawayen-malam-sani-juma-at-mosque-mosque",
          "coordinates": {
            "lat": 11.8215800004168,
            "lng": 6.03223999997607
          },
          "source": "grid3",
          "verified": true
        },
        {
          "type": "mosque",
          "name": "Tangaram Juma'at Mosque",
          "slug": "tangaram-juma-at-mosque-mosque",
          "coordinates": {
            "lat": 11.9939900002383,
            "lng": 6.04722000010298
          },
          "source": "grid3",
          "verified": true
        },
        {
          "type": "mosque",
          "name": "Gidan Alhaji Bala Juma'at Mosque",
          "slug": "gidan-alhaji-bala-juma-at-mosque-mosque",
          "coordinates": {
            "lat": 11.9740600002688,
            "lng": 6.01296000030379
          },
          "source": "grid3",
          "verified": true
        },
        {
          "type": "mosque",
          "name": "Jar Kuka Juma'at Mosque",
          "slug": "jar-kuka-juma-at-mosque-mosque",
          "coordinates": {
            "lat": 11.9602399996763,
            "lng": 6.05947000024037
          },
          "source": "grid3",
          "verified": true
        },
        {
          "type": "mosque",
          "name": "Yanmatankari Juma'at Mosque",
          "slug": "yanmatankari-juma-at-mosque-mosque",
          "coordinates": {
            "lat": 12.0795800001169,
            "lng": 6.06140999977174
          },
          "source": "grid3",
          "verified": true
        },
        {
          "type": "mosque",
          "name": "Tungar Magaji Juma'at Mosque Anka",
          "slug": "tungar-magaji-juma-at-mosque-anka-mosque",
          "coordinates": {
            "lat": 12.0511399998112,
            "lng": 6.05506999968077
          },
          "source": "grid3",
          "verified": true
        },
        {
          "type": "mosque",
          "name": "Gidan Maiano Juma'at Mosque",
          "slug": "gidan-maiano-juma-at-mosque-mosque",
          "coordinates": {
            "lat": 12.0591899996188,
            "lng": 6.04344000025583
          },
          "source": "grid3",
          "verified": true
        },
        {
          "type": "mosque",
          "name": "Kwan Kur Chiya Juma'at Mosque",
          "slug": "kwan-kur-chiya-juma-at-mosque-mosque",
          "coordinates": {
            "lat": 12.0629100002963,
            "lng": 6.03613999996105
          },
          "source": "grid3",
          "verified": true
        },
        {
          "type": "mosque",
          "name": "Tungar Mairakuma Juma'at Mosque",
          "slug": "tungar-mairakuma-juma-at-mosque-mosque",
          "coordinates": {
            "lat": 12.0537499996628,
            "lng": 5.96475999977423
          },
          "source": "grid3",
          "verified": true
        },
        {
          "type": "mosque",
          "name": "Tungar Maizabo Mosque",
          "slug": "tungar-maizabo-mosque-mosque",
          "coordinates": {
            "lat": 12.0000000003997,
            "lng": 5.9999999998002
          },
          "source": "grid3",
          "verified": true
        },
        {
          "type": "mosque",
          "name": "Shablin Godaba Juma'at Mosque",
          "slug": "shablin-godaba-juma-at-mosque-mosque",
          "coordinates": {
            "lat": 12.2307899998586,
            "lng": 5.80747000024036
          },
          "source": "grid3",
          "verified": true
        },
        {
          "type": "mosque",
          "name": "Rafin Gero Juma'at Mosque",
          "slug": "rafin-gero-juma-at-mosque-mosque",
          "coordinates": {
            "lat": 12.2304300003443,
            "lng": 5.77631999996805
          },
          "source": "grid3",
          "verified": true
        },
        {
          "type": "mosque",
          "name": "Dan Daura Juma'at Mosque",
          "slug": "dan-daura-juma-at-mosque-mosque",
          "coordinates": {
            "lat": 12.0355900003782,
            "lng": 6.15879000015843
          },
          "source": "grid3",
          "verified": true
        },
        {
          "type": "mosque",
          "name": "Gidan Ori Juma'at Mosque",
          "slug": "gidan-ori-juma-at-mosque-mosque",
          "coordinates": {
            "lat": 12.0422099998916,
            "lng": 6.15358999957886
          },
          "source": "grid3",
          "verified": true
        },
        {
          "type": "mosque",
          "name": "Akuzo Juma'at Mosque Anka",
          "slug": "akuzo-juma-at-mosque-anka-mosque",
          "coordinates": {
            "lat": 11.6464500001674,
            "lng": 6.18943000029435
          },
          "source": "grid3",
          "verified": true
        },
        {
          "type": "mosque",
          "name": "Doka Juma'at Mosque Anka",
          "slug": "doka-juma-at-mosque-anka-mosque",
          "coordinates": {
            "lat": 11.6970699998806,
            "lng": 6.15037999993712
          },
          "source": "grid3",
          "verified": true
        }
      ]
    },
    {
      "name": "Bakura",
      "slug": "zamfara-bakura",
      "markets": [],
      "facilities": [
        {
          "type": "market",
          "name": "Babbar Kasuwa Bakura",
          "slug": "babbar-kasuwa-bakura-market",
          "coordinates": {
            "lat": 12.7185500000825,
            "lng": 5.86984000041576
          },
          "source": "grid3",
          "verified": true,
          "metadata": {
            "mrkt_days": "0"
          }
        },
        {
          "type": "market",
          "name": "Kasuwar Bakin Titi",
          "slug": "kasuwar-bakin-titi-market",
          "coordinates": {
            "lat": 12.6548899997737,
            "lng": 5.94951199987895
          },
          "source": "grid3",
          "verified": true,
          "metadata": {
            "mrkt_days": "1"
          }
        },
        {
          "type": "market",
          "name": "Gamji Market",
          "slug": "gamji-market-market",
          "coordinates": {
            "lat": 12.6581899999686,
            "lng": 5.89240999982167
          },
          "source": "grid3",
          "verified": true,
          "metadata": {
            "mrkt_days": "1"
          }
        },
        {
          "type": "market",
          "name": "Balgari Kasuwa",
          "slug": "balgari-kasuwa-market",
          "coordinates": {
            "lat": 12.6623399997912,
            "lng": 5.87685200001982
          },
          "source": "grid3",
          "verified": true,
          "metadata": {
            "mrkt_days": "6"
          }
        },
        {
          "type": "market",
          "name": "Balgari",
          "slug": "balgari-market",
          "coordinates": {
            "lat": 12.6613999996104,
            "lng": 5.8739769996389
          },
          "source": "grid3",
          "verified": true,
          "metadata": {
            "mrkt_days": "1"
          }
        },
        {
          "type": "market",
          "name": "Badanma Mai Massalaci",
          "slug": "badanma-mai-massalaci-market",
          "coordinates": {
            "lat": 12.7930700002804,
            "lng": 5.87130999985663
          },
          "source": "grid3",
          "verified": true,
          "metadata": {
            "mrkt_days": "2"
          }
        },
        {
          "type": "market",
          "name": "Tsohon Kasuwa",
          "slug": "tsohon-kasuwa-market",
          "coordinates": {
            "lat": 12.7132999998951,
            "lng": 5.86979700023142
          },
          "source": "grid3",
          "verified": true,
          "metadata": {
            "mrkt_days": "7"
          }
        },
        {
          "type": "market",
          "name": "Dambo",
          "slug": "dambo-market",
          "coordinates": {
            "lat": 12.7598299998547,
            "lng": 5.85937699994867
          },